[
  {
    "bus_id": 3,
    "name": "Allen 115",
    "sub_name": "Allen 1",
    "kv": 115.0,
    "existing_load": 153.9,
    "lat": 33.09,
    "lng": -96.608,
    "safe_mw": 1000,
    "first_constraint_mw": null,
    "constraints": []
  },
  {
    "bus_id": 4,
    "name": "Carrollton 115",
    "sub_name": "Carrollton 1",
    "kv": 115.0,
    "existing_load": 183.2,
    "lat": 32.947,
    "lng": -96.896,
    "safe_mw": 1000,
    "first_constraint_mw": null,
    "constraints": []
  },
  {
    "bus_id": 10,
    "name": "Denison 115",
    "sub_name": "Denison 1",
    "kv": 115.0,
    "existing_load": 40.6,
    "lat": 33.771,
    "lng": -96.604,
    "safe_mw": 1000,
    "first_constraint_mw": null,
    "constraints": []
  },
  {
    "bus_id": 13,
    "name": "Plano 115",
    "sub_name": "Plano 1",
    "kv": 115.0,
    "existing_load": 234.9,
    "lat": 33.074,
    "lng": -96.736,
    "safe_mw": 1000,
    "first_constraint_mw": null,
    "constraints": []
  },
  {
    "bus_id": 27,
    "name": "Grand Prairie 2 115",
    "sub_name": "Grand Prairie 2",
    "kv": 115.0,
    "existing_load": 95.8,
    "lat": 32.729,
    "lng": -96.996,
    "safe_mw": 1000,
    "first_constraint_mw": null,
    "constraints": []
  },
  {
    "bus_id": 32,
    "name": "Irving 3 115",
    "sub_name": "Irving 3",
    "kv": 115.0,
    "existing_load": 350.9,
    "lat": 32.823,
    "lng": -96.96,
    "safe_mw": 1000,
    "first_constraint_mw": null,
    "constraints": []
  },
  {
    "bus_id": 42,
    "name": "Prosper 115",
    "sub_name": "Prosper",
    "kv": 115.0,
    "existing_load": 25.8,
    "lat": 33.242,
    "lng": -96.808,
    "safe_mw": 1000,
    "first_constraint_mw": null,
    "constraints": []
  },
  {
    "bus_id": 87,
    "name": "Terrell 2 115",
    "sub_name": "Terrell 2",
    "kv": 115.0,
    "existing_load": 15.0,
    "lat": 32.738,
    "lng": -96.169,
    "safe_mw": 1000,
    "first_constraint_mw": null,
    "constraints": []
  },
  {
    "bus_id": 132,
    "name": "Blue Ridge 115",
    "sub_name": "Blue Ridge",
    "kv": 115.0,
    "existing_load": 8.0,
    "lat": 33.322,
    "lng": -96.378,
    "safe_mw": 1000,
    "first_constraint_mw": null,
    "constraints": []
  },
  {
    "bus_id": 136,
    "name": "Cooper 115",
    "sub_name": "Cooper",
    "kv": 115.0,
    "existing_load": 8.4,
    "lat": 33.396,
    "lng": -95.676,
    "safe_mw": 1000,
    "first_constraint_mw": null,
    "constraints": []
  },
  {
    "bus_id": 204,
    "name": "Tyler 8 115",
    "sub_name": "Tyler 8",
    "kv": 115.0,
    "existing_load": 7.9,
    "lat": 32.304,
    "lng": -95.391,
    "safe_mw": 1000,
    "first_constraint_mw": null,
    "constraints": []
  },
  {
    "bus_id": 216,
    "name": "Frankston 115",
    "sub_name": "Frankston 1",
    "kv": 115.0,
    "existing_load": 9.4,
    "lat": 32.043,
    "lng": -95.523,
    "safe_mw": 1000,
    "first_constraint_mw": null,
    "constraints": []
  },
  {
    "bus_id": 237,
    "name": "Centerville 115",
    "sub_name": "Centerville",
    "kv": 115.0,
    "existing_load": 5.2,
    "lat": 31.268,
    "lng": -95.841,
    "safe_mw": 1000,
    "first_constraint_mw": null,
    "constraints": []
  },
  {
    "bus_id": 239,
    "name": "Donie 115",
    "sub_name": "Donie",
    "kv": 115.0,
    "existing_load": 1.0,
    "lat": 31.479,
    "lng": -96.23,
    "safe_mw": 1000,
    "first_constraint_mw": null,
    "constraints": []
  },
  {
    "bus_id": 244,
    "name": "Kennard 115",
    "sub_name": "Kennard 1",
    "kv": 115.0,
    "existing_load": 3.0,
    "lat": 31.357,
    "lng": -95.152,
    "safe_mw": 1000,
    "first_constraint_mw": null,
    "constraints": []
  },
  {
    "bus_id": 245,
    "name": "Kennard 2 115",
    "sub_name": "Kennard 2",
    "kv": 115.0,
    "existing_load": 0.1,
    "lat": 31.765,
    "lng": -96.33,
    "safe_mw": 1000,
    "first_constraint_mw": null,
    "constraints": []
  },
  {
    "bus_id": 255,
    "name": "Tennessee Colony 115",
    "sub_name": "Tennessee Colony",
    "kv": 115.0,
    "existing_load": 14.1,
    "lat": 31.852,
    "lng": -95.888,
    "safe_mw": 1000,
    "first_constraint_mw": null,
    "constraints": []
  },
  {
    "bus_id": 259,
    "name": "Alto 115",
    "sub_name": "Alto",
    "kv": 115.0,
    "existing_load": 6.5,
    "lat": 31.613,
    "lng": -95.062,
    "safe_mw": 1000,
    "first_constraint_mw": null,
    "constraints": []
  },
  {
    "bus_id": 289,
    "name": "Cleburne 2 115",
    "sub_name": "Cleburne 2",
    "kv": 115.0,
    "existing_load": 60.5,
    "lat": 32.277,
    "lng": -97.508,
    "safe_mw": 1000,
    "first_constraint_mw": null,
    "constraints": []
  },
  {
    "bus_id": 306,
    "name": "Kennedale 2 115",
    "sub_name": "Kennedale 2",
    "kv": 115.0,
    "existing_load": 0.4,
    "lat": 32.504,
    "lng": -97.188,
    "safe_mw": 1000,
    "first_constraint_mw": null,
    "constraints": []
  },
  {
    "bus_id": 320,
    "name": "Weatherford 3 115",
    "sub_name": "Weatherford 3",
    "kv": 115.0,
    "existing_load": 60.3,
    "lat": 32.683,
    "lng": -97.782,
    "safe_mw": 1000,
    "first_constraint_mw": null,
    "constraints": []
  },
  {
    "bus_id": 321,
    "name": "Weatherford 4 115",
    "sub_name": "Weatherford 4",
    "kv": 115.0,
    "existing_load": 28.0,
    "lat": 32.848,
    "lng": -97.903,
    "safe_mw": 1000,
    "first_constraint_mw": null,
    "constraints": []
  },
  {
    "bus_id": 333,
    "name": "Fort Worth 9 115",
    "sub_name": "Fort Worth 9",
    "kv": 115.0,
    "existing_load": 250.7,
    "lat": 32.647,
    "lng": -97.393,
    "safe_mw": 1000,
    "first_constraint_mw": null,
    "constraints": []
  },
  {
    "bus_id": 334,
    "name": "Fort Worth 10 115",
    "sub_name": "Fort Worth 10",
    "kv": 115.0,
    "existing_load": 47.3,
    "lat": 32.636,
    "lng": -97.503,
    "safe_mw": 1000,
    "first_constraint_mw": null,
    "constraints": []
  },
  {
    "bus_id": 336,
    "name": "Fort Worth 12 115",
    "sub_name": "Fort Worth 12",
    "kv": 115.0,
    "existing_load": 57.8,
    "lat": 32.639,
    "lng": -97.335,
    "safe_mw": 1000,
    "first_constraint_mw": null,
    "constraints": []
  },
  {
    "bus_id": 339,
    "name": "Fort Worth 15 115",
    "sub_name": "Fort Worth 15",
    "kv": 115.0,
    "existing_load": 64.2,
    "lat": 32.62,
    "lng": -97.275,
    "safe_mw": 1000,
    "first_constraint_mw": null,
    "constraints": []
  },
  {
    "bus_id": 340,
    "name": "Fort Worth 16 115",
    "sub_name": "Fort Worth 16",
    "kv": 115.0,
    "existing_load": 7.6,
    "lat": 32.824,
    "lng": -97.049,
    "safe_mw": 1000,
    "first_constraint_mw": null,
    "constraints": []
  },
  {
    "bus_id": 365,
    "name": "Muenster 115",
    "sub_name": "Muenster 1",
    "kv": 115.0,
    "existing_load": 5.3,
    "lat": 33.682,
    "lng": -97.383,
    "safe_mw": 1000,
    "first_constraint_mw": null,
    "constraints": []
  },
  {
    "bus_id": 380,
    "name": "Whitesboro 115",
    "sub_name": "Whitesboro",
    "kv": 115.0,
    "existing_load": 17.0,
    "lat": 33.744,
    "lng": -96.936,
    "safe_mw": 1000,
    "first_constraint_mw": null,
    "constraints": []
  },
  {
    "bus_id": 389,
    "name": "Electra 115",
    "sub_name": "Electra",
    "kv": 115.0,
    "existing_load": 6.5,
    "lat": 33.963,
    "lng": -98.961,
    "safe_mw": 1000,
    "first_constraint_mw": null,
    "constraints": []
  },
  {
    "bus_id": 409,
    "name": "Bridgeport 115",
    "sub_name": "Bridgeport",
    "kv": 115.0,
    "existing_load": 27.6,
    "lat": 33.166,
    "lng": -97.845,
    "safe_mw": 1000,
    "first_constraint_mw": null,
    "constraints": []
  },
  {
    "bus_id": 421,
    "name": "De Leon 115",
    "sub_name": "De Leon",
    "kv": 115.0,
    "existing_load": 8.9,
    "lat": 32.124,
    "lng": -98.574,
    "safe_mw": 1000,
    "first_constraint_mw": null,
    "constraints": []
  },
  {
    "bus_id": 424,
    "name": "Eastland 115",
    "sub_name": "Eastland",
    "kv": 115.0,
    "existing_load": 13.7,
    "lat": 32.399,
    "lng": -98.801,
    "safe_mw": 1000,
    "first_constraint_mw": null,
    "constraints": []
  },
  {
    "bus_id": 428,
    "name": "Gordon 115",
    "sub_name": "Gordon",
    "kv": 115.0,
    "existing_load": 2.7,
    "lat": 32.588,
    "lng": -98.334,
    "safe_mw": 1000,
    "first_constraint_mw": null,
    "constraints": []
  },
  {
    "bus_id": 434,
    "name": "Loving 115",
    "sub_name": "Loving",
    "kv": 115.0,
    "existing_load": 1.0,
    "lat": 33.31,
    "lng": -98.5,
    "safe_mw": 1000,
    "first_constraint_mw": null,
    "constraints": []
  },
  {
    "bus_id": 442,
    "name": "Santo 115",
    "sub_name": "Santo",
    "kv": 115.0,
    "existing_load": 3.6,
    "lat": 32.601,
    "lng": -98.173,
    "safe_mw": 1000,
    "first_constraint_mw": null,
    "constraints": []
  },
  {
    "bus_id": 447,
    "name": "Throckmorton 115",
    "sub_name": "Throckmorton",
    "kv": 115.0,
    "existing_load": 2.6,
    "lat": 33.188,
    "lng": -99.265,
    "safe_mw": 1000,
    "first_constraint_mw": null,
    "constraints": []
  },
  {
    "bus_id": 501,
    "name": "Blum 115",
    "sub_name": "Blum",
    "kv": 115.0,
    "existing_load": 3.9,
    "lat": 32.109,
    "lng": -97.396,
    "safe_mw": 1000,
    "first_constraint_mw": null,
    "constraints": []
  },
  {
    "bus_id": 510,
    "name": "Covington 115",
    "sub_name": "Covington",
    "kv": 115.0,
    "existing_load": 3.6,
    "lat": 32.171,
    "lng": -97.291,
    "safe_mw": 1000,
    "first_constraint_mw": null,
    "constraints": []
  },
  {
    "bus_id": 513,
    "name": "Dawson 115",
    "sub_name": "Dawson",
    "kv": 115.0,
    "existing_load": 3.9,
    "lat": 31.867,
    "lng": -96.656,
    "safe_mw": 1000,
    "first_constraint_mw": null,
    "constraints": []
  },
  {
    "bus_id": 515,
    "name": "Frost 115",
    "sub_name": "Frost",
    "kv": 115.0,
    "existing_load": 4.1,
    "lat": 32.039,
    "lng": -96.808,
    "safe_mw": 1000,
    "first_constraint_mw": null,
    "constraints": []
  },
  {
    "bus_id": 533,
    "name": "Mexia 115",
    "sub_name": "Mexia",
    "kv": 115.0,
    "existing_load": 27.6,
    "lat": 31.655,
    "lng": -96.468,
    "safe_mw": 1000,
    "first_constraint_mw": null,
    "constraints": []
  },
  {
    "bus_id": 540,
    "name": "Reagan 115",
    "sub_name": "Reagan",
    "kv": 115.0,
    "existing_load": 0.5,
    "lat": 31.202,
    "lng": -96.814,
    "safe_mw": 1000,
    "first_constraint_mw": null,
    "constraints": []
  },
  {
    "bus_id": 545,
    "name": "Thornton 115",
    "sub_name": "Thornton",
    "kv": 115.0,
    "existing_load": 3.6,
    "lat": 31.373,
    "lng": -96.495,
    "safe_mw": 1000,
    "first_constraint_mw": null,
    "constraints": []
  },
  {
    "bus_id": 558,
    "name": "Art 115",
    "sub_name": "Art",
    "kv": 115.0,
    "existing_load": 0.3,
    "lat": 30.767,
    "lng": -99.05,
    "safe_mw": 1000,
    "first_constraint_mw": null,
    "constraints": []
  },
  {
    "bus_id": 565,
    "name": "Castell 115",
    "sub_name": "Castell",
    "kv": 115.0,
    "existing_load": 0.2,
    "lat": 30.654,
    "lng": -98.918,
    "safe_mw": 1000,
    "first_constraint_mw": null,
    "constraints": []
  },
  {
    "bus_id": 581,
    "name": "Melvin 115",
    "sub_name": "Melvin",
    "kv": 115.0,
    "existing_load": 0.6,
    "lat": 31.177,
    "lng": -99.616,
    "safe_mw": 1000,
    "first_constraint_mw": null,
    "constraints": []
  },
  {
    "bus_id": 611,
    "name": "Carlsbad 115",
    "sub_name": "Carlsbad",
    "kv": 115.0,
    "existing_load": 3.1,
    "lat": 31.603,
    "lng": -100.669,
    "safe_mw": 1000,
    "first_constraint_mw": null,
    "constraints": []
  },
  {
    "bus_id": 653,
    "name": "Houston 27 115",
    "sub_name": "Houston 27",
    "kv": 115.0,
    "existing_load": 55.2,
    "lat": 29.813,
    "lng": -95.584,
    "safe_mw": 1000,
    "first_constraint_mw": null,
    "constraints": []
  },
  {
    "bus_id": 664,
    "name": "Pasadena 115",
    "sub_name": "Pasadena 1",
    "kv": 115.0,
    "existing_load": 94.9,
    "lat": 29.632,
    "lng": -95.131,
    "safe_mw": 1000,
    "first_constraint_mw": null,
    "constraints": []
  },
  {
    "bus_id": 702,
    "name": "Tomball 115",
    "sub_name": "Tomball 1",
    "kv": 115.0,
    "existing_load": 93.0,
    "lat": 30.095,
    "lng": -95.586,
    "safe_mw": 1000,
    "first_constraint_mw": null,
    "constraints": []
  },
  {
    "bus_id": 707,
    "name": "Spring 4 115",
    "sub_name": "Spring 4",
    "kv": 115.0,
    "existing_load": 166.1,
    "lat": 30.187,
    "lng": -95.525,
    "safe_mw": 1000,
    "first_constraint_mw": null,
    "constraints": []
  },
  {
    "bus_id": 709,
    "name": "Conroe 7 115",
    "sub_name": "Conroe 7",
    "kv": 115.0,
    "existing_load": 46.1,
    "lat": 30.188,
    "lng": -95.416,
    "safe_mw": 1000,
    "first_constraint_mw": null,
    "constraints": []
  },
  {
    "bus_id": 729,
    "name": "Eagle Lake 115",
    "sub_name": "Eagle Lake",
    "kv": 115.0,
    "existing_load": 11.4,
    "lat": 29.528,
    "lng": -96.305,
    "safe_mw": 1000,
    "first_constraint_mw": null,
    "constraints": []
  },
  {
    "bus_id": 730,
    "name": "East Bernard 115",
    "sub_name": "East Bernard 1",
    "kv": 115.0,
    "existing_load": 10.7,
    "lat": 29.516,
    "lng": -96.12,
    "safe_mw": 1000,
    "first_constraint_mw": null,
    "constraints": []
  },
  {
    "bus_id": 738,
    "name": "Hempstead 115",
    "sub_name": "Hempstead 1",
    "kv": 115.0,
    "existing_load": 28.3,
    "lat": 30.1,
    "lng": -96.066,
    "safe_mw": 1000,
    "first_constraint_mw": null,
    "constraints": []
  },
  {
    "bus_id": 765,
    "name": "Stafford 115",
    "sub_name": "Stafford",
    "kv": 115.0,
    "existing_load": 143.2,
    "lat": 29.623,
    "lng": -95.583,
    "safe_mw": 1000,
    "first_constraint_mw": null,
    "constraints": []
  },
  {
    "bus_id": 772,
    "name": "Wallis 115",
    "sub_name": "Wallis",
    "kv": 115.0,
    "existing_load": 9.6,
    "lat": 29.633,
    "lng": -96.055,
    "safe_mw": 1000,
    "first_constraint_mw": null,
    "constraints": []
  },
  {
    "bus_id": 788,
    "name": "Baytown 3 115",
    "sub_name": "Baytown 3",
    "kv": 115.0,
    "existing_load": 40.2,
    "lat": 29.79,
    "lng": -94.859,
    "safe_mw": 1000,
    "first_constraint_mw": null,
    "constraints": []
  },
  {
    "bus_id": 814,
    "name": "Rosharon 115",
    "sub_name": "Rosharon",
    "kv": 115.0,
    "existing_load": 67.4,
    "lat": 29.381,
    "lng": -95.47,
    "safe_mw": 1000,
    "first_constraint_mw": null,
    "constraints": []
  },
  {
    "bus_id": 830,
    "name": "Brenham 115",
    "sub_name": "Brenham",
    "kv": 115.0,
    "existing_load": 56.2,
    "lat": 30.215,
    "lng": -96.41,
    "safe_mw": 1000,
    "first_constraint_mw": null,
    "constraints": []
  },
  {
    "bus_id": 842,
    "name": "Madisonville 115",
    "sub_name": "Madisonville",
    "kv": 115.0,
    "existing_load": 12.0,
    "lat": 30.954,
    "lng": -95.905,
    "safe_mw": 1000,
    "first_constraint_mw": null,
    "constraints": []
  },
  {
    "bus_id": 849,
    "name": "Richards 2 115",
    "sub_name": "Richards 2",
    "kv": 115.0,
    "existing_load": 0.3,
    "lat": 30.599,
    "lng": -95.875,
    "safe_mw": 1000,
    "first_constraint_mw": null,
    "constraints": []
  },
  {
    "bus_id": 870,
    "name": "Meyersville 115",
    "sub_name": "Meyersville",
    "kv": 115.0,
    "existing_load": 0.9,
    "lat": 28.892,
    "lng": -97.31,
    "safe_mw": 1000,
    "first_constraint_mw": null,
    "constraints": []
  },
  {
    "bus_id": 879,
    "name": "Shiner 2 115",
    "sub_name": "Shiner 2",
    "kv": 115.0,
    "existing_load": 0.3,
    "lat": 29.343,
    "lng": -97.076,
    "safe_mw": 1000,
    "first_constraint_mw": null,
    "constraints": []
  },
  {
    "bus_id": 884,
    "name": "Westhoff 115",
    "sub_name": "Westhoff",
    "kv": 115.0,
    "existing_load": 0.7,
    "lat": 29.178,
    "lng": -97.471,
    "safe_mw": 1000,
    "first_constraint_mw": null,
    "constraints": []
  },
  {
    "bus_id": 892,
    "name": "Calliham 115",
    "sub_name": "Calliham",
    "kv": 115.0,
    "existing_load": 0.3,
    "lat": 28.498,
    "lng": -98.369,
    "safe_mw": 1000,
    "first_constraint_mw": null,
    "constraints": []
  },
  {
    "bus_id": 893,
    "name": "Campbellton 115",
    "sub_name": "Campbellton",
    "kv": 115.0,
    "existing_load": 0.6,
    "lat": 28.721,
    "lng": -98.281,
    "safe_mw": 1000,
    "first_constraint_mw": null,
    "constraints": []
  },
  {
    "bus_id": 902,
    "name": "Dilley 115",
    "sub_name": "Dilley 1",
    "kv": 115.0,
    "existing_load": 8.8,
    "lat": 28.703,
    "lng": -99.191,
    "safe_mw": 1000,
    "first_constraint_mw": null,
    "constraints": []
  },
  {
    "bus_id": 921,
    "name": "Lytle 115",
    "sub_name": "Lytle",
    "kv": 115.0,
    "existing_load": 11.8,
    "lat": 29.204,
    "lng": -98.777,
    "safe_mw": 1000,
    "first_constraint_mw": null,
    "constraints": []
  },
  {
    "bus_id": 942,
    "name": "Beeville 115",
    "sub_name": "Beeville 1",
    "kv": 115.0,
    "existing_load": 50.8,
    "lat": 28.408,
    "lng": -97.711,
    "safe_mw": 1000,
    "first_constraint_mw": null,
    "constraints": []
  },
  {
    "bus_id": 960,
    "name": "New Braunfels 2 115",
    "sub_name": "New Braunfels 2",
    "kv": 115.0,
    "existing_load": 39.1,
    "lat": 29.759,
    "lng": -98.19,
    "safe_mw": 1000,
    "first_constraint_mw": null,
    "constraints": []
  },
  {
    "bus_id": 961,
    "name": "Canyon Lake 115",
    "sub_name": "Canyon Lake 1",
    "kv": 115.0,
    "existing_load": 33.3,
    "lat": 29.889,
    "lng": -98.245,
    "safe_mw": 1000,
    "first_constraint_mw": null,
    "constraints": []
  },
  {
    "bus_id": 992,
    "name": "San Antonio 14 115",
    "sub_name": "San Antonio 14",
    "kv": 115.0,
    "existing_load": 36.0,
    "lat": 29.305,
    "lng": -98.531,
    "safe_mw": 1000,
    "first_constraint_mw": null,
    "constraints": []
  },
  {
    "bus_id": 1003,
    "name": "San Antonio 25 115",
    "sub_name": "San Antonio 25",
    "kv": 115.0,
    "existing_load": 213.4,
    "lat": 29.484,
    "lng": -98.67,
    "safe_mw": 1000,
    "first_constraint_mw": null,
    "constraints": []
  },
  {
    "bus_id": 1016,
    "name": "Agua Dulce 115",
    "sub_name": "Agua Dulce",
    "kv": 115.0,
    "existing_load": 1.6,
    "lat": 27.743,
    "lng": -97.916,
    "safe_mw": 1000,
    "first_constraint_mw": null,
    "constraints": []
  },
  {
    "bus_id": 1022,
    "name": "Bayside 115",
    "sub_name": "Bayside 1",
    "kv": 115.0,
    "existing_load": 0.7,
    "lat": 28.121,
    "lng": -97.197,
    "safe_mw": 1000,
    "first_constraint_mw": null,
    "constraints": []
  },
  {
    "bus_id": 1050,
    "name": "Rockport 115",
    "sub_name": "Rockport",
    "kv": 115.0,
    "existing_load": 35.7,
    "lat": 28.133,
    "lng": -97.062,
    "safe_mw": 1000,
    "first_constraint_mw": null,
    "constraints": []
  },
  {
    "bus_id": 1068,
    "name": "Corpus Christi 10 115",
    "sub_name": "Corpus Christi 10",
    "kv": 115.0,
    "existing_load": 1.3,
    "lat": 27.695,
    "lng": -97.269,
    "safe_mw": 1000,
    "first_constraint_mw": null,
    "constraints": []
  },
  {
    "bus_id": 1095,
    "name": "Lopeno 115",
    "sub_name": "Lopeno",
    "kv": 115.0,
    "existing_load": 0.5,
    "lat": 26.678,
    "lng": -99.103,
    "safe_mw": 1000,
    "first_constraint_mw": null,
    "constraints": []
  },
  {
    "bus_id": 1096,
    "name": "Sullivan City 115",
    "sub_name": "Sullivan City",
    "kv": 115.0,
    "existing_load": 12.0,
    "lat": 26.289,
    "lng": -98.547,
    "safe_mw": 1000,
    "first_constraint_mw": null,
    "constraints": []
  },
  {
    "bus_id": 1136,
    "name": "Dale 115",
    "sub_name": "Dale",
    "kv": 115.0,
    "existing_load": 14.5,
    "lat": 29.94,
    "lng": -97.568,
    "safe_mw": 1000,
    "first_constraint_mw": null,
    "constraints": []
  },
  {
    "bus_id": 1137,
    "name": "Del Valle 115",
    "sub_name": "Del Valle",
    "kv": 115.0,
    "existing_load": 45.4,
    "lat": 30.151,
    "lng": -97.607,
    "safe_mw": 1000,
    "first_constraint_mw": null,
    "constraints": []
  },
  {
    "bus_id": 1143,
    "name": "Fischer 115",
    "sub_name": "Fischer",
    "kv": 115.0,
    "existing_load": 1.7,
    "lat": 29.971,
    "lng": -98.228,
    "safe_mw": 1000,
    "first_constraint_mw": null,
    "constraints": []
  },
  {
    "bus_id": 1165,
    "name": "Manor 115",
    "sub_name": "Manor 1",
    "kv": 115.0,
    "existing_load": 33.5,
    "lat": 30.34,
    "lng": -97.524,
    "safe_mw": 1000,
    "first_constraint_mw": null,
    "constraints": []
  },
  {
    "bus_id": 1170,
    "name": "Paige 115",
    "sub_name": "Paige",
    "kv": 115.0,
    "existing_load": 5.9,
    "lat": 30.207,
    "lng": -97.125,
    "safe_mw": 1000,
    "first_constraint_mw": null,
    "constraints": []
  },
  {
    "bus_id": 1171,
    "name": "Pflugerville 2 115",
    "sub_name": "Pflugerville 2",
    "kv": 115.0,
    "existing_load": 140.7,
    "lat": 30.439,
    "lng": -97.595,
    "safe_mw": 1000,
    "first_constraint_mw": null,
    "constraints": []
  },
  {
    "bus_id": 1175,
    "name": "San Marcos 115",
    "sub_name": "San Marcos",
    "kv": 115.0,
    "existing_load": 130.6,
    "lat": 29.88,
    "lng": -97.966,
    "safe_mw": 1000,
    "first_constraint_mw": null,
    "constraints": []
  },
  {
    "bus_id": 1203,
    "name": "Austin 21 115",
    "sub_name": "Austin 21",
    "kv": 115.0,
    "existing_load": 113.7,
    "lat": 30.207,
    "lng": -97.797,
    "safe_mw": 1000,
    "first_constraint_mw": null,
    "constraints": []
  },
  {
    "bus_id": 1218,
    "name": "Camp Wood 115",
    "sub_name": "Camp Wood",
    "kv": 115.0,
    "existing_load": 3.1,
    "lat": 29.675,
    "lng": -100.079,
    "safe_mw": 1000,
    "first_constraint_mw": null,
    "constraints": []
  },
  {
    "bus_id": 1239,
    "name": "Tarpley 115",
    "sub_name": "Tarpley",
    "kv": 115.0,
    "existing_load": 0.7,
    "lat": 29.678,
    "lng": -99.317,
    "safe_mw": 1000,
    "first_constraint_mw": null,
    "constraints": []
  },
  {
    "bus_id": 1276,
    "name": "Wheeler 115",
    "sub_name": "Wheeler",
    "kv": 115.0,
    "existing_load": 4.1,
    "lat": 35.437,
    "lng": -100.197,
    "safe_mw": 1000,
    "first_constraint_mw": null,
    "constraints": []
  },
  {
    "bus_id": 1286,
    "name": "Floydada 115",
    "sub_name": "Floydada 1",
    "kv": 115.0,
    "existing_load": 0.5,
    "lat": 33.711,
    "lng": -100.384,
    "safe_mw": 1000,
    "first_constraint_mw": null,
    "constraints": []
  },
  {
    "bus_id": 1290,
    "name": "Memphis 115",
    "sub_name": "Memphis",
    "kv": 115.0,
    "existing_load": 4.6,
    "lat": 34.857,
    "lng": -100.513,
    "safe_mw": 1000,
    "first_constraint_mw": null,
    "constraints": []
  },
  {
    "bus_id": 1297,
    "name": "Tell 115",
    "sub_name": "Tell",
    "kv": 115.0,
    "existing_load": 0.1,
    "lat": 34.398,
    "lng": -100.473,
    "safe_mw": 1000,
    "first_constraint_mw": null,
    "constraints": []
  },
  {
    "bus_id": 1299,
    "name": "Crosbyton 115",
    "sub_name": "Crosbyton",
    "kv": 115.0,
    "existing_load": 3.8,
    "lat": 33.635,
    "lng": -101.18,
    "safe_mw": 1000,
    "first_constraint_mw": null,
    "constraints": []
  },
  {
    "bus_id": 1302,
    "name": "Odonnell 115",
    "sub_name": "Odonnell",
    "kv": 115.0,
    "existing_load": 2.5,
    "lat": 32.927,
    "lng": -101.764,
    "safe_mw": 1000,
    "first_constraint_mw": null,
    "constraints": []
  },
  {
    "bus_id": 1325,
    "name": "Knox City 115",
    "sub_name": "Knox City",
    "kv": 115.0,
    "existing_load": 2.6,
    "lat": 33.432,
    "lng": -99.854,
    "safe_mw": 1000,
    "first_constraint_mw": null,
    "constraints": []
  },
  {
    "bus_id": 1334,
    "name": "O Brien 115",
    "sub_name": "O Brien",
    "kv": 115.0,
    "existing_load": 0.3,
    "lat": 33.361,
    "lng": -99.877,
    "safe_mw": 1000,
    "first_constraint_mw": null,
    "constraints": []
  },
  {
    "bus_id": 1357,
    "name": "Abilene 5 115",
    "sub_name": "Abilene 5",
    "kv": 115.0,
    "existing_load": 54.2,
    "lat": 32.363,
    "lng": -99.817,
    "safe_mw": 1000,
    "first_constraint_mw": null,
    "constraints": []
  },
  {
    "bus_id": 1370,
    "name": "Crane 115",
    "sub_name": "Crane 1",
    "kv": 115.0,
    "existing_load": 7.8,
    "lat": 31.423,
    "lng": -102.488,
    "safe_mw": 1000,
    "first_constraint_mw": null,
    "constraints": []
  },
  {
    "bus_id": 1419,
    "name": "Pasadena 4 115",
    "sub_name": "Pasadena 4",
    "kv": 115.0,
    "existing_load": 0.0,
    "lat": 29.717,
    "lng": -95.049,
    "safe_mw": 1000,
    "first_constraint_mw": null,
    "constraints": []
  },
  {
    "bus_id": 1421,
    "name": "Feeeport 115",
    "sub_name": "Feeeport",
    "kv": 115.0,
    "existing_load": 0.0,
    "lat": 28.988,
    "lng": -95.383,
    "safe_mw": 1000,
    "first_constraint_mw": null,
    "constraints": []
  },
  {
    "bus_id": 1423,
    "name": "Corpus Christi 11 115",
    "sub_name": "Corpus Christi 11",
    "kv": 115.0,
    "existing_load": 0.0,
    "lat": 27.835,
    "lng": -97.381,
    "safe_mw": 1000,
    "first_constraint_mw": null,
    "constraints": []
  },
  {
    "bus_id": 1424,
    "name": "Big Spring 4 115",
    "sub_name": "Big Spring 4",
    "kv": 115.0,
    "existing_load": 0.0,
    "lat": 32.128,
    "lng": -101.416,
    "safe_mw": 1000,
    "first_constraint_mw": null,
    "constraints": []
  },
  {
    "bus_id": 1425,
    "name": "Baytown 4 115",
    "sub_name": "Baytown 4",
    "kv": 115.0,
    "existing_load": 0.0,
    "lat": 29.758,
    "lng": -94.918,
    "safe_mw": 1000,
    "first_constraint_mw": null,
    "constraints": []
  },
  {
    "bus_id": 1426,
    "name": "Mccamey 115",
    "sub_name": "Mccamey",
    "kv": 115.0,
    "existing_load": 0.0,
    "lat": 31.194,
    "lng": -102.238,
    "safe_mw": 1000,
    "first_constraint_mw": null,
    "constraints": []
  },
  {
    "bus_id": 1436,
    "name": "Bastrop 2 115",
    "sub_name": "Bastrop 2",
    "kv": 115.0,
    "existing_load": 0.0,
    "lat": 30.147,
    "lng": -97.271,
    "safe_mw": 1000,
    "first_constraint_mw": null,
    "constraints": []
  },
  {
    "bus_id": 1439,
    "name": "Odessa 8 115",
    "sub_name": "Odessa 8",
    "kv": 115.0,
    "existing_load": 0.0,
    "lat": 31.841,
    "lng": -102.323,
    "safe_mw": 1000,
    "first_constraint_mw": null,
    "constraints": []
  },
  {
    "bus_id": 1440,
    "name": "Girvin 115",
    "sub_name": "Girvin",
    "kv": 115.0,
    "existing_load": 0.0,
    "lat": 30.846,
    "lng": -102.424,
    "safe_mw": 1000,
    "first_constraint_mw": null,
    "constraints": []
  },
  {
    "bus_id": 1442,
    "name": "Jacksboro 2 115",
    "sub_name": "Jacksboro 2",
    "kv": 115.0,
    "existing_load": 0.0,
    "lat": 33.145,
    "lng": -98.353,
    "safe_mw": 1000,
    "first_constraint_mw": null,
    "constraints": []
  },
  {
    "bus_id": 1448,
    "name": "Pearsall 2 115",
    "sub_name": "Pearsall 2",
    "kv": 115.0,
    "existing_load": 0.0,
    "lat": 28.927,
    "lng": -99.092,
    "safe_mw": 1000,
    "first_constraint_mw": null,
    "constraints": []
  },
  {
    "bus_id": 1450,
    "name": "Anderson 2 115",
    "sub_name": "Anderson 2",
    "kv": 115.0,
    "existing_load": 0.0,
    "lat": 30.62,
    "lng": -96.082,
    "safe_mw": 1000,
    "first_constraint_mw": null,
    "constraints": []
  },
  {
    "bus_id": 1454,
    "name": "Merkel 2 115",
    "sub_name": "Merkel 2",
    "kv": 115.0,
    "existing_load": 0.0,
    "lat": 32.257,
    "lng": -100.08,
    "safe_mw": 1000,
    "first_constraint_mw": null,
    "constraints": []
  },
  {
    "bus_id": 1455,
    "name": "Wadsworth 2 115",
    "sub_name": "Wadsworth 2",
    "kv": 115.0,
    "existing_load": 0.0,
    "lat": 28.795,
    "lng": -96.048,
    "safe_mw": 1000,
    "first_constraint_mw": null,
    "constraints": []
  },
  {
    "bus_id": 1458,
    "name": "Sterling City 3 115",
    "sub_name": "Sterling City 3",
    "kv": 115.0,
    "existing_load": 0.0,
    "lat": 31.931,
    "lng": -100.903,
    "safe_mw": 1000,
    "first_constraint_mw": null,
    "constraints": []
  },
  {
    "bus_id": 1460,
    "name": "Cedar Creek 2 115",
    "sub_name": "Cedar Creek 2",
    "kv": 115.0,
    "existing_load": 0.0,
    "lat": 30.146,
    "lng": -97.55,
    "safe_mw": 1000,
    "first_constraint_mw": null,
    "constraints": []
  },
  {
    "bus_id": 1462,
    "name": "Snyder 2 115",
    "sub_name": "Snyder 2",
    "kv": 115.0,
    "existing_load": 0.0,
    "lat": 32.664,
    "lng": -100.781,
    "safe_mw": 1000,
    "first_constraint_mw": null,
    "constraints": []
  },
  {
    "bus_id": 1465,
    "name": "Blackwell 2 115",
    "sub_name": "Blackwell 2",
    "kv": 115.0,
    "existing_load": 0.0,
    "lat": 32.198,
    "lng": -100.269,
    "safe_mw": 1000,
    "first_constraint_mw": null,
    "constraints": []
  },
  {
    "bus_id": 1473,
    "name": "Olney 2 115",
    "sub_name": "Olney 2",
    "kv": 115.0,
    "existing_load": 0.0,
    "lat": 33.438,
    "lng": -98.636,
    "safe_mw": 1000,
    "first_constraint_mw": null,
    "constraints": []
  },
  {
    "bus_id": 1476,
    "name": "Glen Rose 2 115",
    "sub_name": "Glen Rose 2",
    "kv": 115.0,
    "existing_load": 0.0,
    "lat": 32.298,
    "lng": -97.786,
    "safe_mw": 1000,
    "first_constraint_mw": null,
    "constraints": []
  },
  {
    "bus_id": 1479,
    "name": "Big Springs 115",
    "sub_name": "Big Springs",
    "kv": 115.0,
    "existing_load": 0.0,
    "lat": 31.991,
    "lng": -101.212,
    "safe_mw": 1000,
    "first_constraint_mw": null,
    "constraints": []
  },
  {
    "bus_id": 1481,
    "name": "Taft 2 115",
    "sub_name": "Taft 2",
    "kv": 115.0,
    "existing_load": 0.0,
    "lat": 27.966,
    "lng": -97.375,
    "safe_mw": 1000,
    "first_constraint_mw": null,
    "constraints": []
  },
  {
    "bus_id": 1489,
    "name": ";\n",
    "sub_name": "Panhandle 3",
    "kv": 115.0,
    "existing_load": 0.0,
    "lat": 35.434,
    "lng": -101.307,
    "safe_mw": 1000,
    "first_constraint_mw": null,
    "constraints": []
  },
  {
    "bus_id": 1493,
    "name": ";\n",
    "sub_name": "Rockdale 2",
    "kv": 115.0,
    "existing_load": 0.0,
    "lat": 30.568,
    "lng": -97.061,
    "safe_mw": 1000,
    "first_constraint_mw": null,
    "constraints": []
  },
  {
    "bus_id": 1783,
    "name": ";\n",
    "sub_name": "Denison 1",
    "kv": 345.0,
    "existing_load": 0.0,
    "lat": 33.771,
    "lng": -96.604,
    "safe_mw": 1000,
    "first_constraint_mw": null,
    "constraints": []
  },
  {
    "bus_id": 1784,
    "name": ";\n",
    "sub_name": "Grand Prairie 2",
    "kv": 345.0,
    "existing_load": 0.0,
    "lat": 32.729,
    "lng": -96.996,
    "safe_mw": 1000,
    "first_constraint_mw": null,
    "constraints": []
  },
  {
    "bus_id": 1785,
    "name": ";\n",
    "sub_name": "Plano 5",
    "kv": 345.0,
    "existing_load": 0.0,
    "lat": 33.022,
    "lng": -96.615,
    "safe_mw": 1000,
    "first_constraint_mw": null,
    "constraints": []
  },
  {
    "bus_id": 1786,
    "name": ";\n",
    "sub_name": "Dallas 10",
    "kv": 345.0,
    "existing_load": 0.0,
    "lat": 32.71,
    "lng": -96.679,
    "safe_mw": 1000,
    "first_constraint_mw": null,
    "constraints": []
  },
  {
    "bus_id": 1787,
    "name": ";\n",
    "sub_name": "Blue Ridge",
    "kv": 345.0,
    "existing_load": 0.0,
    "lat": 33.322,
    "lng": -96.378,
    "safe_mw": 1000,
    "first_constraint_mw": null,
    "constraints": []
  },
  {
    "bus_id": 1788,
    "name": ";\n",
    "sub_name": "Cooper",
    "kv": 345.0,
    "existing_load": 0.0,
    "lat": 33.396,
    "lng": -95.676,
    "safe_mw": 1000,
    "first_constraint_mw": null,
    "constraints": []
  },
  {
    "bus_id": 1789,
    "name": ";\n",
    "sub_name": "Mount Enterprise",
    "kv": 345.0,
    "existing_load": 0.0,
    "lat": 31.925,
    "lng": -94.704,
    "safe_mw": 1000,
    "first_constraint_mw": null,
    "constraints": []
  },
  {
    "bus_id": 1790,
    "name": ";\n",
    "sub_name": "Tyler 8",
    "kv": 345.0,
    "existing_load": 0.0,
    "lat": 32.304,
    "lng": -95.391,
    "safe_mw": 1000,
    "first_constraint_mw": null,
    "constraints": []
  },
  {
    "bus_id": 1791,
    "name": ";\n",
    "sub_name": "Centerville",
    "kv": 345.0,
    "existing_load": 0.0,
    "lat": 31.268,
    "lng": -95.841,
    "safe_mw": 1000,
    "first_constraint_mw": null,
    "constraints": []
  },
  {
    "bus_id": 1792,
    "name": ";\n",
    "sub_name": "Kennard 1",
    "kv": 345.0,
    "existing_load": 0.0,
    "lat": 31.357,
    "lng": -95.152,
    "safe_mw": 1000,
    "first_constraint_mw": null,
    "constraints": []
  },
  {
    "bus_id": 1793,
    "name": ";\n",
    "sub_name": "Kennard 2",
    "kv": 345.0,
    "existing_load": 0.0,
    "lat": 31.765,
    "lng": -96.33,
    "safe_mw": 1000,
    "first_constraint_mw": null,
    "constraints": []
  },
  {
    "bus_id": 1794,
    "name": ";\n",
    "sub_name": "Tennessee Colony",
    "kv": 345.0,
    "existing_load": 0.0,
    "lat": 31.852,
    "lng": -95.888,
    "safe_mw": 1000,
    "first_constraint_mw": null,
    "constraints": []
  },
  {
    "bus_id": 1795,
    "name": ";\n",
    "sub_name": "Alto",
    "kv": 345.0,
    "existing_load": 0.0,
    "lat": 31.613,
    "lng": -95.062,
    "safe_mw": 1000,
    "first_constraint_mw": null,
    "constraints": []
  },
  {
    "bus_id": 1796,
    "name": ";\n",
    "sub_name": "Kennedale 2",
    "kv": 345.0,
    "existing_load": 0.0,
    "lat": 32.504,
    "lng": -97.188,
    "safe_mw": 1000,
    "first_constraint_mw": null,
    "constraints": []
  },
  {
    "bus_id": 1797,
    "name": ";\n",
    "sub_name": "Weatherford 4",
    "kv": 345.0,
    "existing_load": 0.0,
    "lat": 32.848,
    "lng": -97.903,
    "safe_mw": 1000,
    "first_constraint_mw": null,
    "constraints": []
  },
  {
    "bus_id": 1798,
    "name": ";\n",
    "sub_name": "Fort Worth 10",
    "kv": 345.0,
    "existing_load": 0.0,
    "lat": 32.636,
    "lng": -97.503,
    "safe_mw": 1000,
    "first_constraint_mw": null,
    "constraints": []
  },
  {
    "bus_id": 1799,
    "name": ";\n",
    "sub_name": "Fort Worth 16",
    "kv": 345.0,
    "existing_load": 0.0,
    "lat": 32.824,
    "lng": -97.049,
    "safe_mw": 1000,
    "first_constraint_mw": null,
    "constraints": []
  },
  {
    "bus_id": 1800,
    "name": ";\n",
    "sub_name": "Electra",
    "kv": 345.0,
    "existing_load": 0.0,
    "lat": 33.963,
    "lng": -98.961,
    "safe_mw": 1000,
    "first_constraint_mw": null,
    "constraints": []
  },
  {
    "bus_id": 1801,
    "name": ";\n",
    "sub_name": "Gordon",
    "kv": 345.0,
    "existing_load": 0.0,
    "lat": 32.588,
    "lng": -98.334,
    "safe_mw": 1000,
    "first_constraint_mw": null,
    "constraints": []
  },
  {
    "bus_id": 1802,
    "name": ";\n",
    "sub_name": "Throckmorton",
    "kv": 345.0,
    "existing_load": 0.0,
    "lat": 33.188,
    "lng": -99.265,
    "safe_mw": 1000,
    "first_constraint_mw": null,
    "constraints": []
  },
  {
    "bus_id": 1803,
    "name": ";\n",
    "sub_name": "Covington",
    "kv": 345.0,
    "existing_load": 0.0,
    "lat": 32.171,
    "lng": -97.291,
    "safe_mw": 1000,
    "first_constraint_mw": null,
    "constraints": []
  },
  {
    "bus_id": 1804,
    "name": ";\n",
    "sub_name": "Dawson",
    "kv": 345.0,
    "existing_load": 0.0,
    "lat": 31.867,
    "lng": -96.656,
    "safe_mw": 1000,
    "first_constraint_mw": null,
    "constraints": []
  },
  {
    "bus_id": 1805,
    "name": ";\n",
    "sub_name": "Reagan",
    "kv": 345.0,
    "existing_load": 0.0,
    "lat": 31.202,
    "lng": -96.814,
    "safe_mw": 1000,
    "first_constraint_mw": null,
    "constraints": []
  },
  {
    "bus_id": 1806,
    "name": ";\n",
    "sub_name": "Art",
    "kv": 345.0,
    "existing_load": 0.0,
    "lat": 30.767,
    "lng": -99.05,
    "safe_mw": 1000,
    "first_constraint_mw": null,
    "constraints": []
  },
  {
    "bus_id": 1807,
    "name": ";\n",
    "sub_name": "Castell",
    "kv": 345.0,
    "existing_load": 0.0,
    "lat": 30.654,
    "lng": -98.918,
    "safe_mw": 1000,
    "first_constraint_mw": null,
    "constraints": []
  },
  {
    "bus_id": 1808,
    "name": ";\n",
    "sub_name": "Carlsbad",
    "kv": 345.0,
    "existing_load": 0.0,
    "lat": 31.603,
    "lng": -100.669,
    "safe_mw": 1000,
    "first_constraint_mw": null,
    "constraints": []
  },
  {
    "bus_id": 1809,
    "name": ";\n",
    "sub_name": "Houston 24",
    "kv": 345.0,
    "existing_load": 0.0,
    "lat": 29.911,
    "lng": -95.341,
    "safe_mw": 1000,
    "first_constraint_mw": null,
    "constraints": []
  },
  {
    "bus_id": 1810,
    "name": ";\n",
    "sub_name": "Houston 37",
    "kv": 345.0,
    "existing_load": 0.0,
    "lat": 29.935,
    "lng": -95.395,
    "safe_mw": 1000,
    "first_constraint_mw": null,
    "constraints": []
  },
  {
    "bus_id": 1811,
    "name": ";\n",
    "sub_name": "Porter",
    "kv": 345.0,
    "existing_load": 0.0,
    "lat": 30.107,
    "lng": -95.297,
    "safe_mw": 1000,
    "first_constraint_mw": null,
    "constraints": []
  },
  {
    "bus_id": 1812,
    "name": ";\n",
    "sub_name": "East Bernard 1",
    "kv": 345.0,
    "existing_load": 0.0,
    "lat": 29.516,
    "lng": -96.12,
    "safe_mw": 1000,
    "first_constraint_mw": null,
    "constraints": []
  },
  {
    "bus_id": 1813,
    "name": ";\n",
    "sub_name": "Stafford",
    "kv": 345.0,
    "existing_load": 0.0,
    "lat": 29.623,
    "lng": -95.583,
    "safe_mw": 1000,
    "first_constraint_mw": null,
    "constraints": []
  },
  {
    "bus_id": 1814,
    "name": ";\n",
    "sub_name": "Wallis",
    "kv": 345.0,
    "existing_load": 0.0,
    "lat": 29.633,
    "lng": -96.055,
    "safe_mw": 1000,
    "first_constraint_mw": null,
    "constraints": []
  },
  {
    "bus_id": 1815,
    "name": ";\n",
    "sub_name": "Deer Park",
    "kv": 345.0,
    "existing_load": 0.0,
    "lat": 29.701,
    "lng": -95.138,
    "safe_mw": 1000,
    "first_constraint_mw": null,
    "constraints": []
  },
  {
    "bus_id": 1816,
    "name": ";\n",
    "sub_name": "Baytown 3",
    "kv": 345.0,
    "existing_load": 0.0,
    "lat": 29.79,
    "lng": -94.859,
    "safe_mw": 1000,
    "first_constraint_mw": null,
    "constraints": []
  },
  {
    "bus_id": 1817,
    "name": ";\n",
    "sub_name": "Madisonville",
    "kv": 345.0,
    "existing_load": 0.0,
    "lat": 30.954,
    "lng": -95.905,
    "safe_mw": 1000,
    "first_constraint_mw": null,
    "constraints": []
  },
  {
    "bus_id": 1818,
    "name": ";\n",
    "sub_name": "Richards 2",
    "kv": 345.0,
    "existing_load": 0.0,
    "lat": 30.599,
    "lng": -95.875,
    "safe_mw": 1000,
    "first_constraint_mw": null,
    "constraints": []
  },
  {
    "bus_id": 1819,
    "name": ";\n",
    "sub_name": "Meyersville",
    "kv": 345.0,
    "existing_load": 0.0,
    "lat": 28.892,
    "lng": -97.31,
    "safe_mw": 1000,
    "first_constraint_mw": null,
    "constraints": []
  },
  {
    "bus_id": 1820,
    "name": ";\n",
    "sub_name": "Shiner 2",
    "kv": 345.0,
    "existing_load": 0.0,
    "lat": 29.343,
    "lng": -97.076,
    "safe_mw": 1000,
    "first_constraint_mw": null,
    "constraints": []
  },
  {
    "bus_id": 1821,
    "name": ";\n",
    "sub_name": "Westhoff",
    "kv": 345.0,
    "existing_load": 0.0,
    "lat": 29.178,
    "lng": -97.471,
    "safe_mw": 1000,
    "first_constraint_mw": null,
    "constraints": []
  },
  {
    "bus_id": 1822,
    "name": ";\n",
    "sub_name": "Calliham",
    "kv": 345.0,
    "existing_load": 0.0,
    "lat": 28.498,
    "lng": -98.369,
    "safe_mw": 1000,
    "first_constraint_mw": null,
    "constraints": []
  },
  {
    "bus_id": 1823,
    "name": ";\n",
    "sub_name": "Campbellton",
    "kv": 345.0,
    "existing_load": 0.0,
    "lat": 28.721,
    "lng": -98.281,
    "safe_mw": 1000,
    "first_constraint_mw": null,
    "constraints": []
  },
  {
    "bus_id": 1824,
    "name": ";\n",
    "sub_name": "Dilley 1",
    "kv": 345.0,
    "existing_load": 0.0,
    "lat": 28.703,
    "lng": -99.191,
    "safe_mw": 1000,
    "first_constraint_mw": null,
    "constraints": []
  },
  {
    "bus_id": 1825,
    "name": ";\n",
    "sub_name": "Canyon Lake 1",
    "kv": 345.0,
    "existing_load": 0.0,
    "lat": 29.889,
    "lng": -98.245,
    "safe_mw": 1000,
    "first_constraint_mw": null,
    "constraints": []
  },
  {
    "bus_id": 1826,
    "name": ";\n",
    "sub_name": "San Antonio 14",
    "kv": 345.0,
    "existing_load": 0.0,
    "lat": 29.305,
    "lng": -98.531,
    "safe_mw": 1000,
    "first_constraint_mw": null,
    "constraints": []
  },
  {
    "bus_id": 1827,
    "name": ";\n",
    "sub_name": "San Antonio 29",
    "kv": 345.0,
    "existing_load": 0.0,
    "lat": 29.642,
    "lng": -98.644,
    "safe_mw": 1000,
    "first_constraint_mw": null,
    "constraints": []
  },
  {
    "bus_id": 1828,
    "name": ";\n",
    "sub_name": "Agua Dulce",
    "kv": 345.0,
    "existing_load": 0.0,
    "lat": 27.743,
    "lng": -97.916,
    "safe_mw": 1000,
    "first_constraint_mw": null,
    "constraints": []
  },
  {
    "bus_id": 1829,
    "name": ";\n",
    "sub_name": "Bayside 1",
    "kv": 345.0,
    "existing_load": 0.0,
    "lat": 28.121,
    "lng": -97.197,
    "safe_mw": 1000,
    "first_constraint_mw": null,
    "constraints": []
  },
  {
    "bus_id": 1830,
    "name": ";\n",
    "sub_name": "Bayside 3",
    "kv": 345.0,
    "existing_load": 0.0,
    "lat": 27.66,
    "lng": -98.076,
    "safe_mw": 1000,
    "first_constraint_mw": null,
    "constraints": []
  },
  {
    "bus_id": 1831,
    "name": ";\n",
    "sub_name": "Robstown",
    "kv": 345.0,
    "existing_load": 0.0,
    "lat": 27.791,
    "lng": -97.742,
    "safe_mw": 1000,
    "first_constraint_mw": null,
    "constraints": []
  },
  {
    "bus_id": 1832,
    "name": ";\n",
    "sub_name": "Rockport",
    "kv": 345.0,
    "existing_load": 0.0,
    "lat": 28.133,
    "lng": -97.062,
    "safe_mw": 1000,
    "first_constraint_mw": null,
    "constraints": []
  },
  {
    "bus_id": 1833,
    "name": ";\n",
    "sub_name": "Mission 3",
    "kv": 345.0,
    "existing_load": 0.0,
    "lat": 26.319,
    "lng": -98.37,
    "safe_mw": 1000,
    "first_constraint_mw": null,
    "constraints": []
  },
  {
    "bus_id": 1836,
    "name": ";\n",
    "sub_name": "Dale",
    "kv": 345.0,
    "existing_load": 0.0,
    "lat": 29.94,
    "lng": -97.568,
    "safe_mw": 1000,
    "first_constraint_mw": null,
    "constraints": []
  },
  {
    "bus_id": 1837,
    "name": ";\n",
    "sub_name": "Fischer",
    "kv": 345.0,
    "existing_load": 0.0,
    "lat": 29.971,
    "lng": -98.228,
    "safe_mw": 1000,
    "first_constraint_mw": null,
    "constraints": []
  },
  {
    "bus_id": 1838,
    "name": ";\n",
    "sub_name": "Manor 1",
    "kv": 345.0,
    "existing_load": 0.0,
    "lat": 30.34,
    "lng": -97.524,
    "safe_mw": 1000,
    "first_constraint_mw": null,
    "constraints": []
  },
  {
    "bus_id": 1839,
    "name": ";\n",
    "sub_name": "Austin 17",
    "kv": 345.0,
    "existing_load": 0.0,
    "lat": 30.19,
    "lng": -97.957,
    "safe_mw": 1000,
    "first_constraint_mw": null,
    "constraints": []
  },
  {
    "bus_id": 1840,
    "name": ";\n",
    "sub_name": "Austin 22",
    "kv": 345.0,
    "existing_load": 0.0,
    "lat": 30.295,
    "lng": -97.808,
    "safe_mw": 1000,
    "first_constraint_mw": null,
    "constraints": []
  },
  {
    "bus_id": 1841,
    "name": ";\n",
    "sub_name": "Wheeler",
    "kv": 345.0,
    "existing_load": 0.0,
    "lat": 35.437,
    "lng": -100.197,
    "safe_mw": 1000,
    "first_constraint_mw": null,
    "constraints": []
  },
  {
    "bus_id": 1842,
    "name": ";\n",
    "sub_name": "Floydada 1",
    "kv": 345.0,
    "existing_load": 0.0,
    "lat": 33.711,
    "lng": -100.384,
    "safe_mw": 1000,
    "first_constraint_mw": null,
    "constraints": []
  },
  {
    "bus_id": 1843,
    "name": ";\n",
    "sub_name": "Odonnell",
    "kv": 345.0,
    "existing_load": 0.0,
    "lat": 32.927,
    "lng": -101.764,
    "safe_mw": 1000,
    "first_constraint_mw": null,
    "constraints": []
  },
  {
    "bus_id": 1844,
    "name": ";\n",
    "sub_name": "Clyde",
    "kv": 345.0,
    "existing_load": 0.0,
    "lat": 32.266,
    "lng": -99.519,
    "safe_mw": 1000,
    "first_constraint_mw": null,
    "constraints": []
  },
  {
    "bus_id": 1845,
    "name": ";\n",
    "sub_name": "Knox City",
    "kv": 345.0,
    "existing_load": 0.0,
    "lat": 33.432,
    "lng": -99.854,
    "safe_mw": 1000,
    "first_constraint_mw": null,
    "constraints": []
  },
  {
    "bus_id": 1846,
    "name": ";\n",
    "sub_name": "O Brien",
    "kv": 345.0,
    "existing_load": 0.0,
    "lat": 33.361,
    "lng": -99.877,
    "safe_mw": 1000,
    "first_constraint_mw": null,
    "constraints": []
  },
  {
    "bus_id": 1847,
    "name": ";\n",
    "sub_name": "Abilene 5",
    "kv": 345.0,
    "existing_load": 0.0,
    "lat": 32.363,
    "lng": -99.817,
    "safe_mw": 1000,
    "first_constraint_mw": null,
    "constraints": []
  },
  {
    "bus_id": 1848,
    "name": ";\n",
    "sub_name": "Crane 1",
    "kv": 345.0,
    "existing_load": 0.0,
    "lat": 31.423,
    "lng": -102.488,
    "safe_mw": 1000,
    "first_constraint_mw": null,
    "constraints": []
  },
  {
    "bus_id": 1849,
    "name": ";\n",
    "sub_name": "Pasadena 4",
    "kv": 345.0,
    "existing_load": 0.0,
    "lat": 29.717,
    "lng": -95.049,
    "safe_mw": 1000,
    "first_constraint_mw": null,
    "constraints": []
  },
  {
    "bus_id": 1850,
    "name": ";\n",
    "sub_name": "Feeeport",
    "kv": 345.0,
    "existing_load": 0.0,
    "lat": 28.988,
    "lng": -95.383,
    "safe_mw": 1000,
    "first_constraint_mw": null,
    "constraints": []
  },
  {
    "bus_id": 1851,
    "name": ";\n",
    "sub_name": "Bryan 5",
    "kv": 345.0,
    "existing_load": 0.0,
    "lat": 30.697,
    "lng": -96.432,
    "safe_mw": 1000,
    "first_constraint_mw": null,
    "constraints": []
  },
  {
    "bus_id": 1852,
    "name": ";\n",
    "sub_name": "Corpus Christi 11",
    "kv": 345.0,
    "existing_load": 0.0,
    "lat": 27.835,
    "lng": -97.381,
    "safe_mw": 1000,
    "first_constraint_mw": null,
    "constraints": []
  },
  {
    "bus_id": 1853,
    "name": ";\n",
    "sub_name": "Big Spring 4",
    "kv": 345.0,
    "existing_load": 0.0,
    "lat": 32.128,
    "lng": -101.416,
    "safe_mw": 1000,
    "first_constraint_mw": null,
    "constraints": []
  },
  {
    "bus_id": 1854,
    "name": ";\n",
    "sub_name": "Baytown 4",
    "kv": 345.0,
    "existing_load": 0.0,
    "lat": 29.758,
    "lng": -94.918,
    "safe_mw": 1000,
    "first_constraint_mw": null,
    "constraints": []
  },
  {
    "bus_id": 1855,
    "name": ";\n",
    "sub_name": "Mccamey",
    "kv": 345.0,
    "existing_load": 0.0,
    "lat": 31.194,
    "lng": -102.238,
    "safe_mw": 1000,
    "first_constraint_mw": null,
    "constraints": []
  },
  {
    "bus_id": 1856,
    "name": ";\n",
    "sub_name": "Bastrop 2",
    "kv": 345.0,
    "existing_load": 0.0,
    "lat": 30.147,
    "lng": -97.271,
    "safe_mw": 1000,
    "first_constraint_mw": null,
    "constraints": []
  },
  {
    "bus_id": 1857,
    "name": ";\n",
    "sub_name": "Odessa 8",
    "kv": 345.0,
    "existing_load": 0.0,
    "lat": 31.841,
    "lng": -102.323,
    "safe_mw": 1000,
    "first_constraint_mw": null,
    "constraints": []
  },
  {
    "bus_id": 1858,
    "name": ";\n",
    "sub_name": "Girvin",
    "kv": 345.0,
    "existing_load": 0.0,
    "lat": 30.846,
    "lng": -102.424,
    "safe_mw": 1000,
    "first_constraint_mw": null,
    "constraints": []
  },
  {
    "bus_id": 1860,
    "name": ";\n",
    "sub_name": "Jacksboro 2",
    "kv": 345.0,
    "existing_load": 0.0,
    "lat": 33.145,
    "lng": -98.353,
    "safe_mw": 1000,
    "first_constraint_mw": null,
    "constraints": []
  },
  {
    "bus_id": 1861,
    "name": ";\n",
    "sub_name": "Texas City 2",
    "kv": 345.0,
    "existing_load": 0.0,
    "lat": 29.378,
    "lng": -94.935,
    "safe_mw": 1000,
    "first_constraint_mw": null,
    "constraints": []
  },
  {
    "bus_id": 1862,
    "name": ";\n",
    "sub_name": "Pearsall 2",
    "kv": 345.0,
    "existing_load": 0.0,
    "lat": 28.927,
    "lng": -99.092,
    "safe_mw": 1000,
    "first_constraint_mw": null,
    "constraints": []
  },
  {
    "bus_id": 1863,
    "name": ";\n",
    "sub_name": "Anderson 2",
    "kv": 345.0,
    "existing_load": 0.0,
    "lat": 30.62,
    "lng": -96.082,
    "safe_mw": 1000,
    "first_constraint_mw": null,
    "constraints": []
  },
  {
    "bus_id": 1864,
    "name": ";\n",
    "sub_name": "Trent 2",
    "kv": 345.0,
    "existing_load": 0.0,
    "lat": 32.34,
    "lng": -100.381,
    "safe_mw": 1000,
    "first_constraint_mw": null,
    "constraints": []
  },
  {
    "bus_id": 1865,
    "name": ";\n",
    "sub_name": "Merkel 2",
    "kv": 345.0,
    "existing_load": 0.0,
    "lat": 32.257,
    "lng": -100.08,
    "safe_mw": 1000,
    "first_constraint_mw": null,
    "constraints": []
  },
  {
    "bus_id": 1866,
    "name": ";\n",
    "sub_name": "Wadsworth 2",
    "kv": 345.0,
    "existing_load": 0.0,
    "lat": 28.795,
    "lng": -96.048,
    "safe_mw": 1000,
    "first_constraint_mw": null,
    "constraints": []
  },
  {
    "bus_id": 1867,
    "name": ";\n",
    "sub_name": "Sterling City 3",
    "kv": 345.0,
    "existing_load": 0.0,
    "lat": 31.931,
    "lng": -100.903,
    "safe_mw": 1000,
    "first_constraint_mw": null,
    "constraints": []
  },
  {
    "bus_id": 1868,
    "name": ";\n",
    "sub_name": "Cedar Creek 2",
    "kv": 345.0,
    "existing_load": 0.0,
    "lat": 30.146,
    "lng": -97.55,
    "safe_mw": 1000,
    "first_constraint_mw": null,
    "constraints": []
  },
  {
    "bus_id": 1869,
    "name": ";\n",
    "sub_name": "Snyder 2",
    "kv": 345.0,
    "existing_load": 0.0,
    "lat": 32.664,
    "lng": -100.781,
    "safe_mw": 1000,
    "first_constraint_mw": null,
    "constraints": []
  },
  {
    "bus_id": 1870,
    "name": ";\n",
    "sub_name": "Miami 2",
    "kv": 345.0,
    "existing_load": 0.0,
    "lat": 35.654,
    "lng": -100.539,
    "safe_mw": 1000,
    "first_constraint_mw": null,
    "constraints": []
  },
  {
    "bus_id": 1871,
    "name": ";\n",
    "sub_name": "Abilene 6",
    "kv": 345.0,
    "existing_load": 0.0,
    "lat": 32.628,
    "lng": -99.53,
    "safe_mw": 1000,
    "first_constraint_mw": null,
    "constraints": []
  },
  {
    "bus_id": 1872,
    "name": ";\n",
    "sub_name": "Olney 2",
    "kv": 345.0,
    "existing_load": 0.0,
    "lat": 33.438,
    "lng": -98.636,
    "safe_mw": 1000,
    "first_constraint_mw": null,
    "constraints": []
  },
  {
    "bus_id": 1874,
    "name": ";\n",
    "sub_name": "Glen Rose 2",
    "kv": 345.0,
    "existing_load": 0.0,
    "lat": 32.298,
    "lng": -97.786,
    "safe_mw": 1000,
    "first_constraint_mw": null,
    "constraints": []
  },
  {
    "bus_id": 1875,
    "name": ";\n",
    "sub_name": "Big Springs",
    "kv": 345.0,
    "existing_load": 0.0,
    "lat": 31.991,
    "lng": -101.212,
    "safe_mw": 1000,
    "first_constraint_mw": null,
    "constraints": []
  },
  {
    "bus_id": 1876,
    "name": ";\n",
    "sub_name": "Roscoe 2",
    "kv": 345.0,
    "existing_load": 0.0,
    "lat": 32.457,
    "lng": -100.655,
    "safe_mw": 1000,
    "first_constraint_mw": null,
    "constraints": []
  },
  {
    "bus_id": 1877,
    "name": ";\n",
    "sub_name": "Taft 2",
    "kv": 345.0,
    "existing_load": 0.0,
    "lat": 27.966,
    "lng": -97.375,
    "safe_mw": 1000,
    "first_constraint_mw": null,
    "constraints": []
  },
  {
    "bus_id": 1879,
    "name": ";\n",
    "sub_name": "O'Donnell",
    "kv": 345.0,
    "existing_load": 0.0,
    "lat": 32.928,
    "lng": -101.616,
    "safe_mw": 1000,
    "first_constraint_mw": null,
    "constraints": []
  },
  {
    "bus_id": 1880,
    "name": ";\n",
    "sub_name": "Panhandle 3",
    "kv": 345.0,
    "existing_load": 0.0,
    "lat": 35.434,
    "lng": -101.307,
    "safe_mw": 1000,
    "first_constraint_mw": null,
    "constraints": []
  },
  {
    "bus_id": 1881,
    "name": "Donnell 345",
    "sub_name": "Rockdale 2",
    "kv": 345.0,
    "existing_load": 0.0,
    "lat": 30.568,
    "lng": -97.061,
    "safe_mw": 1000,
    "first_constraint_mw": null,
    "constraints": []
  },
  {
    "bus_id": 1882,
    "name": "Panhandle 3 345",
    "sub_name": "Lytle",
    "kv": 345.0,
    "existing_load": 0.0,
    "lat": 29.204,
    "lng": -98.777,
    "safe_mw": 1000,
    "first_constraint_mw": null,
    "constraints": []
  },
  {
    "bus_id": 1883,
    "name": "Rockdale 2 345",
    "sub_name": "Eden",
    "kv": 345.0,
    "existing_load": 0.0,
    "lat": 31.223,
    "lng": -99.896,
    "safe_mw": 1000,
    "first_constraint_mw": null,
    "constraints": []
  },
  {
    "bus_id": 1884,
    "name": "Lytle 345",
    "sub_name": "Victoria 1",
    "kv": 345.0,
    "existing_load": 0.0,
    "lat": 28.805,
    "lng": -96.985,
    "safe_mw": 1000,
    "first_constraint_mw": null,
    "constraints": []
  },
  {
    "bus_id": 1885,
    "name": "Eden 345",
    "sub_name": "Plano 2",
    "kv": 345.0,
    "existing_load": 0.0,
    "lat": 33.052,
    "lng": -96.808,
    "safe_mw": 1000,
    "first_constraint_mw": null,
    "constraints": []
  },
  {
    "bus_id": 1887,
    "name": "Plano 2 345",
    "sub_name": "Conroe 7",
    "kv": 345.0,
    "existing_load": 0.0,
    "lat": 30.188,
    "lng": -95.416,
    "safe_mw": 1000,
    "first_constraint_mw": null,
    "constraints": []
  },
  {
    "bus_id": 1889,
    "name": "Conroe 7 345",
    "sub_name": "Montgomery 2",
    "kv": 345.0,
    "existing_load": 0.0,
    "lat": 30.466,
    "lng": -95.73,
    "safe_mw": 1000,
    "first_constraint_mw": null,
    "constraints": []
  },
  {
    "bus_id": 1890,
    "name": "Brownsville 2 345",
    "sub_name": "Dallas 3",
    "kv": 345.0,
    "existing_load": 0.0,
    "lat": 32.751,
    "lng": -96.827,
    "safe_mw": 1000,
    "first_constraint_mw": null,
    "constraints": []
  },
  {
    "bus_id": 1891,
    "name": "Montgomery 2 345",
    "sub_name": "Houston 12",
    "kv": 345.0,
    "existing_load": 0.0,
    "lat": 29.797,
    "lng": -95.509,
    "safe_mw": 1000,
    "first_constraint_mw": null,
    "constraints": []
  },
  {
    "bus_id": 1892,
    "name": "Dallas 3 345",
    "sub_name": "San Angelo 3",
    "kv": 345.0,
    "existing_load": 0.0,
    "lat": 31.278,
    "lng": -100.406,
    "safe_mw": 1000,
    "first_constraint_mw": null,
    "constraints": []
  },
  {
    "bus_id": 1893,
    "name": "Houston 12 345",
    "sub_name": "Austin 27",
    "kv": 345.0,
    "existing_load": 0.0,
    "lat": 30.356,
    "lng": -97.645,
    "safe_mw": 1000,
    "first_constraint_mw": null,
    "constraints": []
  },
  {
    "bus_id": 1894,
    "name": "San Angelo 3 345",
    "sub_name": "Alpine 2",
    "kv": 345.0,
    "existing_load": 0.0,
    "lat": 30.429,
    "lng": -103.326,
    "safe_mw": 1000,
    "first_constraint_mw": null,
    "constraints": []
  },
  {
    "bus_id": 1895,
    "name": "Austin 27 345",
    "sub_name": "Rowlett 1",
    "kv": 345.0,
    "existing_load": 0.0,
    "lat": 32.951,
    "lng": -96.566,
    "safe_mw": 1000,
    "first_constraint_mw": null,
    "constraints": []
  },
  {
    "bus_id": 1896,
    "name": "Alpine 2 345",
    "sub_name": "Lufkin 2",
    "kv": 345.0,
    "existing_load": 0.0,
    "lat": 31.341,
    "lng": -94.826,
    "safe_mw": 1000,
    "first_constraint_mw": null,
    "constraints": []
  },
  {
    "bus_id": 1897,
    "name": "Rowlett 1 345",
    "sub_name": "Houston 46",
    "kv": 345.0,
    "existing_load": 0.0,
    "lat": 29.707,
    "lng": -95.646,
    "safe_mw": 1000,
    "first_constraint_mw": null,
    "constraints": []
  },
  {
    "bus_id": 1898,
    "name": "Lufkin 2 345",
    "sub_name": "Katy 2",
    "kv": 345.0,
    "existing_load": 0.0,
    "lat": 29.746,
    "lng": -95.742,
    "safe_mw": 1000,
    "first_constraint_mw": null,
    "constraints": []
  },
  {
    "bus_id": 1899,
    "name": "Houston 46 345",
    "sub_name": "San Antonio 11",
    "kv": 345.0,
    "existing_load": 0.0,
    "lat": 29.278,
    "lng": -98.479,
    "safe_mw": 1000,
    "first_constraint_mw": null,
    "constraints": []
  },
  {
    "bus_id": 1900,
    "name": "Katy 2 345",
    "sub_name": "North Richland Hills 1",
    "kv": 345.0,
    "existing_load": 0.0,
    "lat": 32.883,
    "lng": -97.181,
    "safe_mw": 1000,
    "first_constraint_mw": null,
    "constraints": []
  },
  {
    "bus_id": 1901,
    "name": "San Antonio 11 345",
    "sub_name": "Alice 1",
    "kv": 345.0,
    "existing_load": 0.0,
    "lat": 27.726,
    "lng": -98.135,
    "safe_mw": 1000,
    "first_constraint_mw": null,
    "constraints": []
  },
  {
    "bus_id": 1902,
    "name": "North Richland Hills 1 345",
    "sub_name": "San Antonio 33",
    "kv": 345.0,
    "existing_load": 0.0,
    "lat": 29.697,
    "lng": -98.487,
    "safe_mw": 1000,
    "first_constraint_mw": null,
    "constraints": []
  },
  {
    "bus_id": 1904,
    "name": "San Antonio 33 345",
    "sub_name": "Bryan 1",
    "kv": 345.0,
    "existing_load": 0.0,
    "lat": 30.652,
    "lng": -96.339,
    "safe_mw": 1000,
    "first_constraint_mw": null,
    "constraints": []
  },
  {
    "bus_id": 1905,
    "name": "Houston 20 345",
    "sub_name": "Weatherford 3",
    "kv": 345.0,
    "existing_load": 0.0,
    "lat": 32.683,
    "lng": -97.782,
    "safe_mw": 1000,
    "first_constraint_mw": null,
    "constraints": []
  },
  {
    "bus_id": 1907,
    "name": "Weatherford 3 345",
    "sub_name": "Frost",
    "kv": 345.0,
    "existing_load": 0.0,
    "lat": 32.039,
    "lng": -96.808,
    "safe_mw": 1000,
    "first_constraint_mw": null,
    "constraints": []
  },
  {
    "bus_id": 1908,
    "name": "Brownsville 1 345",
    "sub_name": "Corpus Christi 10",
    "kv": 345.0,
    "existing_load": 0.0,
    "lat": 27.695,
    "lng": -97.269,
    "safe_mw": 1000,
    "first_constraint_mw": null,
    "constraints": []
  },
  {
    "bus_id": 1909,
    "name": "Frost 345",
    "sub_name": "Austin 21",
    "kv": 345.0,
    "existing_load": 0.0,
    "lat": 30.207,
    "lng": -97.797,
    "safe_mw": 1000,
    "first_constraint_mw": null,
    "constraints": []
  },
  {
    "bus_id": 1910,
    "name": "Corpus Christi 10 345",
    "sub_name": "Blum",
    "kv": 345.0,
    "existing_load": 0.0,
    "lat": 32.109,
    "lng": -97.396,
    "safe_mw": 1000,
    "first_constraint_mw": null,
    "constraints": []
  },
  {
    "bus_id": 1911,
    "name": "Austin 21 345",
    "sub_name": "Houston 48",
    "kv": 345.0,
    "existing_load": 0.0,
    "lat": 29.587,
    "lng": -95.226,
    "safe_mw": 1000,
    "first_constraint_mw": null,
    "constraints": []
  },
  {
    "bus_id": 1912,
    "name": "Blum 345",
    "sub_name": "Eastland",
    "kv": 345.0,
    "existing_load": 0.0,
    "lat": 32.399,
    "lng": -98.801,
    "safe_mw": 1000,
    "first_constraint_mw": null,
    "constraints": []
  },
  {
    "bus_id": 1913,
    "name": "Houston 48 345",
    "sub_name": "Spring 3",
    "kv": 345.0,
    "existing_load": 0.0,
    "lat": 30.13,
    "lng": -95.492,
    "safe_mw": 1000,
    "first_constraint_mw": null,
    "constraints": []
  },
  {
    "bus_id": 1914,
    "name": "Eastland 345",
    "sub_name": "Santo",
    "kv": 345.0,
    "existing_load": 0.0,
    "lat": 32.601,
    "lng": -98.173,
    "safe_mw": 1000,
    "first_constraint_mw": null,
    "constraints": []
  },
  {
    "bus_id": 1915,
    "name": "Spring 3 345",
    "sub_name": "Houston 45",
    "kv": 345.0,
    "existing_load": 0.0,
    "lat": 29.76,
    "lng": -95.611,
    "safe_mw": 1000,
    "first_constraint_mw": null,
    "constraints": []
  },
  {
    "bus_id": 1916,
    "name": "Santo 345",
    "sub_name": "Euless",
    "kv": 345.0,
    "existing_load": 0.0,
    "lat": 32.801,
    "lng": -97.095,
    "safe_mw": 1000,
    "first_constraint_mw": null,
    "constraints": []
  },
  {
    "bus_id": 1917,
    "name": "Houston 45 345",
    "sub_name": "Briscoe",
    "kv": 345.0,
    "existing_load": 0.0,
    "lat": 35.64,
    "lng": -100.231,
    "safe_mw": 1000,
    "first_constraint_mw": null,
    "constraints": []
  },
  {
    "bus_id": 1918,
    "name": "Euless 345",
    "sub_name": "Sullivan City",
    "kv": 345.0,
    "existing_load": 0.0,
    "lat": 26.289,
    "lng": -98.547,
    "safe_mw": 1000,
    "first_constraint_mw": null,
    "constraints": []
  },
  {
    "bus_id": 1919,
    "name": "Briscoe 345",
    "sub_name": "Spring 4",
    "kv": 345.0,
    "existing_load": 0.0,
    "lat": 30.187,
    "lng": -95.525,
    "safe_mw": 1000,
    "first_constraint_mw": null,
    "constraints": []
  },
  {
    "bus_id": 1920,
    "name": "Sullivan City 345",
    "sub_name": "Mckinney 1",
    "kv": 345.0,
    "existing_load": 0.0,
    "lat": 33.18,
    "lng": -96.587,
    "safe_mw": 1000,
    "first_constraint_mw": null,
    "constraints": []
  },
  {
    "bus_id": 1924,
    "name": "Donna 345",
    "sub_name": "Plano 1",
    "kv": 345.0,
    "existing_load": 0.0,
    "lat": 33.074,
    "lng": -96.736,
    "safe_mw": 1000,
    "first_constraint_mw": null,
    "constraints": []
  },
  {
    "bus_id": 1925,
    "name": "San Benito 345",
    "sub_name": "San Antonio 2",
    "kv": 345.0,
    "existing_load": 0.0,
    "lat": 29.408,
    "lng": -98.464,
    "safe_mw": 1000,
    "first_constraint_mw": null,
    "constraints": []
  },
  {
    "bus_id": 1926,
    "name": "Plano 1 345",
    "sub_name": "Pflugerville 2",
    "kv": 345.0,
    "existing_load": 0.0,
    "lat": 30.439,
    "lng": -97.595,
    "safe_mw": 1000,
    "first_constraint_mw": null,
    "constraints": []
  },
  {
    "bus_id": 1927,
    "name": "San Antonio 2 345",
    "sub_name": "Huffman",
    "kv": 345.0,
    "existing_load": 0.0,
    "lat": 30.063,
    "lng": -95.099,
    "safe_mw": 1000,
    "first_constraint_mw": null,
    "constraints": []
  },
  {
    "bus_id": 1928,
    "name": "Pflugerville 2 345",
    "sub_name": "Eagle Lake",
    "kv": 345.0,
    "existing_load": 0.0,
    "lat": 29.528,
    "lng": -96.305,
    "safe_mw": 1000,
    "first_constraint_mw": null,
    "constraints": []
  },
  {
    "bus_id": 1929,
    "name": "Huffman 345",
    "sub_name": "Brenham",
    "kv": 345.0,
    "existing_load": 0.0,
    "lat": 30.215,
    "lng": -96.41,
    "safe_mw": 1000,
    "first_constraint_mw": null,
    "constraints": []
  },
  {
    "bus_id": 1930,
    "name": "Eagle Lake 345",
    "sub_name": "Tomball 1",
    "kv": 345.0,
    "existing_load": 0.0,
    "lat": 30.095,
    "lng": -95.586,
    "safe_mw": 1000,
    "first_constraint_mw": null,
    "constraints": []
  },
  {
    "bus_id": 1931,
    "name": "Brenham 345",
    "sub_name": "Bridgeport",
    "kv": 345.0,
    "existing_load": 0.0,
    "lat": 33.166,
    "lng": -97.845,
    "safe_mw": 1000,
    "first_constraint_mw": null,
    "constraints": []
  },
  {
    "bus_id": 1932,
    "name": "Tomball 1 345",
    "sub_name": "Dallas 8",
    "kv": 345.0,
    "existing_load": 0.0,
    "lat": 32.782,
    "lng": -96.879,
    "safe_mw": 1000,
    "first_constraint_mw": null,
    "constraints": []
  },
  {
    "bus_id": 1933,
    "name": "Bridgeport 345",
    "sub_name": "Coppell",
    "kv": 345.0,
    "existing_load": 0.0,
    "lat": 32.943,
    "lng": -96.985,
    "safe_mw": 1000,
    "first_constraint_mw": null,
    "constraints": []
  },
  {
    "bus_id": 1934,
    "name": "Dallas 8 345",
    "sub_name": "Carrollton 1",
    "kv": 345.0,
    "existing_load": 0.0,
    "lat": 32.947,
    "lng": -96.896,
    "safe_mw": 1000,
    "first_constraint_mw": null,
    "constraints": []
  },
  {
    "bus_id": 1935,
    "name": "Coppell 345",
    "sub_name": "Austin 1",
    "kv": 345.0,
    "existing_load": 0.0,
    "lat": 30.247,
    "lng": -97.712,
    "safe_mw": 1000,
    "first_constraint_mw": null,
    "constraints": []
  },
  {
    "bus_id": 1936,
    "name": "Carrollton 1 345",
    "sub_name": "Crane 2",
    "kv": 345.0,
    "existing_load": 0.0,
    "lat": 32.103,
    "lng": -101.365,
    "safe_mw": 1000,
    "first_constraint_mw": null,
    "constraints": []
  },
  {
    "bus_id": 1937,
    "name": "Austin 1 345",
    "sub_name": "Waco 2",
    "kv": 345.0,
    "existing_load": 0.0,
    "lat": 31.621,
    "lng": -97.099,
    "safe_mw": 1000,
    "first_constraint_mw": null,
    "constraints": []
  },
  {
    "bus_id": 1938,
    "name": "Crane 2 345",
    "sub_name": "Tivoli 3",
    "kv": 345.0,
    "existing_load": 0.0,
    "lat": 28.858,
    "lng": -97.429,
    "safe_mw": 1000,
    "first_constraint_mw": null,
    "constraints": []
  },
  {
    "bus_id": 1939,
    "name": "Waco 2 345",
    "sub_name": "Houston 43",
    "kv": 345.0,
    "existing_load": 0.0,
    "lat": 29.687,
    "lng": -95.585,
    "safe_mw": 1000,
    "first_constraint_mw": null,
    "constraints": []
  },
  {
    "bus_id": 1940,
    "name": "Tivoli 3 345",
    "sub_name": "Burnet",
    "kv": 345.0,
    "existing_load": 0.0,
    "lat": 30.801,
    "lng": -98.283,
    "safe_mw": 1000,
    "first_constraint_mw": null,
    "constraints": []
  },
  {
    "bus_id": 1941,
    "name": "Houston 43 345",
    "sub_name": "New Braunfels 2",
    "kv": 345.0,
    "existing_load": 0.0,
    "lat": 29.759,
    "lng": -98.19,
    "safe_mw": 1000,
    "first_constraint_mw": null,
    "constraints": []
  },
  {
    "bus_id": 1942,
    "name": "Burnet 345",
    "sub_name": "Muenster 1",
    "kv": 345.0,
    "existing_load": 0.0,
    "lat": 33.682,
    "lng": -97.383,
    "safe_mw": 1000,
    "first_constraint_mw": null,
    "constraints": []
  },
  {
    "bus_id": 1943,
    "name": "New Braunfels 2 345",
    "sub_name": "Laredo 5",
    "kv": 345.0,
    "existing_load": 0.0,
    "lat": 27.834,
    "lng": -99.685,
    "safe_mw": 1000,
    "first_constraint_mw": null,
    "constraints": []
  },
  {
    "bus_id": 1944,
    "name": "Muenster 1 345",
    "sub_name": "Camp Wood",
    "kv": 345.0,
    "existing_load": 0.0,
    "lat": 29.675,
    "lng": -100.079,
    "safe_mw": 1000,
    "first_constraint_mw": null,
    "constraints": []
  },
  {
    "bus_id": 1945,
    "name": "Laredo 5 345",
    "sub_name": "Fort Worth 15",
    "kv": 345.0,
    "existing_load": 0.0,
    "lat": 32.62,
    "lng": -97.275,
    "safe_mw": 1000,
    "first_constraint_mw": null,
    "constraints": []
  },
  {
    "bus_id": 1946,
    "name": "Camp Wood 345",
    "sub_name": "New Caney",
    "kv": 345.0,
    "existing_load": 0.0,
    "lat": 30.161,
    "lng": -95.19,
    "safe_mw": 1000,
    "first_constraint_mw": null,
    "constraints": []
  },
  {
    "bus_id": 1947,
    "name": "Fort Worth 15 345",
    "sub_name": "Aledo",
    "kv": 345.0,
    "existing_load": 0.0,
    "lat": 32.696,
    "lng": -97.631,
    "safe_mw": 1000,
    "first_constraint_mw": null,
    "constraints": []
  },
  {
    "bus_id": 1948,
    "name": "New Caney 345",
    "sub_name": "Corsicana 2",
    "kv": 345.0,
    "existing_load": 0.0,
    "lat": 32.085,
    "lng": -96.528,
    "safe_mw": 1000,
    "first_constraint_mw": null,
    "constraints": []
  },
  {
    "bus_id": 1949,
    "name": "Aledo 345",
    "sub_name": "Loving",
    "kv": 345.0,
    "existing_load": 0.0,
    "lat": 33.31,
    "lng": -98.5,
    "safe_mw": 1000,
    "first_constraint_mw": null,
    "constraints": []
  },
  {
    "bus_id": 1950,
    "name": "Corsicana 2 345",
    "sub_name": "Abilene 2",
    "kv": 345.0,
    "existing_load": 0.0,
    "lat": 32.336,
    "lng": -99.667,
    "safe_mw": 1000,
    "first_constraint_mw": null,
    "constraints": []
  },
  {
    "bus_id": 1951,
    "name": "Loving 345",
    "sub_name": "Dallas 13",
    "kv": 345.0,
    "existing_load": 0.0,
    "lat": 32.709,
    "lng": -96.848,
    "safe_mw": 1000,
    "first_constraint_mw": null,
    "constraints": []
  },
  {
    "bus_id": 1952,
    "name": "Abilene 2 345",
    "sub_name": "Whitesboro",
    "kv": 345.0,
    "existing_load": 0.0,
    "lat": 33.744,
    "lng": -96.936,
    "safe_mw": 1000,
    "first_constraint_mw": null,
    "constraints": []
  },
  {
    "bus_id": 1953,
    "name": "Dallas 13 345",
    "sub_name": "Weatherford 2",
    "kv": 345.0,
    "existing_load": 0.0,
    "lat": 32.755,
    "lng": -97.791,
    "safe_mw": 1000,
    "first_constraint_mw": null,
    "constraints": []
  },
  {
    "bus_id": 1954,
    "name": "Whitesboro 345",
    "sub_name": "Tell",
    "kv": 345.0,
    "existing_load": 0.0,
    "lat": 34.398,
    "lng": -100.473,
    "safe_mw": 1000,
    "first_constraint_mw": null,
    "constraints": []
  },
  {
    "bus_id": 1956,
    "name": "Tell 345",
    "sub_name": "San Antonio 25",
    "kv": 345.0,
    "existing_load": 0.0,
    "lat": 29.484,
    "lng": -98.67,
    "safe_mw": 1000,
    "first_constraint_mw": null,
    "constraints": []
  },
  {
    "bus_id": 1957,
    "name": "Santa Rosa 1 345",
    "sub_name": "Mckinney 3",
    "kv": 345.0,
    "existing_load": 0.0,
    "lat": 33.246,
    "lng": -96.631,
    "safe_mw": 1000,
    "first_constraint_mw": null,
    "constraints": []
  },
  {
    "bus_id": 1958,
    "name": "San Antonio 25 345",
    "sub_name": "Paige",
    "kv": 345.0,
    "existing_load": 0.0,
    "lat": 30.207,
    "lng": -97.125,
    "safe_mw": 1000,
    "first_constraint_mw": null,
    "constraints": []
  },
  {
    "bus_id": 1959,
    "name": "Mckinney 3 345",
    "sub_name": "Garland 3",
    "kv": 345.0,
    "existing_load": 0.0,
    "lat": 32.858,
    "lng": -96.576,
    "safe_mw": 1000,
    "first_constraint_mw": null,
    "constraints": []
  },
  {
    "bus_id": 1960,
    "name": "Paige 345",
    "sub_name": "Austin 8",
    "kv": 345.0,
    "existing_load": 0.0,
    "lat": 30.423,
    "lng": -97.815,
    "safe_mw": 1000,
    "first_constraint_mw": null,
    "constraints": []
  },
  {
    "bus_id": 1961,
    "name": "Garland 3 345",
    "sub_name": "San Antonio 4",
    "kv": 345.0,
    "existing_load": 0.0,
    "lat": 29.485,
    "lng": -98.454,
    "safe_mw": 1000,
    "first_constraint_mw": null,
    "constraints": []
  },
  {
    "bus_id": 1963,
    "name": "San Antonio 4 345",
    "sub_name": "Spring 2",
    "kv": 345.0,
    "existing_load": 0.0,
    "lat": 30.041,
    "lng": -95.529,
    "safe_mw": 1000,
    "first_constraint_mw": null,
    "constraints": []
  },
  {
    "bus_id": 1964,
    "name": "Houston 27 345",
    "sub_name": "Thornton",
    "kv": 345.0,
    "existing_load": 0.0,
    "lat": 31.373,
    "lng": -96.495,
    "safe_mw": 1000,
    "first_constraint_mw": null,
    "constraints": []
  },
  {
    "bus_id": 1965,
    "name": "Spring 2 345",
    "sub_name": "Mexia",
    "kv": 345.0,
    "existing_load": 0.0,
    "lat": 31.655,
    "lng": -96.468,
    "safe_mw": 1000,
    "first_constraint_mw": null,
    "constraints": []
  },
  {
    "bus_id": 1966,
    "name": "Thornton 345",
    "sub_name": "Conroe 4",
    "kv": 345.0,
    "existing_load": 0.0,
    "lat": 30.325,
    "lng": -95.505,
    "safe_mw": 1000,
    "first_constraint_mw": null,
    "constraints": []
  },
  {
    "bus_id": 1967,
    "name": "Mexia 345",
    "sub_name": "Richmond 2",
    "kv": 345.0,
    "existing_load": 0.0,
    "lat": 29.67,
    "lng": -95.708,
    "safe_mw": 1000,
    "first_constraint_mw": null,
    "constraints": []
  },
  {
    "bus_id": 1968,
    "name": "Conroe 4 345",
    "sub_name": "Houston 2",
    "kv": 345.0,
    "existing_load": 0.0,
    "lat": 29.742,
    "lng": -95.414,
    "safe_mw": 1000,
    "first_constraint_mw": null,
    "constraints": []
  },
  {
    "bus_id": 1969,
    "name": "Richmond 2 345",
    "sub_name": "Hempstead 1",
    "kv": 345.0,
    "existing_load": 0.0,
    "lat": 30.1,
    "lng": -96.066,
    "safe_mw": 1000,
    "first_constraint_mw": null,
    "constraints": []
  },
  {
    "bus_id": 1971,
    "name": "Hempstead 1 345",
    "sub_name": "San Marcos",
    "kv": 345.0,
    "existing_load": 0.0,
    "lat": 29.88,
    "lng": -97.966,
    "safe_mw": 1000,
    "first_constraint_mw": null,
    "constraints": []
  },
  {
    "bus_id": 1972,
    "name": "Los Fresnos 1 345",
    "sub_name": "Edinburg 1",
    "kv": 345.0,
    "existing_load": 0.0,
    "lat": 26.281,
    "lng": -98.183,
    "safe_mw": 1000,
    "first_constraint_mw": null,
    "constraints": []
  },
  {
    "bus_id": 1973,
    "name": "San Marcos 345",
    "sub_name": "Melvin",
    "kv": 345.0,
    "existing_load": 0.0,
    "lat": 31.177,
    "lng": -99.616,
    "safe_mw": 1000,
    "first_constraint_mw": null,
    "constraints": []
  },
  {
    "bus_id": 1974,
    "name": "Edinburg 1 345",
    "sub_name": "San Antonio 31",
    "kv": 345.0,
    "existing_load": 0.0,
    "lat": 29.634,
    "lng": -98.497,
    "safe_mw": 1000,
    "first_constraint_mw": null,
    "constraints": []
  },
  {
    "bus_id": 1975,
    "name": "Melvin 345",
    "sub_name": "Frankston 1",
    "kv": 345.0,
    "existing_load": 0.0,
    "lat": 32.043,
    "lng": -95.523,
    "safe_mw": 1000,
    "first_constraint_mw": null,
    "constraints": []
  },
  {
    "bus_id": 1977,
    "name": "Frankston 1 345",
    "sub_name": "Tomball 2",
    "kv": 345.0,
    "existing_load": 0.0,
    "lat": 30.062,
    "lng": -95.682,
    "safe_mw": 1000,
    "first_constraint_mw": null,
    "constraints": []
  },
  {
    "bus_id": 1978,
    "name": "Goldsmith 2 345",
    "sub_name": "Blackwell 2",
    "kv": 345.0,
    "existing_load": 0.0,
    "lat": 32.198,
    "lng": -100.269,
    "safe_mw": 1000,
    "first_constraint_mw": null,
    "constraints": []
  },
  {
    "bus_id": 1979,
    "name": "Tomball 2 345",
    "sub_name": "San Antonio 12",
    "kv": 345.0,
    "existing_load": 0.0,
    "lat": 29.355,
    "lng": -98.372,
    "safe_mw": 1000,
    "first_constraint_mw": null,
    "constraints": []
  },
  {
    "bus_id": 1980,
    "name": "Blackwell 2 345",
    "sub_name": "San Antonio 13",
    "kv": 345.0,
    "existing_load": 0.0,
    "lat": 29.312,
    "lng": -98.391,
    "safe_mw": 1000,
    "first_constraint_mw": null,
    "constraints": []
  },
  {
    "bus_id": 1981,
    "name": "San Antonio 12 345",
    "sub_name": "Tarpley",
    "kv": 345.0,
    "existing_load": 0.0,
    "lat": 29.678,
    "lng": -99.317,
    "safe_mw": 1000,
    "first_constraint_mw": null,
    "constraints": []
  },
  {
    "bus_id": 1982,
    "name": "San Antonio 13 345",
    "sub_name": "Houston 11",
    "kv": 345.0,
    "existing_load": 0.0,
    "lat": 29.847,
    "lng": -95.381,
    "safe_mw": 1000,
    "first_constraint_mw": null,
    "constraints": []
  },
  {
    "bus_id": 1983,
    "name": "Tarpley 345",
    "sub_name": "Pasadena 1",
    "kv": 345.0,
    "existing_load": 0.0,
    "lat": 29.632,
    "lng": -95.131,
    "safe_mw": 1000,
    "first_constraint_mw": null,
    "constraints": []
  },
  {
    "bus_id": 1984,
    "name": "Houston 11 345",
    "sub_name": "Cleburne 2",
    "kv": 345.0,
    "existing_load": 0.0,
    "lat": 32.277,
    "lng": -97.508,
    "safe_mw": 1000,
    "first_constraint_mw": null,
    "constraints": []
  },
  {
    "bus_id": 1985,
    "name": "Pasadena 1 345",
    "sub_name": "Crosbyton",
    "kv": 345.0,
    "existing_load": 0.0,
    "lat": 33.635,
    "lng": -101.18,
    "safe_mw": 1000,
    "first_constraint_mw": null,
    "constraints": []
  },
  {
    "bus_id": 1986,
    "name": "Cleburne 2 345",
    "sub_name": "Lolita 2",
    "kv": 345.0,
    "existing_load": 0.0,
    "lat": 28.544,
    "lng": -96.971,
    "safe_mw": 1000,
    "first_constraint_mw": null,
    "constraints": []
  },
  {
    "bus_id": 1987,
    "name": "Crosbyton 345",
    "sub_name": "Fort Worth 12",
    "kv": 345.0,
    "existing_load": 0.0,
    "lat": 32.639,
    "lng": -97.335,
    "safe_mw": 1000,
    "first_constraint_mw": null,
    "constraints": []
  },
  {
    "bus_id": 1988,
    "name": "Lolita 2 345",
    "sub_name": "Houston 1",
    "kv": 345.0,
    "existing_load": 0.0,
    "lat": 29.728,
    "lng": -95.344,
    "safe_mw": 1000,
    "first_constraint_mw": null,
    "constraints": []
  },
  {
    "bus_id": 1989,
    "name": "Fort Worth 12 345",
    "sub_name": "Van",
    "kv": 345.0,
    "existing_load": 0.0,
    "lat": 32.535,
    "lng": -95.644,
    "safe_mw": 1000,
    "first_constraint_mw": null,
    "constraints": []
  },
  {
    "bus_id": 1990,
    "name": "Houston 1 345",
    "sub_name": "Memphis",
    "kv": 345.0,
    "existing_load": 0.0,
    "lat": 34.857,
    "lng": -100.513,
    "safe_mw": 1000,
    "first_constraint_mw": null,
    "constraints": []
  },
  {
    "bus_id": 1991,
    "name": "Van 345",
    "sub_name": "Garland 4",
    "kv": 345.0,
    "existing_load": 0.0,
    "lat": 32.974,
    "lng": -96.654,
    "safe_mw": 1000,
    "first_constraint_mw": null,
    "constraints": []
  },
  {
    "bus_id": 1992,
    "name": "Memphis 345",
    "sub_name": "Rotan",
    "kv": 345.0,
    "existing_load": 0.0,
    "lat": 32.892,
    "lng": -100.498,
    "safe_mw": 1000,
    "first_constraint_mw": null,
    "constraints": []
  },
  {
    "bus_id": 1993,
    "name": "Garland 4 345",
    "sub_name": "Terrell 2",
    "kv": 345.0,
    "existing_load": 0.0,
    "lat": 32.738,
    "lng": -96.169,
    "safe_mw": 1000,
    "first_constraint_mw": null,
    "constraints": []
  },
  {
    "bus_id": 1994,
    "name": "Rotan 345",
    "sub_name": "Rule 2",
    "kv": 345.0,
    "existing_load": 0.0,
    "lat": 33.05,
    "lng": -99.919,
    "safe_mw": 1000,
    "first_constraint_mw": null,
    "constraints": []
  },
  {
    "bus_id": 1995,
    "name": "Terrell 2 345",
    "sub_name": "Beeville 1",
    "kv": 345.0,
    "existing_load": 0.0,
    "lat": 28.408,
    "lng": -97.711,
    "safe_mw": 1000,
    "first_constraint_mw": null,
    "constraints": []
  },
  {
    "bus_id": 1999,
    "name": "Katy 1 345",
    "sub_name": "Rosharon",
    "kv": 345.0,
    "existing_load": 0.0,
    "lat": 29.381,
    "lng": -95.47,
    "safe_mw": 1000,
    "first_constraint_mw": null,
    "constraints": []
  },
  {
    "bus_id": 2000,
    "name": "Adrian 1 345",
    "sub_name": "Donie",
    "kv": 345.0,
    "existing_load": 0.0,
    "lat": 31.479,
    "lng": -96.23,
    "safe_mw": 1000,
    "first_constraint_mw": null,
    "constraints": []
  },
  {
    "bus_id": 2001,
    "name": "Rosharon 345",
    "sub_name": "Palmer",
    "kv": 345.0,
    "existing_load": 0.0,
    "lat": 32.44,
    "lng": -96.678,
    "safe_mw": 1000,
    "first_constraint_mw": null,
    "constraints": []
  },
  {
    "bus_id": 2002,
    "name": "Donie 345",
    "sub_name": "Wylie 1",
    "kv": 345.0,
    "existing_load": 0.0,
    "lat": 33.012,
    "lng": -96.535,
    "safe_mw": 1000,
    "first_constraint_mw": null,
    "constraints": []
  },
  {
    "bus_id": 2003,
    "name": "Palmer 345",
    "sub_name": "Lopeno",
    "kv": 345.0,
    "existing_load": 0.0,
    "lat": 26.678,
    "lng": -99.103,
    "safe_mw": 1000,
    "first_constraint_mw": null,
    "constraints": []
  },
  {
    "bus_id": 2004,
    "name": "Wylie 1 345",
    "sub_name": "Del Valle",
    "kv": 345.0,
    "existing_load": 0.0,
    "lat": 30.151,
    "lng": -97.607,
    "safe_mw": 1000,
    "first_constraint_mw": null,
    "constraints": []
  },
  {
    "bus_id": 2005,
    "name": "Lopeno 345",
    "sub_name": "Prosper",
    "kv": 345.0,
    "existing_load": 0.0,
    "lat": 33.242,
    "lng": -96.808,
    "safe_mw": 1000,
    "first_constraint_mw": null,
    "constraints": []
  },
  {
    "bus_id": 2006,
    "name": "Del Valle 345",
    "sub_name": "Dallas 18",
    "kv": 345.0,
    "existing_load": 0.0,
    "lat": 32.99,
    "lng": -96.816,
    "safe_mw": 1000,
    "first_constraint_mw": null,
    "constraints": []
  },
  {
    "bus_id": 2007,
    "name": "Prosper 345",
    "sub_name": "De Leon",
    "kv": 345.0,
    "existing_load": 0.0,
    "lat": 32.124,
    "lng": -98.574,
    "safe_mw": 1000,
    "first_constraint_mw": null,
    "constraints": []
  },
  {
    "bus_id": 9,
    "name": "Coppell 115",
    "sub_name": "Coppell",
    "kv": 115.0,
    "existing_load": 179.8,
    "lat": 32.943,
    "lng": -96.985,
    "safe_mw": 700,
    "first_constraint_mw": 1000,
    "constraints": [
      {
        "from": "Coppell 115",
        "to": "Dallas 12 115",
        "flow": 266,
        "rating": 236,
        "pct": 113
      }
    ]
  },
  {
    "bus_id": 24,
    "name": "Garland 4 115",
    "sub_name": "Garland 4",
    "kv": 115.0,
    "existing_load": 151.1,
    "lat": 32.974,
    "lng": -96.654,
    "safe_mw": 700,
    "first_constraint_mw": 1000,
    "constraints": [
      {
        "from": "Plano 2 115",
        "to": "Richardson 115",
        "flow": 401,
        "rating": 384,
        "pct": 104
      },
      {
        "from": "Garland 115",
        "to": "Rowlett 115",
        "flow": 178,
        "rating": 149,
        "pct": 119
      }
    ]
  },
  {
    "bus_id": 37,
    "name": "Mckinney 3 115",
    "sub_name": "Mckinney 3",
    "kv": 115.0,
    "existing_load": 88.0,
    "lat": 33.246,
    "lng": -96.631,
    "safe_mw": 700,
    "first_constraint_mw": 1000,
    "constraints": [
      {
        "from": "Mckinney 3 115",
        "to": "Santa Rosa 1 345",
        "flow": 1090,
        "rating": 1000,
        "pct": 109
      }
    ]
  },
  {
    "bus_id": 49,
    "name": "Wylie 115",
    "sub_name": "Wylie 1",
    "kv": 115.0,
    "existing_load": 117.5,
    "lat": 33.012,
    "lng": -96.535,
    "safe_mw": 700,
    "first_constraint_mw": 1000,
    "constraints": [
      {
        "from": "Rockwall 2 115",
        "to": "Wylie 115",
        "flow": 158,
        "rating": 149,
        "pct": 106
      }
    ]
  },
  {
    "bus_id": 56,
    "name": "Corsicana 2 115",
    "sub_name": "Corsicana 2",
    "kv": 115.0,
    "existing_load": 68.6,
    "lat": 32.085,
    "lng": -96.528,
    "safe_mw": 700,
    "first_constraint_mw": 1000,
    "constraints": [
      {
        "from": "Corsicana 2 115",
        "to": "New Caney 345",
        "flow": 1012,
        "rating": 1000,
        "pct": 101
      }
    ]
  },
  {
    "bus_id": 79,
    "name": "Palmer 115",
    "sub_name": "Palmer",
    "kv": 115.0,
    "existing_load": 11.2,
    "lat": 32.44,
    "lng": -96.678,
    "safe_mw": 700,
    "first_constraint_mw": 1000,
    "constraints": [
      {
        "from": "Waxahachie 115",
        "to": "Aquilla 2 115",
        "flow": 172,
        "rating": 149,
        "pct": 115
      },
      {
        "from": "Balch Springs 115",
        "to": "Dallas 10 115",
        "flow": 179,
        "rating": 149,
        "pct": 120
      },
      {
        "from": "Dallas 9 115",
        "to": "Dallas 17 115",
        "flow": 157,
        "rating": 149,
        "pct": 105
      }
    ]
  },
  {
    "bus_id": 101,
    "name": "Dallas 4 115",
    "sub_name": "Dallas 4",
    "kv": 115.0,
    "existing_load": 275.8,
    "lat": 32.838,
    "lng": -96.772,
    "safe_mw": 700,
    "first_constraint_mw": 1000,
    "constraints": [
      {
        "from": "Irving 3 115",
        "to": "Dallas 5 115",
        "flow": 198,
        "rating": 185,
        "pct": 107
      },
      {
        "from": "Irving 3 115",
        "to": "Dallas 5 115",
        "flow": 198,
        "rating": 185,
        "pct": 107
      },
      {
        "from": "Irving 3 115",
        "to": "Dallas 5 115",
        "flow": 198,
        "rating": 185,
        "pct": 107
      }
    ]
  },
  {
    "bus_id": 105,
    "name": "Dallas 8 115",
    "sub_name": "Dallas 8",
    "kv": 115.0,
    "existing_load": 61.8,
    "lat": 32.782,
    "lng": -96.879,
    "safe_mw": 700,
    "first_constraint_mw": 1000,
    "constraints": [
      {
        "from": "Irving 3 115",
        "to": "Dallas 8 115",
        "flow": 204,
        "rating": 185,
        "pct": 110
      },
      {
        "from": "Irving 3 115",
        "to": "Dallas 8 115",
        "flow": 204,
        "rating": 185,
        "pct": 110
      }
    ]
  },
  {
    "bus_id": 107,
    "name": "Dallas 10 115",
    "sub_name": "Dallas 10",
    "kv": 115.0,
    "existing_load": 195.8,
    "lat": 32.71,
    "lng": -96.679,
    "safe_mw": 700,
    "first_constraint_mw": 1000,
    "constraints": [
      {
        "from": "Garland 3 115",
        "to": "Mesquite 115",
        "flow": 164,
        "rating": 149,
        "pct": 110
      },
      {
        "from": "Dallas 4 115",
        "to": "Dallas 6 115",
        "flow": 271,
        "rating": 236,
        "pct": 115
      }
    ]
  },
  {
    "bus_id": 110,
    "name": "Dallas 13 115",
    "sub_name": "Dallas 13",
    "kv": 115.0,
    "existing_load": 117.2,
    "lat": 32.709,
    "lng": -96.848,
    "safe_mw": 700,
    "first_constraint_mw": 1000,
    "constraints": [
      {
        "from": "Dallas 2 115",
        "to": "Dallas 3 115",
        "flow": 166,
        "rating": 149,
        "pct": 111
      },
      {
        "from": "Dallas 2 115",
        "to": "Dallas 3 115",
        "flow": 166,
        "rating": 149,
        "pct": 111
      },
      {
        "from": "Dallas 2 115",
        "to": "Dallas 4 115",
        "flow": 290,
        "rating": 236,
        "pct": 123
      }
    ]
  },
  {
    "bus_id": 115,
    "name": "Dallas 18 115",
    "sub_name": "Dallas 18",
    "kv": 115.0,
    "existing_load": 259.6,
    "lat": 32.99,
    "lng": -96.816,
    "safe_mw": 700,
    "first_constraint_mw": 1000,
    "constraints": [
      {
        "from": "Dallas 115",
        "to": "Dallas 18 115",
        "flow": 249,
        "rating": 208,
        "pct": 120
      },
      {
        "from": "Carrollton 115",
        "to": "Carrollton 2 115",
        "flow": 261,
        "rating": 236,
        "pct": 111
      }
    ]
  },
  {
    "bus_id": 193,
    "name": "Mount Enterprise 115",
    "sub_name": "Mount Enterprise",
    "kv": 115.0,
    "existing_load": 4.0,
    "lat": 31.925,
    "lng": -94.704,
    "safe_mw": 700,
    "first_constraint_mw": 1000,
    "constraints": [
      {
        "from": "Tyler 2 115",
        "to": "Tyler 8 115",
        "flow": 152,
        "rating": 149,
        "pct": 102
      },
      {
        "from": "Tyler 8 115",
        "to": "Flint 115",
        "flow": 151,
        "rating": 149,
        "pct": 101
      }
    ]
  },
  {
    "bus_id": 230,
    "name": "Van 115",
    "sub_name": "Van",
    "kv": 115.0,
    "existing_load": 6.6,
    "lat": 32.535,
    "lng": -95.644,
    "safe_mw": 700,
    "first_constraint_mw": 1000,
    "constraints": [
      {
        "from": "Rockwall 2 115",
        "to": "Fruitvale 2 115",
        "flow": 104,
        "rating": 98,
        "pct": 107
      },
      {
        "from": "Fruitvale 2 115",
        "to": "Royse City 115",
        "flow": 103,
        "rating": 98,
        "pct": 106
      },
      {
        "from": "Frankston 115",
        "to": "Van 115",
        "flow": 130,
        "rating": 98,
        "pct": 134
      }
    ]
  },
  {
    "bus_id": 258,
    "name": "Lufkin 2 115",
    "sub_name": "Lufkin 2",
    "kv": 115.0,
    "existing_load": 53.1,
    "lat": 31.341,
    "lng": -94.826,
    "safe_mw": 700,
    "first_constraint_mw": 1000,
    "constraints": [
      {
        "from": "Lufkin 2 115",
        "to": "Alpine 2 345",
        "flow": 1031,
        "rating": 1000,
        "pct": 103
      }
    ]
  },
  {
    "bus_id": 275,
    "name": "Arlington 115",
    "sub_name": "Arlington 1",
    "kv": 115.0,
    "existing_load": 183.3,
    "lat": 32.652,
    "lng": -97.158,
    "safe_mw": 700,
    "first_constraint_mw": 1000,
    "constraints": [
      {
        "from": "Bedford 115",
        "to": "Hurst 115",
        "flow": 221,
        "rating": 207,
        "pct": 107
      }
    ]
  },
  {
    "bus_id": 290,
    "name": "North Richland Hills 115",
    "sub_name": "North Richland Hills 1",
    "kv": 115.0,
    "existing_load": 152.9,
    "lat": 32.883,
    "lng": -97.181,
    "safe_mw": 700,
    "first_constraint_mw": 1000,
    "constraints": [
      {
        "from": "Bedford 115",
        "to": "North Richland Hills 115",
        "flow": 287,
        "rating": 185,
        "pct": 156
      }
    ]
  },
  {
    "bus_id": 305,
    "name": "Kennedale 115",
    "sub_name": "Kennedale 1",
    "kv": 115.0,
    "existing_load": 16.5,
    "lat": 32.64,
    "lng": -97.217,
    "safe_mw": 700,
    "first_constraint_mw": 1000,
    "constraints": [
      {
        "from": "Kennedale 115",
        "to": "Fort Worth 15 115",
        "flow": 163,
        "rating": 149,
        "pct": 109
      },
      {
        "from": "Kennedale 115",
        "to": "Fort Worth 15 115",
        "flow": 163,
        "rating": 149,
        "pct": 109
      },
      {
        "from": "Kennedale 115",
        "to": "Fort Worth 15 115",
        "flow": 163,
        "rating": 149,
        "pct": 109
      }
    ]
  },
  {
    "bus_id": 319,
    "name": "Weatherford 2 115",
    "sub_name": "Weatherford 2",
    "kv": 115.0,
    "existing_load": 49.2,
    "lat": 32.755,
    "lng": -97.791,
    "safe_mw": 700,
    "first_constraint_mw": 1000,
    "constraints": [
      {
        "from": "Weatherford 2 115",
        "to": "Dallas 13 345",
        "flow": 1083,
        "rating": 1000,
        "pct": 108
      }
    ]
  },
  {
    "bus_id": 325,
    "name": "Fort Worth 2 115",
    "sub_name": "Fort Worth 2",
    "kv": 115.0,
    "existing_load": 193.9,
    "lat": 32.711,
    "lng": -97.266,
    "safe_mw": 700,
    "first_constraint_mw": 1000,
    "constraints": [
      {
        "from": "Arlington 115",
        "to": "Arlington 5 115",
        "flow": 254,
        "rating": 207,
        "pct": 122
      },
      {
        "from": "Arlington 115",
        "to": "Arlington 5 115",
        "flow": 254,
        "rating": 207,
        "pct": 122
      },
      {
        "from": "Fort Worth 2 115",
        "to": "Fort Worth 3 115",
        "flow": 241,
        "rating": 207,
        "pct": 116
      }
    ]
  },
  {
    "bus_id": 569,
    "name": "Eden 115",
    "sub_name": "Eden",
    "kv": 115.0,
    "existing_load": 7.6,
    "lat": 31.223,
    "lng": -99.896,
    "safe_mw": 700,
    "first_constraint_mw": 1000,
    "constraints": [
      {
        "from": "Eden 115",
        "to": "Vancourt 115",
        "flow": 103,
        "rating": 98,
        "pct": 106
      }
    ]
  },
  {
    "bus_id": 605,
    "name": "San Angelo 3 115",
    "sub_name": "San Angelo 3",
    "kv": 115.0,
    "existing_load": 77.5,
    "lat": 31.278,
    "lng": -100.406,
    "safe_mw": 700,
    "first_constraint_mw": 1000,
    "constraints": [
      {
        "from": "San Angelo 2 115",
        "to": "San Angelo 4 115",
        "flow": 121,
        "rating": 98,
        "pct": 124
      }
    ]
  },
  {
    "bus_id": 627,
    "name": "Houston 115",
    "sub_name": "Houston 1",
    "kv": 115.0,
    "existing_load": 318.8,
    "lat": 29.728,
    "lng": -95.344,
    "safe_mw": 700,
    "first_constraint_mw": 1000,
    "constraints": [
      {
        "from": "Houston 115",
        "to": "Houston 18 115",
        "flow": 313,
        "rating": 207,
        "pct": 151
      }
    ]
  },
  {
    "bus_id": 628,
    "name": "Houston 2 115",
    "sub_name": "Houston 2",
    "kv": 115.0,
    "existing_load": 316.2,
    "lat": 29.742,
    "lng": -95.414,
    "safe_mw": 700,
    "first_constraint_mw": 1000,
    "constraints": [
      {
        "from": "Houston 2 115",
        "to": "Houston 4 115",
        "flow": 238,
        "rating": 185,
        "pct": 129
      },
      {
        "from": "Houston 21 115",
        "to": "Houston 35 115",
        "flow": 211,
        "rating": 208,
        "pct": 102
      }
    ]
  },
  {
    "bus_id": 637,
    "name": "Houston 11 115",
    "sub_name": "Houston 11",
    "kv": 115.0,
    "existing_load": 149.7,
    "lat": 29.847,
    "lng": -95.381,
    "safe_mw": 700,
    "first_constraint_mw": 1000,
    "constraints": [
      {
        "from": "Houston 2 115",
        "to": "Houston 4 115",
        "flow": 231,
        "rating": 185,
        "pct": 125
      },
      {
        "from": "Houston 9 115",
        "to": "Houston 24 115",
        "flow": 261,
        "rating": 221,
        "pct": 118
      }
    ]
  },
  {
    "bus_id": 647,
    "name": "Houston 21 115",
    "sub_name": "Houston 21",
    "kv": 115.0,
    "existing_load": 425.0,
    "lat": 29.714,
    "lng": -95.534,
    "safe_mw": 700,
    "first_constraint_mw": 1000,
    "constraints": [
      {
        "from": "Houston 21 115",
        "to": "Houston 43 115",
        "flow": 239,
        "rating": 208,
        "pct": 115
      },
      {
        "from": "Houston 21 115",
        "to": "Houston 43 115",
        "flow": 239,
        "rating": 208,
        "pct": 115
      },
      {
        "from": "Houston 21 115",
        "to": "Houston 46 115",
        "flow": 217,
        "rating": 208,
        "pct": 105
      }
    ]
  },
  {
    "bus_id": 650,
    "name": "Houston 24 115",
    "sub_name": "Houston 24",
    "kv": 115.0,
    "existing_load": 65.1,
    "lat": 29.911,
    "lng": -95.341,
    "safe_mw": 700,
    "first_constraint_mw": 1000,
    "constraints": [
      {
        "from": "Houston 10 115",
        "to": "Houston 12 115",
        "flow": 240,
        "rating": 236,
        "pct": 102
      }
    ]
  },
  {
    "bus_id": 665,
    "name": "Houston 37 115",
    "sub_name": "Houston 37",
    "kv": 115.0,
    "existing_load": 96.4,
    "lat": 29.935,
    "lng": -95.395,
    "safe_mw": 700,
    "first_constraint_mw": 1000,
    "constraints": [
      {
        "from": "Houston 7 115",
        "to": "Spring 2 115",
        "flow": 347,
        "rating": 310,
        "pct": 112
      },
      {
        "from": "Houston 39 115",
        "to": "Houston 42 115",
        "flow": 217,
        "rating": 207,
        "pct": 105
      }
    ]
  },
  {
    "bus_id": 672,
    "name": "Houston 44 115",
    "sub_name": "Houston 44",
    "kv": 115.0,
    "existing_load": 160.0,
    "lat": 30.004,
    "lng": -95.419,
    "safe_mw": 700,
    "first_constraint_mw": 1000,
    "constraints": [
      {
        "from": "Houston 10 115",
        "to": "Houston 12 115",
        "flow": 262,
        "rating": 236,
        "pct": 111
      },
      {
        "from": "Houston 44 115",
        "to": "Spring 6 115",
        "flow": 181,
        "rating": 149,
        "pct": 121
      },
      {
        "from": "Tomball 115",
        "to": "Spring 2 115",
        "flow": 151,
        "rating": 149,
        "pct": 101
      }
    ]
  },
  {
    "bus_id": 677,
    "name": "Houston 48 115",
    "sub_name": "Houston 48",
    "kv": 115.0,
    "existing_load": 115.0,
    "lat": 29.587,
    "lng": -95.226,
    "safe_mw": 700,
    "first_constraint_mw": 1000,
    "constraints": [
      {
        "from": "Houston 48 115",
        "to": "Pasadena 2 115",
        "flow": 249,
        "rating": 185,
        "pct": 135
      }
    ]
  },
  {
    "bus_id": 696,
    "name": "New Caney 115",
    "sub_name": "New Caney",
    "kv": 115.0,
    "existing_load": 47.2,
    "lat": 30.161,
    "lng": -95.19,
    "safe_mw": 700,
    "first_constraint_mw": 1000,
    "constraints": [
      {
        "from": "Houston 17 115",
        "to": "Kingwood 115",
        "flow": 129,
        "rating": 98,
        "pct": 132
      }
    ]
  },
  {
    "bus_id": 699,
    "name": "Porter 115",
    "sub_name": "Porter",
    "kv": 115.0,
    "existing_load": 60.9,
    "lat": 30.107,
    "lng": -95.297,
    "safe_mw": 700,
    "first_constraint_mw": 1000,
    "constraints": [
      {
        "from": "Conroe 2 115",
        "to": "Conroe 7 115",
        "flow": 152,
        "rating": 149,
        "pct": 102
      }
    ]
  },
  {
    "bus_id": 703,
    "name": "Tomball 2 115",
    "sub_name": "Tomball 2",
    "kv": 115.0,
    "existing_load": 67.8,
    "lat": 30.062,
    "lng": -95.682,
    "safe_mw": 700,
    "first_constraint_mw": 1000,
    "constraints": [
      {
        "from": "Houston 50 115",
        "to": "Katy 115",
        "flow": 225,
        "rating": 208,
        "pct": 108
      }
    ]
  },
  {
    "bus_id": 706,
    "name": "Spring 3 115",
    "sub_name": "Spring 3",
    "kv": 115.0,
    "existing_load": 104.9,
    "lat": 30.13,
    "lng": -95.492,
    "safe_mw": 700,
    "first_constraint_mw": 1000,
    "constraints": [
      {
        "from": "Houston 44 115",
        "to": "Spring 6 115",
        "flow": 151,
        "rating": 149,
        "pct": 101
      },
      {
        "from": "Spring 115",
        "to": "Spring 5 115",
        "flow": 161,
        "rating": 149,
        "pct": 108
      }
    ]
  },
  {
    "bus_id": 713,
    "name": "Richmond 2 115",
    "sub_name": "Richmond 2",
    "kv": 115.0,
    "existing_load": 67.6,
    "lat": 29.67,
    "lng": -95.708,
    "safe_mw": 700,
    "first_constraint_mw": 1000,
    "constraints": [
      {
        "from": "Houston 46 115",
        "to": "Richmond 2 115",
        "flow": 237,
        "rating": 208,
        "pct": 114
      }
    ]
  },
  {
    "bus_id": 742,
    "name": "Katy 115",
    "sub_name": "Katy 1",
    "kv": 115.0,
    "existing_load": 223.0,
    "lat": 29.838,
    "lng": -95.734,
    "safe_mw": 700,
    "first_constraint_mw": 1000,
    "constraints": [
      {
        "from": "Houston 50 115",
        "to": "Katy 115",
        "flow": 264,
        "rating": 208,
        "pct": 127
      }
    ]
  },
  {
    "bus_id": 743,
    "name": "Katy 2 115",
    "sub_name": "Katy 2",
    "kv": 115.0,
    "existing_load": 169.8,
    "lat": 29.746,
    "lng": -95.742,
    "safe_mw": 700,
    "first_constraint_mw": 1000,
    "constraints": [
      {
        "from": "Houston 12 115",
        "to": "Houston 26 115",
        "flow": 161,
        "rating": 151,
        "pct": 107
      }
    ]
  },
  {
    "bus_id": 778,
    "name": "Pasadena 2 115",
    "sub_name": "Pasadena 2",
    "kv": 115.0,
    "existing_load": 213.9,
    "lat": 29.69,
    "lng": -95.205,
    "safe_mw": 700,
    "first_constraint_mw": 1000,
    "constraints": [
      {
        "from": "Pasadena 115",
        "to": "Pasadena 2 115",
        "flow": 235,
        "rating": 208,
        "pct": 113
      },
      {
        "from": "Pasadena 115",
        "to": "Pasadena 2 115",
        "flow": 235,
        "rating": 208,
        "pct": 113
      }
    ]
  },
  {
    "bus_id": 779,
    "name": "Deer Park 115",
    "sub_name": "Deer Park",
    "kv": 115.0,
    "existing_load": 129.8,
    "lat": 29.701,
    "lng": -95.138,
    "safe_mw": 700,
    "first_constraint_mw": 1000,
    "constraints": [
      {
        "from": "Pasadena 115",
        "to": "Pasadena 2 115",
        "flow": 222,
        "rating": 208,
        "pct": 107
      },
      {
        "from": "Pasadena 115",
        "to": "Pasadena 2 115",
        "flow": 222,
        "rating": 208,
        "pct": 107
      }
    ]
  },
  {
    "bus_id": 853,
    "name": "Victoria 115",
    "sub_name": "Victoria 1",
    "kv": 115.0,
    "existing_load": 98.1,
    "lat": 28.805,
    "lng": -96.985,
    "safe_mw": 700,
    "first_constraint_mw": 1000,
    "constraints": [
      {
        "from": "Victoria 115",
        "to": "Victoria 2 115",
        "flow": 118,
        "rating": 98,
        "pct": 121
      },
      {
        "from": "Victoria 2 115",
        "to": "Moulton 2 115",
        "flow": 177,
        "rating": 149,
        "pct": 118
      }
    ]
  },
  {
    "bus_id": 869,
    "name": "Lolita 2 115",
    "sub_name": "Lolita 2",
    "kv": 115.0,
    "existing_load": 0.1,
    "lat": 28.544,
    "lng": -96.971,
    "safe_mw": 700,
    "first_constraint_mw": 1000,
    "constraints": [
      {
        "from": "Victoria 4 115",
        "to": "Tivoli 115",
        "flow": 155,
        "rating": 149,
        "pct": 103
      },