[
{"name":"AWS Project Rainier","operator":"AWS","type":"hyperscaler","status":"under_construction","mw":null,"investment":"$11B","county":"St. Joseph","state":"IN","iso":"MISO","lat":41.6984,"lng":-86.3254,"notes":"22-building campus near New Carlisle. Groundbreaking Sep 2024, first buildings 2025."},
{"name":"AWS Northwest Indiana Expansion","operator":"AWS","type":"hyperscaler","status":"announced","mw":2400,"investment":"$15B","county":"Lake/Porter","state":"IN","iso":"MISO","lat":41.5400,"lng":-87.2000,"notes":"2.4 GW expansion across NW Indiana. Announced Nov 2025."},
{"name":"AWS Madison County Mega Site","operator":"AWS","type":"hyperscaler","status":"under_construction","mw":null,"investment":"$10B","county":"Madison","state":"MS","iso":"MISO","lat":32.5560,"lng":-90.0600,"notes":"Two complexes on 1700 acres near Canton/Ridgeland. Completion 2027."},
{"name":"AWS Warren County","operator":"AWS","type":"hyperscaler","status":"announced","mw":null,"investment":"$3B","county":"Warren","state":"MS","iso":"MISO","lat":32.3526,"lng":-90.8500,"notes":"Second MS data center announced Nov 2025."},
{"name":"AWS DeSoto TX","operator":"AWS","type":"hyperscaler","status":"operational","mw":null,"investment":"$6M","county":"Dallas","state":"TX","iso":"ERCOT","lat":32.5999,"lng":-96.8570,"notes":"Ezell Drive Campus, 30,000 sqft in DeSoto."},
{"name":"AWS Comanche Peak (Project Spectrum)","operator":"AWS","type":"hyperscaler","status":"announced","mw":null,"investment":null,"county":"Somervell","state":"TX","iso":"ERCOT","lat":32.2988,"lng":-97.7852,"notes":"Large campus near Comanche Peak nuclear plant. Announced Dec 2025."},
{"name":"AWS AmeriPlex at the Port","operator":"AWS","type":"hyperscaler","status":"operational","mw":null,"investment":null,"county":"Porter","state":"IN","iso":"MISO","lat":41.5730,"lng":-87.1685,"notes":"Existing facility in Portage, IN."},
{"name":"Google Midlothian","operator":"Google","type":"hyperscaler","status":"operational","mw":null,"investment":"$600M","county":"Ellis","state":"TX","iso":"ERCOT","lat":32.4820,"lng":-96.9940,"notes":"Google Cloud us-south1 region. Midlothian campus."},
{"name":"Google Council Bluffs","operator":"Google","type":"hyperscaler","status":"operational","mw":null,"investment":"$5B","county":"Pottawattamie","state":"IA","iso":"MISO","lat":41.2619,"lng":-95.8608,"notes":"Two campuses, 900+ on-site employees. us-central1 region."},
{"name":"Google Papillion","operator":"Google","type":"hyperscaler","status":"operational","mw":null,"investment":"$600M","county":"Sarpy","state":"NE","iso":"SPP","lat":41.1483,"lng":-96.0100,"notes":"Campus in Papillion, 120+ employees."},
{"name":"Google Bridgeport AL","operator":"Google","type":"hyperscaler","status":"operational","mw":null,"investment":"$600M","county":"Jackson","state":"AL","iso":"MISO","lat":34.7476,"lng":-86.0013,"notes":"Campus in Bridgeport, 100+ on-site employees."},
{"name":"Google Texas $40B Expansion","operator":"Google","type":"hyperscaler","status":"announced","mw":null,"investment":"$40B","county":"Various","state":"TX","iso":"ERCOT","lat":32.7767,"lng":-96.7970,"notes":"$40B AI data center investment in Texas through 2027."},
{"name":"Meta Fort Worth","operator":"Meta","type":"hyperscaler","status":"operational","mw":null,"investment":"$1.5B","county":"Tarrant","state":"TX","iso":"ERCOT","lat":32.8179,"lng":-97.3060,"notes":"Operational since 2015, 300+ jobs."},
{"name":"Meta Temple","operator":"Meta","type":"hyperscaler","status":"operational","mw":null,"investment":"$800M","county":"Bell","state":"TX","iso":"ERCOT","lat":31.0982,"lng":-97.3428,"notes":"Operational since 2022."},
{"name":"Meta El Paso","operator":"Meta","type":"hyperscaler","status":"under_construction","mw":null,"investment":"$1.5B","county":"El Paso","state":"TX","iso":"ERCOT","lat":31.7619,"lng":-106.4850,"notes":"Broke ground 2025, ~100 operational jobs."},
{"name":"Meta Hyperion (Monroe, LA)","operator":"Meta","type":"hyperscaler","status":"under_construction","mw":5000,"investment":"$27B","county":"Ouachita","state":"LA","iso":"MISO","lat":32.5093,"lng":-92.1193,"notes":"5 GW campus on 2,250 acres. JV with Blue Owl Capital. Construction began Dec 2024, completion 2030."},
{"name":"Meta Richland Parish LA","operator":"Meta","type":"hyperscaler","status":"under_construction","mw":null,"investment":"$10B","county":"Richland","state":"LA","iso":"MISO","lat":32.4560,"lng":-91.7140,"notes":"Broke ground 2024, 500+ operational jobs."},
{"name":"Meta Lebanon IN","operator":"Meta","type":"hyperscaler","status":"under_construction","mw":1000,"investment":"$10B","county":"Boone","state":"IN","iso":"MISO","lat":40.0484,"lng":-86.4694,"notes":"1 GW campus. Broke ground 2026."},
{"name":"Meta Altoona IA","operator":"Meta","type":"hyperscaler","status":"operational","mw":null,"investment":"$2.5B","county":"Polk","state":"IA","iso":"MISO","lat":41.6443,"lng":-93.4679,"notes":"Operational since 2013, 400+ jobs."},
{"name":"Meta Rosemount MN","operator":"Meta","type":"hyperscaler","status":"under_construction","mw":null,"investment":"$800M","county":"Dakota","state":"MN","iso":"MISO","lat":44.7514,"lng":-93.1258,"notes":"Broke ground 2024, ~100 operational jobs."},
{"name":"Microsoft Mount Pleasant WI","operator":"Microsoft","type":"hyperscaler","status":"under_construction","mw":null,"investment":null,"county":"Racine","state":"WI","iso":"MISO","lat":42.7142,"lng":-87.8792,"notes":"1,575 acres. Phase 1 completion 2025-26. Zero-water evaporation cooling."},
{"name":"Microsoft Granger IN","operator":"Microsoft","type":"hyperscaler","status":"planned","mw":null,"investment":null,"county":"St. Joseph","state":"IN","iso":"MISO","lat":41.7508,"lng":-86.1215,"notes":"Planned data center."},
{"name":"Microsoft La Porte IN","operator":"Microsoft","type":"hyperscaler","status":"planned","mw":null,"investment":null,"county":"La Porte","state":"IN","iso":"MISO","lat":41.6103,"lng":-86.7225,"notes":"Planned data center."},
{"name":"OpenAI/Oracle Stargate (Abilene)","operator":"OpenAI/Oracle","type":"hyperscaler","status":"under_construction","mw":1000,"investment":"$100B","county":"Taylor","state":"TX","iso":"ERCOT","lat":32.4487,"lng":-99.7331,"notes":"1 GW+ campus, first of 5-10 sites. Completion end of 2026."},
{"name":"xAI Colossus (Memphis)","operator":"xAI","type":"hyperscaler","status":"operational","mw":null,"investment":null,"county":"Shelby","state":"TN","iso":"MISO","lat":35.2323,"lng":-89.9010,"notes":"Operational AI supercomputer cluster in Memphis."},
{"name":"xAI MACROHADRR (Southaven)","operator":"xAI","type":"hyperscaler","status":"under_construction","mw":2000,"investment":"$20B","county":"DeSoto","state":"MS","iso":"MISO","lat":34.9619,"lng":-89.9787,"notes":"Expanding to ~2 GW. Purchased Dec 2025."},
{"name":"Apple Waukee IA","operator":"Apple","type":"hyperscaler","status":"operational","mw":null,"investment":null,"county":"Dallas","state":"IA","iso":"MISO","lat":41.5930,"lng":-93.8848,"notes":"Expanding from 360K sqft to 1.9M sqft."},
{"name":"Compass Meridian Campus","operator":"Compass","type":"colo_wholesale","status":"under_construction","mw":320,"investment":"$10B","county":"Lauderdale","state":"MS","iso":"MISO","lat":32.3643,"lng":-88.7037,"notes":"Eight 250K sqft buildings, 40 MW each. 500 MW from Mississippi Power. Completion 2033."},
{"name":"AVAIO Brandon MS","operator":"AVAIO Digital","type":"colo_wholesale","status":"planned","mw":null,"investment":"$6B","county":"Rankin","state":"MS","iso":"MISO","lat":32.2732,"lng":-89.9860,"notes":"Sustainable data center announced Aug 2025."},
{"name":"Vantage Frontier (DFW)","operator":"Vantage","type":"colo_wholesale","status":"under_construction","mw":null,"investment":"$25B","county":"Dallas","state":"TX","iso":"ERCOT","lat":32.7510,"lng":-96.8900,"notes":"768-acre DFW campus, 200 MW IT, 1.8 GW switchyard."},
{"name":"DataBank Red Oak TX","operator":"DataBank","type":"colo_wholesale","status":"under_construction","mw":480,"investment":null,"county":"Ellis","state":"TX","iso":"ERCOT","lat":32.5185,"lng":-96.8075,"notes":"292-acre campus, 480 MW."},
{"name":"HyperGrid Campus (Amarillo)","operator":"Texas Tech/Fermi America","type":"hyperscaler","status":"under_construction","mw":1000,"investment":null,"county":"Potter","state":"TX","iso":"SPP","lat":35.2220,"lng":-101.8313,"notes":"5,800 acres, 18M sqft. First 1 GW by end 2026. Nuclear complex planned."},
{"name":"Data City (Laredo)","operator":"Energy Abundance Dev Corp","type":"hyperscaler","status":"planned","mw":5000,"investment":null,"county":"Webb","state":"TX","iso":"ERCOT","lat":27.5006,"lng":-99.5075,"notes":"5 GW planned campus near Laredo."},
{"name":"Tract Caldwell County Park","operator":"Tract","type":"colo_wholesale","status":"planned","mw":2000,"investment":null,"county":"Caldwell","state":"TX","iso":"ERCOT","lat":29.8833,"lng":-97.6200,"notes":"1,515-acre, 2 GW technology park between Austin and San Antonio."},
{"name":"Lighthouse Campus (Port Washington)","operator":"Vantage/Oracle/OpenAI","type":"hyperscaler","status":"under_construction","mw":null,"investment":"$15B","county":"Ozaukee","state":"WI","iso":"MISO","lat":43.3872,"lng":-87.8757,"notes":"Megacampus collaboration. One of most ambitious AI builds in Midwest."},
{"name":"Google West Memphis AR","operator":"Google","type":"hyperscaler","status":"under_construction","mw":null,"investment":null,"county":"Crittenden","state":"AR","iso":"MISO","lat":35.1465,"lng":-90.1846,"notes":"Broke ground across river from xAI Colossus."},
{"name":"AWS Louisiana","operator":"AWS","type":"hyperscaler","status":"announced","mw":null,"investment":"$12B","county":"Various","state":"LA","iso":"MISO","lat":30.9843,"lng":-91.9623,"notes":"First AWS data center campuses in Louisiana. Announced 2025."},
{"name":"Provident/PowerHouse San Antonio","operator":"Provident/PowerHouse","type":"colo_wholesale","status":"under_construction","mw":null,"investment":null,"county":"Bexar","state":"TX","iso":"ERCOT","lat":29.3930,"lng":-98.6350,"notes":"West Military Drive & Loop 1604. Q2 2025 occupancy."}
]
