[
  {
    "name": "AWS Project Rainier",
    "operator": "AWS",
    "type": "hyperscaler",
    "status": "under_construction",
    "mw": null,
    "investment": "$11B",
    "county": "St. Joseph",
    "state": "IN",
    "iso": "MISO",
    "lat": 41.6984,
    "lng": -86.3254,
    "notes": "22-building campus near New Carlisle. Groundbreaking Sep 2024, first buildings 2025."
  },
  {
    "name": "AWS Northwest Indiana Expansion",
    "operator": "AWS",
    "type": "hyperscaler",
    "status": "announced",
    "mw": 2400,
    "investment": "$15B",
    "county": "Lake/Porter",
    "state": "IN",
    "iso": "MISO",
    "lat": 41.54,
    "lng": -87.2,
    "notes": "2.4 GW expansion across NW Indiana. Announced Nov 2025."
  },
  {
    "name": "AWS Madison County Mega Site",
    "operator": "AWS",
    "type": "hyperscaler",
    "status": "under_construction",
    "mw": null,
    "investment": "$10B",
    "county": "Madison",
    "state": "MS",
    "iso": "MISO",
    "lat": 32.556,
    "lng": -90.06,
    "notes": "Two complexes on 1700 acres near Canton/Ridgeland. Completion 2027."
  },
  {
    "name": "AWS Warren County",
    "operator": "AWS",
    "type": "hyperscaler",
    "status": "announced",
    "mw": null,
    "investment": "$3B",
    "county": "Warren",
    "state": "MS",
    "iso": "MISO",
    "lat": 32.3526,
    "lng": -90.85,
    "notes": "Second MS data center announced Nov 2025."
  },
  {
    "name": "AWS DeSoto TX",
    "operator": "AWS",
    "type": "hyperscaler",
    "status": "operational",
    "mw": null,
    "investment": "$6M",
    "county": "Dallas",
    "state": "TX",
    "iso": "ERCOT",
    "lat": 32.5999,
    "lng": -96.857,
    "notes": "Ezell Drive Campus, 30,000 sqft in DeSoto."
  },
  {
    "name": "AWS Comanche Peak (Project Spectrum)",
    "operator": "AWS",
    "type": "hyperscaler",
    "status": "announced",
    "mw": null,
    "investment": null,
    "county": "Somervell",
    "state": "TX",
    "iso": "ERCOT",
    "lat": 32.2988,
    "lng": -97.7852,
    "notes": "Large campus near Comanche Peak nuclear plant. Announced Dec 2025."
  },
  {
    "name": "AWS AmeriPlex at the Port",
    "operator": "AWS",
    "type": "hyperscaler",
    "status": "operational",
    "mw": null,
    "investment": null,
    "county": "Porter",
    "state": "IN",
    "iso": "MISO",
    "lat": 41.573,
    "lng": -87.1685,
    "notes": "Existing facility in Portage, IN."
  },
  {
    "name": "Google Midlothian",
    "operator": "Google",
    "type": "hyperscaler",
    "status": "operational",
    "mw": null,
    "investment": "$600M",
    "county": "Ellis",
    "state": "TX",
    "iso": "ERCOT",
    "lat": 32.482,
    "lng": -96.994,
    "notes": "Google Cloud us-south1 region. Midlothian campus."
  },
  {
    "name": "Google Council Bluffs",
    "operator": "Google",
    "type": "hyperscaler",
    "status": "operational",
    "mw": null,
    "investment": "$5B",
    "county": "Pottawattamie",
    "state": "IA",
    "iso": "MISO",
    "lat": 41.2619,
    "lng": -95.8608,
    "notes": "Two campuses, 900+ on-site employees. us-central1 region."
  },
  {
    "name": "Google Papillion",
    "operator": "Google",
    "type": "hyperscaler",
    "status": "operational",
    "mw": null,
    "investment": "$600M",
    "county": "Sarpy",
    "state": "NE",
    "iso": "SPP",
    "lat": 41.1483,
    "lng": -96.01,
    "notes": "Campus in Papillion, 120+ employees."
  },
  {
    "name": "Google Bridgeport AL",
    "operator": "Google",
    "type": "hyperscaler",
    "status": "operational",
    "mw": null,
    "investment": "$600M",
    "county": "Jackson",
    "state": "AL",
    "iso": "MISO",
    "lat": 34.7476,
    "lng": -86.0013,
    "notes": "Campus in Bridgeport, 100+ on-site employees."
  },
  {
    "name": "Google Texas $40B Expansion",
    "operator": "Google",
    "type": "hyperscaler",
    "status": "announced",
    "mw": null,
    "investment": "$40B",
    "county": "Various",
    "state": "TX",
    "iso": "ERCOT",
    "lat": 32.7767,
    "lng": -96.797,
    "notes": "$40B AI data center investment in Texas through 2027."
  },
  {
    "name": "Meta Fort Worth",
    "operator": "Meta",
    "type": "hyperscaler",
    "status": "operational",
    "mw": null,
    "investment": "$1.5B",
    "county": "Tarrant",
    "state": "TX",
    "iso": "ERCOT",
    "lat": 32.8179,
    "lng": -97.306,
    "notes": "Operational since 2015, 300+ jobs."
  },
  {
    "name": "Meta Temple",
    "operator": "Meta",
    "type": "hyperscaler",
    "status": "operational",
    "mw": null,
    "investment": "$800M",
    "county": "Bell",
    "state": "TX",
    "iso": "ERCOT",
    "lat": 31.0982,
    "lng": -97.3428,
    "notes": "Operational since 2022."
  },
  {
    "name": "Meta El Paso",
    "operator": "Meta",
    "type": "hyperscaler",
    "status": "under_construction",
    "mw": null,
    "investment": "$1.5B",
    "county": "El Paso",
    "state": "TX",
    "iso": "ERCOT",
    "lat": 31.7619,
    "lng": -106.485,
    "notes": "Broke ground 2025, ~100 operational jobs."
  },
  {
    "name": "Meta Hyperion (Monroe, LA)",
    "operator": "Meta",
    "type": "hyperscaler",
    "status": "under_construction",
    "mw": 5000,
    "investment": "$27B",
    "county": "Ouachita",
    "state": "LA",
    "iso": "MISO",
    "lat": 32.5093,
    "lng": -92.1193,
    "notes": "5 GW campus on 2,250 acres. JV with Blue Owl Capital. Construction began Dec 2024, completion 2030."
  },
  {
    "name": "Meta Richland Parish LA",
    "operator": "Meta",
    "type": "hyperscaler",
    "status": "under_construction",
    "mw": null,
    "investment": "$10B",
    "county": "Richland",
    "state": "LA",
    "iso": "MISO",
    "lat": 32.456,
    "lng": -91.714,
    "notes": "Broke ground 2024, 500+ operational jobs."
  },
  {
    "name": "Meta Lebanon IN",
    "operator": "Meta",
    "type": "hyperscaler",
    "status": "under_construction",
    "mw": 1000,
    "investment": "$10B",
    "county": "Boone",
    "state": "IN",
    "iso": "MISO",
    "lat": 40.0484,
    "lng": -86.4694,
    "notes": "1 GW campus. Broke ground 2026."
  },
  {
    "name": "Meta Altoona IA",
    "operator": "Meta",
    "type": "hyperscaler",
    "status": "operational",
    "mw": null,
    "investment": "$2.5B",
    "county": "Polk",
    "state": "IA",
    "iso": "MISO",
    "lat": 41.6443,
    "lng": -93.4679,
    "notes": "Operational since 2013, 400+ jobs."
  },
  {
    "name": "Meta Rosemount MN",
    "operator": "Meta",
    "type": "hyperscaler",
    "status": "under_construction",
    "mw": null,
    "investment": "$800M",
    "county": "Dakota",
    "state": "MN",
    "iso": "MISO",
    "lat": 44.7514,
    "lng": -93.1258,
    "notes": "Broke ground 2024, ~100 operational jobs."
  },
  {
    "name": "Microsoft Mount Pleasant WI",
    "operator": "Microsoft",
    "type": "hyperscaler",
    "status": "under_construction",
    "mw": null,
    "investment": null,
    "county": "Racine",
    "state": "WI",
    "iso": "MISO",
    "lat": 42.7142,
    "lng": -87.8792,
    "notes": "1,575 acres. Phase 1 completion 2025-26. Zero-water evaporation cooling."
  },
  {
    "name": "Microsoft Granger IN",
    "operator": "Microsoft",
    "type": "hyperscaler",
    "status": "planned",
    "mw": null,
    "investment": null,
    "county": "St. Joseph",
    "state": "IN",
    "iso": "MISO",
    "lat": 41.7508,
    "lng": -86.1215,
    "notes": "Planned data center."
  },
  {
    "name": "Microsoft La Porte IN",
    "operator": "Microsoft",
    "type": "hyperscaler",
    "status": "planned",
    "mw": null,
    "investment": null,
    "county": "La Porte",
    "state": "IN",
    "iso": "MISO",
    "lat": 41.6103,
    "lng": -86.7225,
    "notes": "Planned data center."
  },
  {
    "name": "OpenAI/Oracle Stargate (Abilene)",
    "operator": "OpenAI/Oracle",
    "type": "hyperscaler",
    "status": "under_construction",
    "mw": 1000,
    "investment": "$100B",
    "county": "Taylor",
    "state": "TX",
    "iso": "ERCOT",
    "lat": 32.4487,
    "lng": -99.7331,
    "notes": "1 GW+ campus, first of 5-10 sites. Completion end of 2026."
  },
  {
    "name": "xAI Colossus (Memphis)",
    "operator": "xAI",
    "type": "hyperscaler",
    "status": "operational",
    "mw": null,
    "investment": null,
    "county": "Shelby",
    "state": "TN",
    "iso": "MISO",
    "lat": 35.2323,
    "lng": -89.901,
    "notes": "Operational AI supercomputer cluster in Memphis."
  },
  {
    "name": "xAI MACROHADRR (Southaven)",
    "operator": "xAI",
    "type": "hyperscaler",
    "status": "under_construction",
    "mw": 2000,
    "investment": "$20B",
    "county": "DeSoto",
    "state": "MS",
    "iso": "MISO",
    "lat": 34.9619,
    "lng": -89.9787,
    "notes": "Expanding to ~2 GW. Purchased Dec 2025."
  },
  {
    "name": "Apple Waukee IA",
    "operator": "Apple",
    "type": "hyperscaler",
    "status": "operational",
    "mw": null,
    "investment": null,
    "county": "Dallas",
    "state": "IA",
    "iso": "MISO",
    "lat": 41.593,
    "lng": -93.8848,
    "notes": "Expanding from 360K sqft to 1.9M sqft."
  },
  {
    "name": "Compass Meridian Campus",
    "operator": "Compass",
    "type": "colo_wholesale",
    "status": "under_construction",
    "mw": 320,
    "investment": "$10B",
    "county": "Lauderdale",
    "state": "MS",
    "iso": "MISO",
    "lat": 32.3643,
    "lng": -88.7037,
    "notes": "Eight 250K sqft buildings, 40 MW each. 500 MW from Mississippi Power. Completion 2033."
  },
  {
    "name": "AVAIO Brandon MS",
    "operator": "AVAIO Digital",
    "type": "colo_wholesale",
    "status": "planned",
    "mw": null,
    "investment": "$6B",
    "county": "Rankin",
    "state": "MS",
    "iso": "MISO",
    "lat": 32.2732,
    "lng": -89.986,
    "notes": "Sustainable data center announced Aug 2025."
  },
  {
    "name": "Vantage Frontier (DFW)",
    "operator": "Vantage",
    "type": "colo_wholesale",
    "status": "under_construction",
    "mw": null,
    "investment": "$25B",
    "county": "Dallas",
    "state": "TX",
    "iso": "ERCOT",
    "lat": 32.751,
    "lng": -96.89,
    "notes": "768-acre DFW campus, 200 MW IT, 1.8 GW switchyard."
  },
  {
    "name": "DataBank Red Oak TX",
    "operator": "DataBank",
    "type": "colo_wholesale",
    "status": "under_construction",
    "mw": 480,
    "investment": null,
    "county": "Ellis",
    "state": "TX",
    "iso": "ERCOT",
    "lat": 32.5185,
    "lng": -96.8075,
    "notes": "292-acre campus, 480 MW."
  },
  {
    "name": "HyperGrid Campus (Amarillo)",
    "operator": "Texas Tech/Fermi America",
    "type": "hyperscaler",
    "status": "under_construction",
    "mw": 1000,
    "investment": null,
    "county": "Potter",
    "state": "TX",
    "iso": "SPP",
    "lat": 35.222,
    "lng": -101.8313,
    "notes": "5,800 acres, 18M sqft. First 1 GW by end 2026. Nuclear complex planned."
  },
  {
    "name": "Data City (Laredo)",
    "operator": "Energy Abundance Dev Corp",
    "type": "hyperscaler",
    "status": "planned",
    "mw": 5000,
    "investment": null,
    "county": "Webb",
    "state": "TX",
    "iso": "ERCOT",
    "lat": 27.5006,
    "lng": -99.5075,
    "notes": "5 GW planned campus near Laredo."
  },
  {
    "name": "Tract Caldwell County Park",
    "operator": "Tract",
    "type": "colo_wholesale",
    "status": "planned",
    "mw": 2000,
    "investment": null,
    "county": "Caldwell",
    "state": "TX",
    "iso": "ERCOT",
    "lat": 29.8833,
    "lng": -97.62,
    "notes": "1,515-acre, 2 GW technology park between Austin and San Antonio."
  },
  {
    "name": "Lighthouse Campus (Port Washington)",
    "operator": "Vantage/Oracle/OpenAI",
    "type": "hyperscaler",
    "status": "under_construction",
    "mw": null,
    "investment": "$15B",
    "county": "Ozaukee",
    "state": "WI",
    "iso": "MISO",
    "lat": 43.3872,
    "lng": -87.8757,
    "notes": "Megacampus collaboration. One of most ambitious AI builds in Midwest."
  },
  {
    "name": "Google West Memphis AR",
    "operator": "Google",
    "type": "hyperscaler",
    "status": "under_construction",
    "mw": null,
    "investment": null,
    "county": "Crittenden",
    "state": "AR",
    "iso": "MISO",
    "lat": 35.1465,
    "lng": -90.1846,
    "notes": "Broke ground across river from xAI Colossus."
  },
  {
    "name": "AWS Louisiana",
    "operator": "AWS",
    "type": "hyperscaler",
    "status": "announced",
    "mw": null,
    "investment": "$12B",
    "county": "Various",
    "state": "LA",
    "iso": "MISO",
    "lat": 30.9843,
    "lng": -91.9623,
    "notes": "First AWS data center campuses in Louisiana. Announced 2025."
  },
  {
    "name": "Provident/PowerHouse San Antonio",
    "operator": "Provident/PowerHouse",
    "type": "colo_wholesale",
    "status": "under_construction",
    "mw": null,
    "investment": null,
    "county": "Bexar",
    "state": "TX",
    "iso": "ERCOT",
    "lat": 29.393,
    "lng": -98.635,
    "notes": "West Military Drive & Loop 1604. Q2 2025 occupancy."
  },
  {
    "name": "Hyperion - Phase 2",
    "operator": "Meta",
    "type": "hyperscaler",
    "status": "announced",
    "mw": 3000,
    "investment": "$27,000,000,000",
    "county": "Richland Parish",
    "state": "LA",
    "iso": null,
    "lat": 32.507011,
    "lng": -91.636105,
    "notes": null,
    "source": "cleanview",
    "cleanview_id": 1864
  },
  {
    "name": "Gainseville Data Center",
    "operator": "Microsoft",
    "type": "hyperscaler",
    "status": "announced",
    "mw": 2982,
    "investment": null,
    "county": "Prince William",
    "state": "VA",
    "iso": null,
    "lat": 38.7914246,
    "lng": -77.5845138,
    "notes": null,
    "source": "cleanview",
    "cleanview_id": 702
  },
  {
    "name": "North Creek Tech Campus",
    "operator": "AWS",
    "type": "hyperscaler",
    "status": "announced",
    "mw": 2700,
    "investment": null,
    "county": "Louisa",
    "state": "VA",
    "iso": null,
    "lat": 37.96837812,
    "lng": -77.95334145,
    "notes": null,
    "source": "cleanview",
    "cleanview_id": 703
  },
  {
    "name": "AWS Hobart",
    "operator": "AWS",
    "type": "hyperscaler",
    "status": "announced",
    "mw": 2400,
    "investment": "$15,000,000,000",
    "county": "Lake",
    "state": "IN",
    "iso": null,
    "lat": 41.4883163,
    "lng": -87.3355017,
    "notes": null,
    "source": "cleanview",
    "cleanview_id": 1851
  },
  {
    "name": "Birchwood AWS",
    "operator": "AWS",
    "type": "hyperscaler",
    "status": "announced",
    "mw": 2175,
    "investment": null,
    "county": "King George",
    "state": "VA",
    "iso": null,
    "lat": 38.26640245,
    "lng": -77.31772806,
    "notes": null,
    "source": "cleanview",
    "cleanview_id": 704
  },
  {
    "name": "Hyperion - Phase 1",
    "operator": "Meta",
    "type": "hyperscaler",
    "status": "announced",
    "mw": 2000,
    "investment": "$10,000,000,000",
    "county": "Richland",
    "state": "LA",
    "iso": null,
    "lat": 32.507011,
    "lng": -91.636105,
    "notes": null,
    "source": "cleanview",
    "cleanview_id": 708
  },
  {
    "name": "AWS New Carlisle - Expansion",
    "operator": "AWS",
    "type": "hyperscaler",
    "status": "announced",
    "mw": 1725,
    "investment": "$11,000,000,000",
    "county": "St. Joseph",
    "state": "IN",
    "iso": null,
    "lat": 41.6713922,
    "lng": -86.4812191,
    "notes": null,
    "source": "cleanview",
    "cleanview_id": 713
  },
  {
    "name": "Wilderness Crossing",
    "operator": "AWS",
    "type": "hyperscaler",
    "status": "announced",
    "mw": 1500,
    "investment": null,
    "county": "Orange",
    "state": "VA",
    "iso": null,
    "lat": 38.333162,
    "lng": -77.731088,
    "notes": null,
    "source": "cleanview",
    "cleanview_id": 717
  },
  {
    "name": "Fairwater 1 - Mount Pleasant",
    "operator": "Microsoft",
    "type": "hyperscaler",
    "status": "announced",
    "mw": 1480,
    "investment": "$7,300,000,000",
    "county": "Racine",
    "state": "WI",
    "iso": null,
    "lat": 42.690679,
    "lng": -87.937411,
    "notes": null,
    "source": "cleanview",
    "cleanview_id": 721
  },
  {
    "name": "Google Monrovia Data Center",
    "operator": "Google",
    "type": "hyperscaler",
    "status": "announced",
    "mw": 1200,
    "investment": null,
    "county": "Morgan",
    "state": "IN",
    "iso": null,
    "lat": 39.59558739,
    "lng": -86.45815461,
    "notes": null,
    "source": "cleanview",
    "cleanview_id": 783
  },
  {
    "name": "Project Zodiac - Phase 2",
    "operator": "Google",
    "type": "hyperscaler",
    "status": "announced",
    "mw": 1200,
    "investment": null,
    "county": "Allen",
    "state": "IN",
    "iso": null,
    "lat": 41.03472,
    "lng": -85.047459,
    "notes": null,
    "source": "cleanview",
    "cleanview_id": 1908
  },
  {
    "name": "Project Cannoli",
    "operator": "Google",
    "type": "hyperscaler",
    "status": "announced",
    "mw": 1000,
    "investment": null,
    "county": "Wayne",
    "state": "MI",
    "iso": null,
    "lat": 42.228857,
    "lng": -83.475064,
    "notes": null,
    "source": "cleanview",
    "cleanview_id": 1913
  },
  {
    "name": "Lebanon Data Center",
    "operator": "Meta",
    "type": "hyperscaler",
    "status": "announced",
    "mw": 1000,
    "investment": "$4,800,000,000",
    "county": "Boone",
    "state": "IN",
    "iso": null,
    "lat": 40.0478708,
    "lng": -86.5261111,
    "notes": null,
    "source": "cleanview",
    "cleanview_id": 716
  },
  {
    "name": "Meta El Paso Data Center",
    "operator": "Meta",
    "type": "hyperscaler",
    "status": "announced",
    "mw": 1000,
    "investment": "$1,500,000,000",
    "county": "El Paso",
    "state": "TX",
    "iso": null,
    "lat": 31.9869,
    "lng": -106.378,
    "notes": null,
    "source": "cleanview",
    "cleanview_id": 1933
  },
  {
    "name": "AWS Susquehanna Data Center",
    "operator": "AWS",
    "type": "hyperscaler",
    "status": "announced",
    "mw": 960,
    "investment": null,
    "county": "Luzerne",
    "state": "PA",
    "iso": null,
    "lat": 41.0894737,
    "lng": -76.1458552,
    "notes": null,
    "source": "cleanview",
    "cleanview_id": 735
  },
  {
    "name": "Hansen Farm Data Center",
    "operator": "Microsoft",
    "type": "hyperscaler",
    "status": "announced",
    "mw": 910,
    "investment": null,
    "county": "Prince William",
    "state": "VA",
    "iso": null,
    "lat": 38.7814337,
    "lng": -77.5723489,
    "notes": null,
    "source": "cleanview",
    "cleanview_id": 736
  },
  {
    "name": "Google Wilbarger County Data Center",
    "operator": "Google",
    "type": "hyperscaler",
    "status": "announced",
    "mw": 850,
    "investment": null,
    "county": "Wilbarger",
    "state": "TX",
    "iso": null,
    "lat": 34.085262,
    "lng": -99.145335,
    "notes": null,
    "source": "cleanview",
    "cleanview_id": 1980
  },
  {
    "name": "Meitner Data Center",
    "operator": "Google",
    "type": "hyperscaler",
    "status": "announced",
    "mw": 840,
    "investment": "$3,000,000,000",
    "county": "Gray",
    "state": "TX",
    "iso": null,
    "lat": 35.562222,
    "lng": -100.6941,
    "notes": null,
    "source": "cleanview",
    "cleanview_id": 2206
  },
  {
    "name": "Mattameade Tech Campus",
    "operator": "AWS",
    "type": "hyperscaler",
    "status": "announced",
    "mw": 770,
    "investment": null,
    "county": "Spotsylvania",
    "state": "VA",
    "iso": null,
    "lat": 38.12168301,
    "lng": -77.50419731,
    "notes": null,
    "source": "cleanview",
    "cleanview_id": 742
  },
  {
    "name": "Cedar Rapids Data Center",
    "operator": "Google",
    "type": "hyperscaler",
    "status": "announced",
    "mw": 600,
    "investment": "$576,000,000",
    "county": "Linn",
    "state": "IA",
    "iso": null,
    "lat": 41.918086,
    "lng": -91.721967,
    "notes": null,
    "source": "cleanview",
    "cleanview_id": 752
  },
  {
    "name": "AWS New Carlisle - Phase 1",
    "operator": "AWS",
    "type": "hyperscaler",
    "status": "operational",
    "mw": 525,
    "investment": "$11,000,000,000",
    "county": "St. Joseph",
    "state": "IN",
    "iso": null,
    "lat": 41.6713922,
    "lng": -86.4812191,
    "notes": null,
    "source": "cleanview",
    "cleanview_id": 756
  },
  {
    "name": "Henrico Data Center",
    "operator": "Meta",
    "type": "hyperscaler",
    "status": "operational",
    "mw": 500,
    "investment": "$1,500,000,000",
    "county": "Henrico",
    "state": "VA",
    "iso": null,
    "lat": 37.484439,
    "lng": -77.236867,
    "notes": null,
    "source": "cleanview",
    "cleanview_id": 758
  },
  {
    "name": "Cosner Tech Campus",
    "operator": "AWS",
    "type": "hyperscaler",
    "status": "announced",
    "mw": 450,
    "investment": "$1,000,000,000",
    "county": "Spotsylvania",
    "state": "VA",
    "iso": null,
    "lat": 38.20700248,
    "lng": -77.4754614,
    "notes": null,
    "source": "cleanview",
    "cleanview_id": 769
  },
  {
    "name": "Microsoft Project Ginger East",
    "operator": "Microsoft",
    "type": "hyperscaler",
    "status": "announced",
    "mw": 444,
    "investment": "$1,000,000,000",
    "county": "Polk",
    "state": "IA",
    "iso": null,
    "lat": 41.515959,
    "lng": -93.720739,
    "notes": null,
    "source": "cleanview",
    "cleanview_id": 771
  },
  {
    "name": "Microsoft Van Meter",
    "operator": "Microsoft",
    "type": "hyperscaler",
    "status": "announced",
    "mw": 415,
    "investment": null,
    "county": "Dallas",
    "state": "IA",
    "iso": null,
    "lat": 41.5109532,
    "lng": -93.930203,
    "notes": null,
    "source": "cleanview",
    "cleanview_id": 774
  },
  {
    "name": "Jeffersonville Data Center",
    "operator": "Meta",
    "type": "hyperscaler",
    "status": "announced",
    "mw": 407,
    "investment": "$800,000,000",
    "county": "Clark",
    "state": "IN",
    "iso": null,
    "lat": 38.375278,
    "lng": -85.668327,
    "notes": null,
    "source": "cleanview",
    "cleanview_id": 861
  },
  {
    "name": "Project Zodiac - Phase 1",
    "operator": "Google",
    "type": "hyperscaler",
    "status": "operational",
    "mw": 400,
    "investment": "$845,000,000",
    "county": "Allen",
    "state": "IN",
    "iso": null,
    "lat": 41.03472,
    "lng": -85.047459,
    "notes": null,
    "source": "cleanview",
    "cleanview_id": 805
  },
  {
    "name": "East Wenatchee Campus",
    "operator": "Microsoft",
    "type": "hyperscaler",
    "status": "announced",
    "mw": 360,
    "investment": "$490,000,000",
    "county": "Chelan",
    "state": "WA",
    "iso": null,
    "lat": 47.415,
    "lng": -120.298,
    "notes": null,
    "source": "cleanview",
    "cleanview_id": 786
  },
  {
    "name": "Fairwater 2 - Atlanta",
    "operator": "Microsoft",
    "type": "hyperscaler",
    "status": "operational",
    "mw": 350,
    "investment": null,
    "county": "Fulton",
    "state": "GA",
    "iso": null,
    "lat": 33.4487885,
    "lng": -84.5222894,
    "notes": null,
    "source": "cleanview",
    "cleanview_id": 1896
  },
  {
    "name": "Hillcrest Campus",
    "operator": "Microsoft",
    "type": "hyperscaler",
    "status": "announced",
    "mw": 336,
    "investment": null,
    "county": "Mecklenburg",
    "state": "VA",
    "iso": null,
    "lat": 36.660047,
    "lng": -78.365035,
    "notes": null,
    "source": "cleanview",
    "cleanview_id": 789
  },
  {
    "name": "Imperial Valley AI Data Center",
    "operator": "Google",
    "type": "hyperscaler",
    "status": "announced",
    "mw": 330,
    "investment": "$10,000,000,000",
    "county": "Imperial",
    "state": "CA",
    "iso": null,
    "lat": 32.8249004,
    "lng": -115.5655345,
    "notes": null,
    "source": "cleanview",
    "cleanview_id": 1911
  },
  {
    "name": "Becker Data Center",
    "operator": "Microsoft",
    "type": "hyperscaler",
    "status": "announced",
    "mw": 325,
    "investment": null,
    "county": "Becker",
    "state": "MN",
    "iso": null,
    "lat": 45.3964749,
    "lng": -93.9279565,
    "notes": null,
    "source": "cleanview",
    "cleanview_id": 790
  },
  {
    "name": "Project Steamboat - Fulton Data Center",
    "operator": "Microsoft",
    "type": "hyperscaler",
    "status": "announced",
    "mw": 324,
    "investment": "$1,800,000,000",
    "county": "Fulton",
    "state": "GA",
    "iso": null,
    "lat": 33.6243747,
    "lng": -84.5626331,
    "notes": null,
    "source": "cleanview",
    "cleanview_id": 791
  },
  {
    "name": "Rosemount Data Center",
    "operator": "Meta",
    "type": "hyperscaler",
    "status": "announced",
    "mw": 308,
    "investment": "$800,000,000",
    "county": "Dakota",
    "state": "MN",
    "iso": null,
    "lat": 44.734698,
    "lng": -93.06526,
    "notes": null,
    "source": "cleanview",
    "cleanview_id": 793
  },
  {
    "name": "Council Bluffs Data Center - Campus 2 West",
    "operator": "Google",
    "type": "hyperscaler",
    "status": "operational",
    "mw": 300,
    "investment": null,
    "county": "Pottawattamie",
    "state": "IA",
    "iso": null,
    "lat": 41.1758333,
    "lng": -95.8096853,
    "notes": null,
    "source": "cleanview",
    "cleanview_id": 795
  },
  {
    "name": "Microsoft Malaga Campus",
    "operator": "Microsoft",
    "type": "hyperscaler",
    "status": "announced",
    "mw": 288,
    "investment": null,
    "county": "Chelan",
    "state": "WA",
    "iso": null,
    "lat": 47.359072,
    "lng": -120.15889,
    "notes": null,
    "source": "cleanview",
    "cleanview_id": 819
  },
  {
    "name": "Stover North Data Center",
    "operator": "Microsoft",
    "type": "hyperscaler",
    "status": "announced",
    "mw": 270,
    "investment": null,
    "county": "Catawba",
    "state": "NC",
    "iso": null,
    "lat": 35.65,
    "lng": -81.22,
    "notes": null,
    "source": "cleanview",
    "cleanview_id": 1978
  },
  {
    "name": "Boyd Farms Data Center",
    "operator": "Microsoft",
    "type": "hyperscaler",
    "status": "announced",
    "mw": 270,
    "investment": null,
    "county": "Catawba",
    "state": "NC",
    "iso": null,
    "lat": 35.58735,
    "lng": -81.23074,
    "notes": null,
    "source": "cleanview",
    "cleanview_id": 1694
  },
  {
    "name": "Lyle Creek Data Center",
    "operator": "Microsoft",
    "type": "hyperscaler",
    "status": "announced",
    "mw": 270,
    "investment": null,
    "county": "Catawba",
    "state": "NC",
    "iso": null,
    "lat": 35.73344,
    "lng": -81.20363,
    "notes": null,
    "source": "cleanview",
    "cleanview_id": 770
  },
  {
    "name": "Microsoft Project Ginger West",
    "operator": "Microsoft",
    "type": "hyperscaler",
    "status": "announced",
    "mw": 207,
    "investment": "$1,000,000,000",
    "county": "Polk",
    "state": "IA",
    "iso": null,
    "lat": 41.535171,
    "lng": -93.864732,
    "notes": null,
    "source": "cleanview",
    "cleanview_id": 848
  },
  {
    "name": "Fort Worth Data Center",
    "operator": "Meta",
    "type": "hyperscaler",
    "status": "operational",
    "mw": 200,
    "investment": "$1,500,000,000",
    "county": "Tarrant",
    "state": "TX",
    "iso": null,
    "lat": 32.90594,
    "lng": -97.33518,
    "notes": null,
    "source": "cleanview",
    "cleanview_id": 854
  },
  {
    "name": "IAD 01-04",
    "operator": "Microsoft",
    "type": "hyperscaler",
    "status": "operational",
    "mw": 180,
    "investment": null,
    "county": "Loudoun",
    "state": "VA",
    "iso": null,
    "lat": 39.075329,
    "lng": -77.5642059,
    "notes": null,
    "source": "cleanview",
    "cleanview_id": 870
  },
  {
    "name": "Northlake Chicago CH1",
    "operator": "Microsoft",
    "type": "hyperscaler",
    "status": "operational",
    "mw": 158,
    "investment": "$500,000,000",
    "county": "Cook",
    "state": "IL",
    "iso": null,
    "lat": 41.922527,
    "lng": -87.918665,
    "notes": null,
    "source": "cleanview",
    "cleanview_id": 879
  },
  {
    "name": "Microsoft Project Osmium",
    "operator": "Microsoft",
    "type": "hyperscaler",
    "status": "operational",
    "mw": 150,
    "investment": "$1,500,000,000",
    "county": "Polk",
    "state": "IA",
    "iso": null,
    "lat": 41.49669,
    "lng": -93.787992,
    "notes": null,
    "source": "cleanview",
    "cleanview_id": 885
  },
  {
    "name": "Papillion Data Center - Phase 2",
    "operator": "Google",
    "type": "hyperscaler",
    "status": "operational",
    "mw": 150,
    "investment": null,
    "county": "Sarpy",
    "state": "NE",
    "iso": null,
    "lat": 41.1340621,
    "lng": -96.152247,
    "notes": null,
    "source": "cleanview",
    "cleanview_id": 881
  },
  {
    "name": "Microsoft Goodyear Campus",
    "operator": "Microsoft",
    "type": "hyperscaler",
    "status": "operational",
    "mw": 143,
    "investment": null,
    "county": "Maricopa",
    "state": "AZ",
    "iso": null,
    "lat": 33.49257,
    "lng": -112.43882,
    "notes": null,
    "source": "cleanview",
    "cleanview_id": 890
  },
  {
    "name": "Council Bluffs Data Center - Campus 2 East",
    "operator": "Google",
    "type": "hyperscaler",
    "status": "operational",
    "mw": 125,
    "investment": null,
    "county": "Pottawattamie",
    "state": "IA",
    "iso": null,
    "lat": 41.1758333,
    "lng": -95.8096853,
    "notes": null,
    "source": "cleanview",
    "cleanview_id": 894
  },
  {
    "name": "Los Lunas Data Center",
    "operator": "Meta",
    "type": "hyperscaler",
    "status": "operational",
    "mw": 120,
    "investment": "$2,500,000,000",
    "county": "Valencia",
    "state": "NM",
    "iso": null,
    "lat": 34.828031,
    "lng": -106.780983,
    "notes": null,
    "source": "cleanview",
    "cleanview_id": 896
  },
  {
    "name": "Microsoft Project Ruthenium",
    "operator": "Microsoft",
    "type": "hyperscaler",
    "status": "announced",
    "mw": 113,
    "investment": null,
    "county": "Polk",
    "state": "IA",
    "iso": null,
    "lat": 41.49816,
    "lng": -93.8039,
    "notes": null,
    "source": "cleanview",
    "cleanview_id": 906
  },
  {
    "name": "Papillion Data Center - Phase 1",
    "operator": "Google",
    "type": "hyperscaler",
    "status": "operational",
    "mw": 100,
    "investment": "$600,000,000",
    "county": "Sarpy",
    "state": "NE",
    "iso": null,
    "lat": 41.134281,
    "lng": -96.144341,
    "notes": null,
    "source": "cleanview",
    "cleanview_id": 913
  },
  {
    "name": "Alviso-Milpitas San Jose Campus",
    "operator": "Microsoft",
    "type": "hyperscaler",
    "status": "announced",
    "mw": 99,
    "investment": null,
    "county": "Santa Clara",
    "state": "CA",
    "iso": null,
    "lat": 37.4210432,
    "lng": -121.9314939,
    "notes": null,
    "source": "cleanview",
    "cleanview_id": 926
  },
  {
    "name": "SJDC 04",
    "operator": "Microsoft",
    "type": "hyperscaler",
    "status": "announced",
    "mw": 98,
    "investment": null,
    "county": "Santa Clara",
    "state": "CA",
    "iso": null,
    "lat": 37.3787837,
    "lng": -121.9292897,
    "notes": null,
    "source": "cleanview",
    "cleanview_id": 927
  },
  {
    "name": "Henderson Data Center",
    "operator": "Google",
    "type": "hyperscaler",
    "status": "operational",
    "mw": 60,
    "investment": "$600,000,000",
    "county": "Clark",
    "state": "NV",
    "iso": null,
    "lat": 36.058452,
    "lng": -115.009285,
    "notes": null,
    "source": "cleanview",
    "cleanview_id": 965
  },
  {
    "name": "Amazon Gilroy Data Center",
    "operator": "AWS",
    "type": "hyperscaler",
    "status": "announced",
    "mw": 50,
    "investment": null,
    "county": "Santa Clara",
    "state": "CA",
    "iso": null,
    "lat": 37.018684,
    "lng": -121.56053,
    "notes": null,
    "source": "cleanview",
    "cleanview_id": 2093
  },
  {
    "name": "Forest City Data Center",
    "operator": "Meta",
    "type": "hyperscaler",
    "status": "operational",
    "mw": 30,
    "investment": "$750,000,000",
    "county": "Rutherford",
    "state": "NC",
    "iso": null,
    "lat": 35.316711,
    "lng": -81.826883,
    "notes": null,
    "source": "cleanview",
    "cleanview_id": 1051
  },
  {
    "name": "Prineville Data Center",
    "operator": "Meta",
    "type": "hyperscaler",
    "status": "operational",
    "mw": 30,
    "investment": "$2,000,000,000",
    "county": "Crook",
    "state": "OR",
    "iso": null,
    "lat": 44.300978,
    "lng": -120.890907,
    "notes": null,
    "source": "cleanview",
    "cleanview_id": 1047
  },
  {
    "name": "Loudoun Commerce Center",
    "operator": "AWS",
    "type": "hyperscaler",
    "status": "announced",
    "mw": null,
    "investment": null,
    "county": "Loudoun",
    "state": "VA",
    "iso": null,
    "lat": 39.02239824,
    "lng": -77.41006855,
    "notes": null,
    "source": "cleanview",
    "cleanview_id": 1819
  },
  {
    "name": "Manekin Plaza",
    "operator": "AWS",
    "type": "hyperscaler",
    "status": "announced",
    "mw": null,
    "investment": null,
    "county": "Loudoun",
    "state": "VA",
    "iso": null,
    "lat": 39.02377354,
    "lng": -77.40789059,
    "notes": null,
    "source": "cleanview",
    "cleanview_id": 1820
  },
  {
    "name": "Old Potomac Church Data Center",
    "operator": "AWS",
    "type": "hyperscaler",
    "status": "announced",
    "mw": null,
    "investment": "$1,000,000,000",
    "county": "Stafford",
    "state": "VA",
    "iso": null,
    "lat": 38.41132231,
    "lng": -77.40424702,
    "notes": null,
    "source": "cleanview",
    "cleanview_id": 1821
  },
  {
    "name": "Project Tropical",
    "operator": "Meta",
    "type": "hyperscaler",
    "status": "announced",
    "mw": null,
    "investment": null,
    "county": "Henrico",
    "state": "VA",
    "iso": null,
    "lat": 37.47379852,
    "lng": -77.23477836,
    "notes": null,
    "source": "cleanview",
    "cleanview_id": 1824
  },
  {
    "name": "AWS Loisdale Station",
    "operator": "AWS",
    "type": "hyperscaler",
    "status": "announced",
    "mw": null,
    "investment": null,
    "county": "Fairfax",
    "state": "VA",
    "iso": null,
    "lat": 38.74226677,
    "lng": -77.18642689,
    "notes": null,
    "source": "cleanview",
    "cleanview_id": 1825
  },
  {
    "name": "Mesa Campus - Redhawk 1",
    "operator": "Google",
    "type": "hyperscaler",
    "status": "operational",
    "mw": null,
    "investment": null,
    "county": "Maricopa",
    "state": "AZ",
    "iso": null,
    "lat": 33.3544444,
    "lng": -111.6806359,
    "notes": null,
    "source": "cleanview",
    "cleanview_id": 1351
  },
  {
    "name": "Mesa Campus - Redhawk 2",
    "operator": "Google",
    "type": "hyperscaler",
    "status": "announced",
    "mw": null,
    "investment": null,
    "county": "Maricopa",
    "state": "AZ",
    "iso": null,
    "lat": 33.3544444,
    "lng": -111.6806359,
    "notes": null,
    "source": "cleanview",
    "cleanview_id": 1575
  },
  {
    "name": "Amazon Project Cosmos.",
    "operator": "AWS",
    "type": "hyperscaler",
    "status": "announced",
    "mw": null,
    "investment": null,
    "county": "Union",
    "state": "OH",
    "iso": null,
    "lat": 40.2201694,
    "lng": -83.32601402,
    "notes": null,
    "source": "cleanview",
    "cleanview_id": 1679
  },
  {
    "name": "Amazon Falls Data Center",
    "operator": "AWS",
    "type": "hyperscaler",
    "status": "announced",
    "mw": null,
    "investment": null,
    "county": "Bucks",
    "state": "PA",
    "iso": null,
    "lat": 40.16008862,
    "lng": -74.74857296,
    "notes": null,
    "source": "cleanview",
    "cleanview_id": 1861
  },
  {
    "name": "Project Blue Marlin",
    "operator": "AWS",
    "type": "hyperscaler",
    "status": "announced",
    "mw": null,
    "investment": "$10,000,000,000",
    "county": "Richmond",
    "state": "NC",
    "iso": null,
    "lat": 34.83545756,
    "lng": -79.73396408,
    "notes": null,
    "source": "cleanview",
    "cleanview_id": 1879
  },
  {
    "name": "Amazon Bristow Data Center",
    "operator": "AWS",
    "type": "hyperscaler",
    "status": "announced",
    "mw": null,
    "investment": null,
    "county": "Prince William",
    "state": "VA",
    "iso": null,
    "lat": 38.76813355,
    "lng": -77.57470225,
    "notes": null,
    "source": "cleanview",
    "cleanview_id": 1885
  },
  {
    "name": "Project Peanut",
    "operator": "Google",
    "type": "hyperscaler",
    "status": "announced",
    "mw": null,
    "investment": null,
    "county": "Chesterfield",
    "state": "VA",
    "iso": null,
    "lat": 37.34420372,
    "lng": -77.3037902,
    "notes": null,
    "source": "cleanview",
    "cleanview_id": 1893
  },
  {
    "name": "Google Muskogee County Campus",
    "operator": "Google",
    "type": "hyperscaler",
    "status": "announced",
    "mw": null,
    "investment": null,
    "county": "Muskogee",
    "state": "OK",
    "iso": null,
    "lat": 35.6109,
    "lng": -95.5369,
    "notes": null,
    "source": "cleanview",
    "cleanview_id": 1934
  },
  {
    "name": "Microsoft Gaines Township Data Center",
    "operator": "Microsoft",
    "type": "hyperscaler",
    "status": "announced",
    "mw": null,
    "investment": null,
    "county": "Kent",
    "state": "MI",
    "iso": null,
    "lat": 42.8262104,
    "lng": -85.5456318,
    "notes": null,
    "source": "cleanview",
    "cleanview_id": 1910
  },
  {
    "name": "Project Skyway - Phase 1",
    "operator": "Google",
    "type": "hyperscaler",
    "status": "announced",
    "mw": null,
    "investment": null,
    "county": "Goodhue",
    "state": "MN",
    "iso": null,
    "lat": 44.227,
    "lng": -92.65,
    "notes": null,
    "source": "cleanview",
    "cleanview_id": 1922
  },
  {
    "name": "AWS Douglas County Data Center",
    "operator": "AWS",
    "type": "hyperscaler",
    "status": "announced",
    "mw": null,
    "investment": null,
    "county": "Douglas",
    "state": "GA",
    "iso": null,
    "lat": 33.744,
    "lng": -84.773,
    "notes": null,
    "source": "cleanview",
    "cleanview_id": 1928
  },
  {
    "name": "Goodnight Campus",
    "operator": "Google",
    "type": "hyperscaler",
    "status": "announced",
    "mw": null,
    "investment": null,
    "county": "Armstrong",
    "state": "TX",
    "iso": null,
    "lat": 35.0168,
    "lng": -101.345,
    "notes": null,
    "source": "cleanview",
    "cleanview_id": 1952
  },
  {
    "name": "Quantum Campus",
    "operator": "Google",
    "type": "hyperscaler",
    "status": "announced",
    "mw": null,
    "investment": null,
    "county": "Haskell",
    "state": "TX",
    "iso": null,
    "lat": 33.1377,
    "lng": -99.57,
    "notes": null,
    "source": "cleanview",
    "cleanview_id": 1953
  },
  {
    "name": "Haskell County Campus",
    "operator": "Google",
    "type": "hyperscaler",
    "status": "announced",
    "mw": null,
    "investment": null,
    "county": "Haskell",
    "state": "TX",
    "iso": null,
    "lat": 33.0129,
    "lng": -99.5604,
    "notes": null,
    "source": "cleanview",
    "cleanview_id": 1954
  },
  {
    "name": "Google Little Rock Data Center",
    "operator": "Google",
    "type": "hyperscaler",
    "status": "announced",
    "mw": null,
    "investment": "$1,000,000,000",
    "county": "Pulaski",
    "state": "AR",
    "iso": null,
    "lat": 34.67703,
    "lng": -92.17963,
    "notes": null,
    "source": "cleanview",
    "cleanview_id": 1959
  },
  {
    "name": "Fairwater Expansion - Durand Ave",
    "operator": "Microsoft",
    "type": "hyperscaler",
    "status": "announced",
    "mw": null,
    "investment": "$7,970,000,000",
    "county": "Racine",
    "state": "WI",
    "iso": null,
    "lat": 42.6984,
    "lng": -87.9304,
    "notes": null,
    "source": "cleanview",
    "cleanview_id": 1962
  },
  {
    "name": "Fairwater Expansion - International Dr",
    "operator": "Microsoft",
    "type": "hyperscaler",
    "status": "announced",
    "mw": null,
    "investment": "$5,300,000,000",
    "county": "Racine",
    "state": "WI",
    "iso": null,
    "lat": 42.7035,
    "lng": -87.9302,
    "notes": null,
    "source": "cleanview",
    "cleanview_id": 1963
  },
  {
    "name": "Microsoft New Albany Data Center",
    "operator": "Microsoft",
    "type": "hyperscaler",
    "status": "announced",
    "mw": null,
    "investment": "$420,000,000",
    "county": "Licking",
    "state": "OH",
    "iso": null,
    "lat": 40.08,
    "lng": -82.78,
    "notes": null,
    "source": "cleanview",
    "cleanview_id": 1975
  },
  {
    "name": "Person County Mega Park Data Center",
    "operator": "Microsoft",
    "type": "hyperscaler",
    "status": "announced",
    "mw": null,
    "investment": null,
    "county": "Person",
    "state": "NC",
    "iso": null,
    "lat": 36.47448,
    "lng": -78.9939,
    "notes": null,
    "source": "cleanview",
    "cleanview_id": 1979
  },
  {
    "name": "New Albany Data Center - Phase 4",
    "operator": "Meta",
    "type": "hyperscaler",
    "status": "announced",
    "mw": null,
    "investment": "$1,500,000,000",
    "county": "Licking",
    "state": "OH",
    "iso": null,
    "lat": 40.067538,
    "lng": -82.75073354,
    "notes": null,
    "source": "cleanview",
    "cleanview_id": 1684
  },
  {
    "name": "AWS Covington Data Center",
    "operator": "AWS",
    "type": "hyperscaler",
    "status": "announced",
    "mw": null,
    "investment": "$11,000,000,000",
    "county": "Newton",
    "state": "GA",
    "iso": null,
    "lat": 33.63342,
    "lng": -83.833015,
    "notes": null,
    "source": "cleanview",
    "cleanview_id": 2102
  },
  {
    "name": "Microsoft Rome Data Center",
    "operator": "Microsoft",
    "type": "hyperscaler",
    "status": "announced",
    "mw": null,
    "investment": "$1,000,000,000",
    "county": "Floyd",
    "state": "GA",
    "iso": null,
    "lat": 34.300987,
    "lng": -85.30927,
    "notes": null,
    "source": "cleanview",
    "cleanview_id": 2106
  },
  {
    "name": "Amazon Lamar County Data Center",
    "operator": "AWS",
    "type": "hyperscaler",
    "status": "announced",
    "mw": null,
    "investment": "$270,000,000",
    "county": "Lamar",
    "state": "GA",
    "iso": null,
    "lat": 33.05563,
    "lng": -84.1222,
    "notes": null,
    "source": "cleanview",
    "cleanview_id": 2099
  },
  {
    "name": "Project Green Data Center",
    "operator": "AWS",
    "type": "hyperscaler",
    "status": "announced",
    "mw": null,
    "investment": null,
    "county": "Montgomery",
    "state": "MO",
    "iso": null,
    "lat": 38.905663,
    "lng": -91.41777,
    "notes": null,
    "source": "cleanview",
    "cleanview_id": 2124
  },
  {
    "name": "Project Spade Data Center",
    "operator": "Google",
    "type": "hyperscaler",
    "status": "announced",
    "mw": null,
    "investment": null,
    "county": "Montgomery",
    "state": "MO",
    "iso": null,
    "lat": 38.8889,
    "lng": -91.440025,
    "notes": null,
    "source": "cleanview",
    "cleanview_id": 2125
  },
  {
    "name": "AWS Kline Township Data Center",
    "operator": "AWS",
    "type": "hyperscaler",
    "status": "announced",
    "mw": null,
    "investment": null,
    "county": "Schuylkill",
    "state": "PA",
    "iso": null,
    "lat": 40.86813,
    "lng": -76.024254,
    "notes": null,
    "source": "cleanview",
    "cleanview_id": 2165
  },
  {
    "name": "Amazon Project Galaxy",
    "operator": "AWS",
    "type": "hyperscaler",
    "status": "announced",
    "mw": null,
    "investment": "$3,000,000,000",
    "county": "Shelby",
    "state": "OH",
    "iso": null,
    "lat": 40.26942,
    "lng": -84.19626,
    "notes": null,
    "source": "cleanview",
    "cleanview_id": 2160
  },
  {
    "name": "Google Lima Data Center",
    "operator": "Google",
    "type": "hyperscaler",
    "status": "announced",
    "mw": null,
    "investment": "$500,000,000",
    "county": "Allen",
    "state": "OH",
    "iso": null,
    "lat": 40.7965,
    "lng": -84.121,
    "notes": null,
    "source": "cleanview",
    "cleanview_id": 2159
  },
  {
    "name": "Google Project Spring",
    "operator": "Google",
    "type": "hyperscaler",
    "status": "announced",
    "mw": null,
    "investment": null,
    "county": "Osage",
    "state": "OK",
    "iso": null,
    "lat": 36.24621,
    "lng": -96.10994,
    "notes": null,
    "source": "cleanview",
    "cleanview_id": 2163
  },
  {
    "name": "Google Franklin Furnace Data Center",
    "operator": "Google",
    "type": "hyperscaler",
    "status": "announced",
    "mw": null,
    "investment": "$1,000,000,000",
    "county": "Scioto",
    "state": "OH",
    "iso": null,
    "lat": 38.59737,
    "lng": -82.84261,
    "notes": null,
    "source": "cleanview",
    "cleanview_id": 2157
  },
  {
    "name": "Lancaster Data Center - Phase 2",
    "operator": "Google",
    "type": "hyperscaler",
    "status": "announced",
    "mw": null,
    "investment": null,
    "county": "Fairfield",
    "state": "OH",
    "iso": null,
    "lat": 39.7252942,
    "lng": -82.6867036,
    "notes": null,
    "source": "cleanview",
    "cleanview_id": 1687
  },
  {
    "name": "Prison Road Campus",
    "operator": "Microsoft",
    "type": "hyperscaler",
    "status": "announced",
    "mw": null,
    "investment": null,
    "county": "Mecklenburg",
    "state": "VA",
    "iso": null,
    "lat": 36.692368,
    "lng": -78.36617,
    "notes": null,
    "source": "cleanview",
    "cleanview_id": 1700
  },
  {
    "name": "Project Pumpkin 2A",
    "operator": "Google",
    "type": "hyperscaler",
    "status": "announced",
    "mw": null,
    "investment": "$400,000,000",
    "county": "Roberts",
    "state": "TX",
    "iso": null,
    "lat": 35.691273,
    "lng": -100.6382,
    "notes": null,
    "source": "cleanview",
    "cleanview_id": 2202
  },
  {
    "name": "AWS Rockfish",
    "operator": "AWS",
    "type": "hyperscaler",
    "status": "operational",
    "mw": null,
    "investment": "$56,000,000",
    "county": "Bexar",
    "state": "TX",
    "iso": null,
    "lat": 29.3019,
    "lng": -98.3888,
    "notes": null,
    "source": "cleanview",
    "cleanview_id": 2181
  },
  {
    "name": "Microsoft Azure Cheyenne",
    "operator": "Microsoft",
    "type": "hyperscaler",
    "status": "announced",
    "mw": null,
    "investment": null,
    "county": "Laramie",
    "state": "WY",
    "iso": null,
    "lat": 41.12372,
    "lng": -104.901,
    "notes": null,
    "source": "cleanview",
    "cleanview_id": 2196
  },
  {
    "name": "Caledonia Campus (Oak Creek)",
    "operator": "Microsoft",
    "type": "hyperscaler",
    "status": "Canceled",
    "mw": null,
    "investment": null,
    "county": "Racine",
    "state": "WI",
    "iso": null,
    "lat": 42.8388474,
    "lng": -87.8570466,
    "notes": null,
    "source": "cleanview",
    "cleanview_id": 1333
  },
  {
    "name": "Louisa County Campus 3",
    "operator": "AWS",
    "type": "hyperscaler",
    "status": "Canceled",
    "mw": null,
    "investment": null,
    "county": "Louisa",
    "state": "VA",
    "iso": null,
    "lat": 38.018072,
    "lng": -77.93566,
    "notes": null,
    "source": "cleanview",
    "cleanview_id": 1334
  },
  {
    "name": "Santa Clara SV Campus",
    "operator": "Microsoft",
    "type": "hyperscaler",
    "status": "operational",
    "mw": null,
    "investment": null,
    "county": "Santa Clara",
    "state": "CA",
    "iso": null,
    "lat": 37.38988,
    "lng": -121.96604,
    "notes": null,
    "source": "cleanview",
    "cleanview_id": 1341
  },
  {
    "name": "The Dalles Data Center",
    "operator": "Google",
    "type": "hyperscaler",
    "status": "operational",
    "mw": null,
    "investment": "$1,200,000,000",
    "county": "Wasco",
    "state": "OR",
    "iso": null,
    "lat": 45.63167,
    "lng": -121.20108,
    "notes": null,
    "source": "cleanview",
    "cleanview_id": 1344
  },
  {
    "name": "Quincy Columbia Campus",
    "operator": "Microsoft",
    "type": "hyperscaler",
    "status": "operational",
    "mw": null,
    "investment": null,
    "county": "Grant",
    "state": "WA",
    "iso": null,
    "lat": 47.239079,
    "lng": -119.859735,
    "notes": null,
    "source": "cleanview",
    "cleanview_id": 1345
  },
  {
    "name": "Tahoe-Reno Industrial Center Campus",
    "operator": "Google",
    "type": "hyperscaler",
    "status": "operational",
    "mw": null,
    "investment": "$600,000,000",
    "county": "Storey",
    "state": "NV",
    "iso": null,
    "lat": 39.501174,
    "lng": -119.430102,
    "notes": null,
    "source": "cleanview",
    "cleanview_id": 1346
  },
  {
    "name": "Amazon: PDX80",
    "operator": "AWS",
    "type": "hyperscaler",
    "status": "operational",
    "mw": null,
    "investment": null,
    "county": "Umatilla",
    "state": "OR",
    "iso": null,
    "lat": 45.80573574,
    "lng": -119.364416,
    "notes": null,
    "source": "cleanview",
    "cleanview_id": 1347
  },
  {
    "name": "Microsoft El Mirage Campus",
    "operator": "Microsoft",
    "type": "hyperscaler",
    "status": "operational",
    "mw": null,
    "investment": "$300,000,000",
    "county": "Maricopa",
    "state": "AZ",
    "iso": null,
    "lat": 33.56328,
    "lng": -112.33861,
    "notes": null,
    "source": "cleanview",
    "cleanview_id": 1348
  },
  {
    "name": "Eagle Mountain Data Center",
    "operator": "Meta",
    "type": "hyperscaler",
    "status": "operational",
    "mw": null,
    "investment": "$1,500,000,000",
    "county": "Utah",
    "state": "UT",
    "iso": null,
    "lat": 40.264863,
    "lng": -112.015144,
    "notes": null,
    "source": "cleanview",
    "cleanview_id": 1349
  },
  {
    "name": "Mesa Data Center",
    "operator": "Meta",
    "type": "hyperscaler",
    "status": "operational",
    "mw": null,
    "investment": "$1,000,000,000",
    "county": "Maricopa",
    "state": "AZ",
    "iso": null,
    "lat": 33.35488386,
    "lng": -111.6357585,
    "notes": null,
    "source": "cleanview",
    "cleanview_id": 1352
  },
  {
    "name": "Texas Research Park (SAT46)",
    "operator": "Microsoft",
    "type": "hyperscaler",
    "status": "operational",
    "mw": null,
    "investment": "$140,000,000",
    "county": "Bexar",
    "state": "TX",
    "iso": null,
    "lat": 29.415317,
    "lng": -98.803538,
    "notes": null,
    "source": "cleanview",
    "cleanview_id": 1355
  },
  {
    "name": "Westover Link campus (SAT15/SAT16)",
    "operator": "Microsoft",
    "type": "hyperscaler",
    "status": "operational",
    "mw": null,
    "investment": "$43,000,000",
    "county": "Bexar",
    "state": "TX",
    "iso": null,
    "lat": 29.469556,
    "lng": -98.70241059,
    "notes": null,
    "source": "cleanview",
    "cleanview_id": 1356
  },
  {
    "name": "Midlothian Campus",
    "operator": "Google",
    "type": "hyperscaler",
    "status": "operational",
    "mw": null,
    "investment": "$600,000,000",
    "county": "Ellis",
    "state": "TX",
    "iso": null,
    "lat": 32.442484,
    "lng": -97.062535,
    "notes": null,
    "source": "cleanview",
    "cleanview_id": 1359
  },
  {
    "name": "Sarpy Data Center (Papillion)",
    "operator": "Meta",
    "type": "hyperscaler",
    "status": "operational",
    "mw": null,
    "investment": "$1,500,000,000",
    "county": "Sarpy",
    "state": "NE",
    "iso": null,
    "lat": 41.12262,
    "lng": -96.144254,
    "notes": null,
    "source": "cleanview",
    "cleanview_id": 1369
  },
  {
    "name": "Omaha Campus - Phase 1",
    "operator": "Google",
    "type": "hyperscaler",
    "status": "operational",
    "mw": null,
    "investment": null,
    "county": "Douglas",
    "state": "NE",
    "iso": null,
    "lat": 41.337653,
    "lng": -96.086446,
    "notes": null,
    "source": "cleanview",
    "cleanview_id": 1370
  },
  {
    "name": "Pryor Creek Campus",
    "operator": "Google",
    "type": "hyperscaler",
    "status": "operational",
    "mw": null,
    "investment": null,
    "county": "Mayes",
    "state": "OK",
    "iso": null,
    "lat": 36.24083,
    "lng": -95.3301,
    "notes": null,
    "source": "cleanview",
    "cleanview_id": 1373
  },
  {
    "name": "Microsoft Project Mountain",
    "operator": "Microsoft",
    "type": "hyperscaler",
    "status": "operational",
    "mw": null,
    "investment": "$680,000,000",
    "county": "Polk",
    "state": "IA",
    "iso": null,
    "lat": 41.539602,
    "lng": -93.8273,
    "notes": null,
    "source": "cleanview",
    "cleanview_id": 1375
  },
  {
    "name": "Microsoft Project Alluvion",
    "operator": "Microsoft",
    "type": "hyperscaler",
    "status": "operational",
    "mw": null,
    "investment": "$1,200,000,000",
    "county": "Polk",
    "state": "IA",
    "iso": null,
    "lat": 41.51607,
    "lng": -93.708776,
    "notes": null,
    "source": "cleanview",
    "cleanview_id": 1376
  },
  {
    "name": "DeKalb Data Center",
    "operator": "Meta",
    "type": "hyperscaler",
    "status": "operational",
    "mw": null,
    "investment": "$1,000,000,000",
    "county": "DeKalb",
    "state": "IL",
    "iso": null,
    "lat": 41.8910937,
    "lng": -88.9067601,
    "notes": null,
    "source": "cleanview",
    "cleanview_id": 1378
  },
  {
    "name": "Clarksville Data Center",
    "operator": "Google",
    "type": "hyperscaler",
    "status": "operational",
    "mw": null,
    "investment": "$600,000,000",
    "county": "Montgomery",
    "state": "TN",
    "iso": null,
    "lat": 36.62207,
    "lng": -87.26264,
    "notes": null,
    "source": "cleanview",
    "cleanview_id": 1379
  },
  {
    "name": "Huntsville Data Center",
    "operator": "Meta",
    "type": "hyperscaler",
    "status": "operational",
    "mw": null,
    "investment": "$1,500,000,000",
    "county": "Madison",
    "state": "AL",
    "iso": null,
    "lat": 34.840817,
    "lng": -86.631483,
    "notes": null,
    "source": "cleanview",
    "cleanview_id": 1380
  },
  {
    "name": "Gallatin Data Center",
    "operator": "Meta",
    "type": "hyperscaler",
    "status": "operational",
    "mw": null,
    "investment": "$1,500,000,000",
    "county": "Sumner",
    "state": "TN",
    "iso": null,
    "lat": 36.410542,
    "lng": -86.369351,
    "notes": null,
    "source": "cleanview",
    "cleanview_id": 1381
  },
  {
    "name": "Jackson County Data Center",
    "operator": "Google",
    "type": "hyperscaler",
    "status": "operational",
    "mw": null,
    "investment": "$600,000,000",
    "county": "Jackson",
    "state": "AL",
    "iso": null,
    "lat": 34.913744,
    "lng": -85.747052,
    "notes": null,
    "source": "cleanview",
    "cleanview_id": 1382
  },
  {
    "name": "Douglas County Campus",
    "operator": "Google",
    "type": "hyperscaler",
    "status": "operational",
    "mw": null,
    "investment": "$300,000,000",
    "county": "Douglas",
    "state": "GA",
    "iso": null,
    "lat": 33.749445,
    "lng": -84.58465,
    "notes": null,
    "source": "cleanview",
    "cleanview_id": 1384
  },
  {
    "name": "Stanton Springs Data Center",
    "operator": "Meta",
    "type": "hyperscaler",
    "status": "operational",
    "mw": null,
    "investment": "$750,000,000",
    "county": "Newton",
    "state": "GA",
    "iso": null,
    "lat": 33.6007968,
    "lng": -83.6940463,
    "notes": null,
    "source": "cleanview",
    "cleanview_id": 1385
  },
  {
    "name": "Columbus Data Center - Phase 1",
    "operator": "Google",
    "type": "hyperscaler",
    "status": "operational",
    "mw": null,
    "investment": null,
    "county": "Licking",
    "state": "OH",
    "iso": null,
    "lat": 39.851617,
    "lng": -83.0011236,
    "notes": null,
    "source": "cleanview",
    "cleanview_id": 1386
  },
  {
    "name": "New Albany Data Center - Phase 1",
    "operator": "Google",
    "type": "hyperscaler",
    "status": "operational",
    "mw": null,
    "investment": "$600,000,000",
    "county": "Licking",
    "state": "OH",
    "iso": null,
    "lat": 40.0592147,
    "lng": -82.766047,
    "notes": null,
    "source": "cleanview",
    "cleanview_id": 1388
  },
  {
    "name": "New Albany Data Center - Phase 1",
    "operator": "Meta",
    "type": "hyperscaler",
    "status": "operational",
    "mw": null,
    "investment": "$1,500,000,000",
    "county": "Licking",
    "state": "OH",
    "iso": null,
    "lat": 40.067538,
    "lng": -82.75073354,
    "notes": null,
    "source": "cleanview",
    "cleanview_id": 1389
  },
  {
    "name": "New Albany Data Center - Phase 3",
    "operator": "Meta",
    "type": "hyperscaler",
    "status": "operational",
    "mw": null,
    "investment": "$1,500,000,000",
    "county": "Licking",
    "state": "OH",
    "iso": null,
    "lat": 40.067538,
    "lng": -82.75073354,
    "notes": null,
    "source": "cleanview",
    "cleanview_id": 1390
  },
  {
    "name": "New Albany Data Center - Phase 2",
    "operator": "Meta",
    "type": "hyperscaler",
    "status": "operational",
    "mw": null,
    "investment": "$1,500,000,000",
    "county": "Licking",
    "state": "OH",
    "iso": null,
    "lat": 40.067538,
    "lng": -82.75073354,
    "notes": null,
    "source": "cleanview",
    "cleanview_id": 1391
  },
  {
    "name": "Lancaster Data Center - Phase 1",
    "operator": "Google",
    "type": "hyperscaler",
    "status": "operational",
    "mw": null,
    "investment": null,
    "county": "Fairfield",
    "state": "OH",
    "iso": null,
    "lat": 39.7252942,
    "lng": -82.6867036,
    "notes": null,
    "source": "cleanview",
    "cleanview_id": 1392
  },
  {
    "name": "Lenoir Data Center",
    "operator": "Google",
    "type": "hyperscaler",
    "status": "operational",
    "mw": null,
    "investment": "$600,000,000",
    "county": "Caldwell",
    "state": "NC",
    "iso": null,
    "lat": 35.8922,
    "lng": -81.54686,
    "notes": null,
    "source": "cleanview",
    "cleanview_id": 1396
  },
  {
    "name": "Berkeley County (Moncks Corner) Campus",
    "operator": "Google",
    "type": "hyperscaler",
    "status": "operational",
    "mw": null,
    "investment": null,
    "county": "Berkeley",
    "state": "SC",
    "iso": null,
    "lat": 33.064464,
    "lng": -80.045867,
    "notes": null,
    "source": "cleanview",
    "cleanview_id": 1399
  },
  {
    "name": "Boydton Campus",
    "operator": "Microsoft",
    "type": "hyperscaler",
    "status": "operational",
    "mw": null,
    "investment": "$1,700,000,000",
    "county": "Mecklenburg",
    "state": "VA",
    "iso": null,
    "lat": 36.660047,
    "lng": -78.365035,
    "notes": null,
    "source": "cleanview",
    "cleanview_id": 1401
  },
  {
    "name": "DC 11 DE LLC (Amazon)",
    "operator": "AWS",
    "type": "hyperscaler",
    "status": "operational",
    "mw": null,
    "investment": null,
    "county": "Prince William",
    "state": "VA",
    "iso": null,
    "lat": 38.81517405,
    "lng": -77.64867969,
    "notes": null,
    "source": "cleanview",
    "cleanview_id": 1406
  },
  {
    "name": "24244 QUAIL RIDGE LN",
    "operator": "AWS",
    "type": "hyperscaler",
    "status": "operational",
    "mw": null,
    "investment": null,
    "county": "Loudoun",
    "state": "VA",
    "iso": null,
    "lat": 38.94905003,
    "lng": -77.56043618,
    "notes": null,
    "source": "cleanview",
    "cleanview_id": 1412
  },
  {
    "name": "Quail Ridge C - D",
    "operator": "AWS",
    "type": "hyperscaler",
    "status": "operational",
    "mw": null,
    "investment": null,
    "county": "Loudoun",
    "state": "VA",
    "iso": null,
    "lat": 38.94839095,
    "lng": -77.55883643,
    "notes": null,
    "source": "cleanview",
    "cleanview_id": 1413
  },
  {
    "name": "DC 12 14 DE LLC (Amazon)",
    "operator": "AWS",
    "type": "hyperscaler",
    "status": "operational",
    "mw": null,
    "investment": null,
    "county": "Prince William",
    "state": "VA",
    "iso": null,
    "lat": 38.77810604,
    "lng": -77.55823182,
    "notes": null,
    "source": "cleanview",
    "cleanview_id": 1414
  },
  {
    "name": "GI TC 7510 MASON KING CT LLC (Amazon)",
    "operator": "AWS",
    "type": "hyperscaler",
    "status": "operational",
    "mw": null,
    "investment": null,
    "county": "Prince William",
    "state": "VA",
    "iso": null,
    "lat": 38.7903438,
    "lng": -77.54118715,
    "notes": null,
    "source": "cleanview",
    "cleanview_id": 1416
  },
  {
    "name": "MANASSAS TECHNOLOGY PARTNERS LLC (Amazon)",
    "operator": "AWS",
    "type": "hyperscaler",
    "status": "operational",
    "mw": null,
    "investment": null,
    "county": "Prince William",
    "state": "VA",
    "iso": null,
    "lat": 38.79125396,
    "lng": -77.53829389,
    "notes": null,
    "source": "cleanview",
    "cleanview_id": 1418
  },
  {
    "name": "Thomasson Barn Rd. Campus",
    "operator": "AWS",
    "type": "hyperscaler",
    "status": "operational",
    "mw": null,
    "investment": null,
    "county": "Prince William",
    "state": "VA",
    "iso": null,
    "lat": 38.74384399,
    "lng": -77.53051372,
    "notes": null,
    "source": "cleanview",
    "cleanview_id": 1421
  },
  {
    "name": "Fadeley Campus",
    "operator": "AWS",
    "type": "hyperscaler",
    "status": "operational",
    "mw": null,
    "investment": null,
    "county": "Loudoun",
    "state": "VA",
    "iso": null,
    "lat": 38.94895567,
    "lng": -77.52147554,
    "notes": null,
    "source": "cleanview",
    "cleanview_id": 1424
  },
  {
    "name": "Innovation Drive (IAD\u00e2\u20ac\u2018104/105/106 cluster)",
    "operator": "AWS",
    "type": "hyperscaler",
    "status": "operational",
    "mw": null,
    "investment": null,
    "county": "Prince William",
    "state": "VA",
    "iso": null,
    "lat": 38.74709426,
    "lng": -77.52027103,
    "notes": null,
    "source": "cleanview",
    "cleanview_id": 1425
  },
  {
    "name": "Freedom Center Blvd. / Hornbaker corridor",
    "operator": "AWS",
    "type": "hyperscaler",
    "status": "operational",
    "mw": null,
    "investment": null,
    "county": "Prince William",
    "state": "VA",
    "iso": null,
    "lat": 38.760572,
    "lng": -77.518589,
    "notes": null,
    "source": "cleanview",
    "cleanview_id": 1427
  },
  {
    "name": "Tanner Way campus (IAD\u00e2\u20ac\u2018101/102/103/100)",
    "operator": "AWS",
    "type": "hyperscaler",
    "status": "operational",
    "mw": null,
    "investment": null,
    "county": "Prince William",
    "state": "VA",
    "iso": null,
    "lat": 38.73493005,
    "lng": -77.50674204,
    "notes": null,
    "source": "cleanview",
    "cleanview_id": 1432
  },
  {
    "name": "IAD 18 AMAZON",
    "operator": "AWS",
    "type": "hyperscaler",
    "status": "operational",
    "mw": null,
    "investment": null,
    "county": "Loudoun",
    "state": "VA",
    "iso": null,
    "lat": 38.91918936,
    "lng": -77.49497537,
    "notes": null,
    "source": "cleanview",
    "cleanview_id": 1438
  },
  {
    "name": "AWS IAD61-IAD63 South Riding",
    "operator": "AWS",
    "type": "hyperscaler",
    "status": "operational",
    "mw": null,
    "investment": null,
    "county": "Loudoun",
    "state": "VA",
    "iso": null,
    "lat": 38.91676919,
    "lng": -77.49379612,
    "notes": null,
    "source": "cleanview",
    "cleanview_id": 1440
  },
  {
    "name": "AWS H&M Property",
    "operator": "AWS",
    "type": "hyperscaler",
    "status": "operational",
    "mw": null,
    "investment": null,
    "county": "Loudoun",
    "state": "VA",
    "iso": null,
    "lat": 38.92173048,
    "lng": -77.48288047,
    "notes": null,
    "source": "cleanview",
    "cleanview_id": 1446
  },
  {
    "name": "Sutton Bay",
    "operator": "AWS",
    "type": "hyperscaler",
    "status": "operational",
    "mw": null,
    "investment": null,
    "county": "Loudoun",
    "state": "VA",
    "iso": null,
    "lat": 38.91631015,
    "lng": -77.47834197,
    "notes": null,
    "source": "cleanview",
    "cleanview_id": 1452
  },
  {
    "name": "AWS Westfax A",
    "operator": "AWS",
    "type": "hyperscaler",
    "status": "operational",
    "mw": null,
    "investment": null,
    "county": "Fairfax",
    "state": "VA",
    "iso": null,
    "lat": 38.89798901,
    "lng": -77.45402906,
    "notes": null,
    "source": "cleanview",
    "cleanview_id": 1478
  },
  {
    "name": "Amazon Web Services Mallory",
    "operator": "AWS",
    "type": "hyperscaler",
    "status": "operational",
    "mw": null,
    "investment": null,
    "county": "Fairfax",
    "state": "VA",
    "iso": null,
    "lat": 38.90492701,
    "lng": -77.45381063,
    "notes": null,
    "source": "cleanview",
    "cleanview_id": 1479
  },
  {
    "name": "AWS Westfax B",
    "operator": "AWS",
    "type": "hyperscaler",
    "status": "operational",
    "mw": null,
    "investment": null,
    "county": "Fairfax",
    "state": "VA",
    "iso": null,
    "lat": 38.89959217,
    "lng": -77.45343897,
    "notes": null,
    "source": "cleanview",
    "cleanview_id": 1481
  },
  {
    "name": "21641 CHARLES VIEW DR",
    "operator": "AWS",
    "type": "hyperscaler",
    "status": "operational",
    "mw": null,
    "investment": null,
    "county": "Loudoun",
    "state": "VA",
    "iso": null,
    "lat": 39.0179646,
    "lng": -77.43968178,
    "notes": null,
    "source": "cleanview",
    "cleanview_id": 1502
  },
  {
    "name": "22370 KIPPER DR AWS",
    "operator": "AWS",
    "type": "hyperscaler",
    "status": "operational",
    "mw": null,
    "investment": null,
    "county": "Loudoun",
    "state": "VA",
    "iso": null,
    "lat": 38.99696471,
    "lng": -77.43580741,
    "notes": null,
    "source": "cleanview",
    "cleanview_id": 1506
  },
  {
    "name": "22350 KIPPER DR AWS",
    "operator": "AWS",
    "type": "hyperscaler",
    "status": "operational",
    "mw": null,
    "investment": null,
    "county": "Loudoun",
    "state": "VA",
    "iso": null,
    "lat": 38.99508858,
    "lng": -77.43511004,
    "notes": null,
    "source": "cleanview",
    "cleanview_id": 1507
  },
  {
    "name": "22945 INTERNATIONAL DR AWS",
    "operator": "AWS",
    "type": "hyperscaler",
    "status": "operational",
    "mw": null,
    "investment": null,
    "county": "Loudoun",
    "state": "VA",
    "iso": null,
    "lat": 38.98215669,
    "lng": -77.42751353,
    "notes": null,
    "source": "cleanview",
    "cleanview_id": 1515
  },
  {
    "name": "Perspecta Datacenter Campus",
    "operator": "AWS",
    "type": "hyperscaler",
    "status": "operational",
    "mw": null,
    "investment": null,
    "county": "Fairfax",
    "state": "VA",
    "iso": null,
    "lat": 38.92334599,
    "lng": -77.42683496,
    "notes": null,
    "source": "cleanview",
    "cleanview_id": 1516
  },
  {
    "name": "MARIES TECH PARK LLC",
    "operator": "AWS",
    "type": "hyperscaler",
    "status": "operational",
    "mw": null,
    "investment": null,
    "county": "Loudoun",
    "state": "VA",
    "iso": null,
    "lat": 39.02399856,
    "lng": -77.41950271,
    "notes": null,
    "source": "cleanview",
    "cleanview_id": 1520
  },
  {
    "name": "6200 Technology Blvd",
    "operator": "Meta",
    "type": "hyperscaler",
    "status": "operational",
    "mw": null,
    "investment": null,
    "county": "Henrico",
    "state": "VA",
    "iso": null,
    "lat": 37.48184863,
    "lng": -77.23646395,
    "notes": null,
    "source": "cleanview",
    "cleanview_id": 1537
  },
  {
    "name": "701 Technology Blvd",
    "operator": "Meta",
    "type": "hyperscaler",
    "status": "operational",
    "mw": null,
    "investment": null,
    "county": "Henrico",
    "state": "VA",
    "iso": null,
    "lat": 37.47831145,
    "lng": -77.22688023,
    "notes": null,
    "source": "cleanview",
    "cleanview_id": 1538
  },
  {
    "name": "Kuna Data Center",
    "operator": "Meta",
    "type": "hyperscaler",
    "status": "announced",
    "mw": null,
    "investment": "$800,000,000",
    "county": "Ada",
    "state": "ID",
    "iso": null,
    "lat": 43.4593878,
    "lng": -116.2657698,
    "notes": null,
    "source": "cleanview",
    "cleanview_id": 1571
  },
  {
    "name": "Cheyenne Data Center",
    "operator": "Meta",
    "type": "hyperscaler",
    "status": "announced",
    "mw": null,
    "investment": "$800,000,000",
    "county": "Laramie",
    "state": "WY",
    "iso": null,
    "lat": 41.091349,
    "lng": -104.819811,
    "notes": null,
    "source": "cleanview",
    "cleanview_id": 1582
  },
  {
    "name": "SAT 81 Data Center",
    "operator": "Microsoft",
    "type": "hyperscaler",
    "status": "announced",
    "mw": null,
    "investment": "$95,000,000",
    "county": "Medina",
    "state": "TX",
    "iso": null,
    "lat": 29.43095535,
    "lng": -98.88349967,
    "notes": null,
    "source": "cleanview",
    "cleanview_id": 1585
  },
  {
    "name": "SAT40 Data Center",
    "operator": "Microsoft",
    "type": "hyperscaler",
    "status": "announced",
    "mw": null,
    "investment": "$175,900,000",
    "county": "Bexar",
    "state": "TX",
    "iso": null,
    "lat": 29.41413971,
    "lng": -98.80330798,
    "notes": null,
    "source": "cleanview",
    "cleanview_id": 1587
  },
  {
    "name": "Wiseman Boulevard campus (SAT14 cluster)",
    "operator": "Microsoft",
    "type": "hyperscaler",
    "status": "announced",
    "mw": null,
    "investment": "$200,000,000",
    "county": "Bexar",
    "state": "TX",
    "iso": null,
    "lat": 29.475748,
    "lng": -98.681972,
    "notes": null,
    "source": "cleanview",
    "cleanview_id": 1588
  },
  {
    "name": "Castroville Hwy 90 campus (SAT89 & SAT90)",
    "operator": "Microsoft",
    "type": "hyperscaler",
    "status": "announced",
    "mw": null,
    "investment": "$765,000,000",
    "county": "Medina",
    "state": "TX",
    "iso": null,
    "lat": 29.35125981,
    "lng": -98.94010706,
    "notes": null,
    "source": "cleanview",
    "cleanview_id": 1584
  },
  {
    "name": "Sharka Data Center - Building 4",
    "operator": "Google",
    "type": "hyperscaler",
    "status": "announced",
    "mw": null,
    "investment": "$350,000,000",
    "county": "Ellis",
    "state": "TX",
    "iso": null,
    "lat": 32.44422244,
    "lng": -97.05548583,
    "notes": null,
    "source": "cleanview",
    "cleanview_id": 1598
  },
  {
    "name": "Google Stillwater",
    "operator": "Google",
    "type": "hyperscaler",
    "status": "announced",
    "mw": null,
    "investment": "$3,000,000,000",
    "county": "Payne",
    "state": "OK",
    "iso": null,
    "lat": 36.16901008,
    "lng": -97.04698669,
    "notes": null,
    "source": "cleanview",
    "cleanview_id": 1599
  },
  {
    "name": "Red Oak Campus",
    "operator": "Google",
    "type": "hyperscaler",
    "status": "announced",
    "mw": null,
    "investment": "$330,000,000",
    "county": "Ellis",
    "state": "TX",
    "iso": null,
    "lat": 32.537209,
    "lng": -96.796473,
    "notes": null,
    "source": "cleanview",
    "cleanview_id": 1602
  },
  {
    "name": "Lincoln Hyperscale Campus - Phase 2",
    "operator": "Google",
    "type": "hyperscaler",
    "status": "announced",
    "mw": null,
    "investment": null,
    "county": "Lancaster",
    "state": "NE",
    "iso": null,
    "lat": 40.903746,
    "lng": -96.653449,
    "notes": null,
    "source": "cleanview",
    "cleanview_id": 1609
  },
  {
    "name": "Lincoln Hyperscale Campus - Phase 1",
    "operator": "Google",
    "type": "hyperscaler",
    "status": "announced",
    "mw": null,
    "investment": null,
    "county": "Lancaster",
    "state": "NE",
    "iso": null,
    "lat": 40.903746,
    "lng": -96.653449,
    "notes": null,
    "source": "cleanview",
    "cleanview_id": 1610
  },
  {
    "name": "Omaha Campus - Phase 2",
    "operator": "Google",
    "type": "hyperscaler",
    "status": "announced",
    "mw": null,
    "investment": null,
    "county": "Douglas",
    "state": "NE",
    "iso": null,
    "lat": 41.337653,
    "lng": -96.086446,
    "notes": null,
    "source": "cleanview",
    "cleanview_id": 1613
  },
  {
    "name": "Kenosha Campus",
    "operator": "Microsoft",
    "type": "hyperscaler",
    "status": "announced",
    "mw": null,
    "investment": null,
    "county": "Kenosha",
    "state": "WI",
    "iso": null,
    "lat": 42.62208241,
    "lng": -87.96445412,
    "notes": null,
    "source": "cleanview",
    "cleanview_id": 1626
  },
  {
    "name": "Montgomery Data Center",
    "operator": "Meta",
    "type": "hyperscaler",
    "status": "announced",
    "mw": null,
    "investment": "$1,500,000,000",
    "county": "Montgomery",
    "state": "AL",
    "iso": null,
    "lat": 32.379581,
    "lng": -86.307571,
    "notes": null,
    "source": "cleanview",
    "cleanview_id": 1637
  },
  {
    "name": "Project Flo",
    "operator": "Google",
    "type": "hyperscaler",
    "status": "announced",
    "mw": null,
    "investment": null,
    "county": "Marion",
    "state": "IN",
    "iso": null,
    "lat": 39.71610527,
    "lng": -86.00263855,
    "notes": null,
    "source": "cleanview",
    "cleanview_id": 1638
  },
  {
    "name": "Palmetto Data Center",
    "operator": "Microsoft",
    "type": "hyperscaler",
    "status": "announced",
    "mw": null,
    "investment": "$420,000,000",
    "county": "Fulton",
    "state": "GA",
    "iso": null,
    "lat": 33.524896,
    "lng": -84.627964,
    "notes": null,
    "source": "cleanview",
    "cleanview_id": 1651
  },
  {
    "name": "Douglasville Data Center",
    "operator": "Microsoft",
    "type": "hyperscaler",
    "status": "announced",
    "mw": null,
    "investment": "$1,800,000,000",
    "county": "Douglas",
    "state": "GA",
    "iso": null,
    "lat": 33.73204,
    "lng": -84.620644,
    "notes": null,
    "source": "cleanview",
    "cleanview_id": 1653
  },
  {
    "name": "East Point Data Center",
    "operator": "Microsoft",
    "type": "hyperscaler",
    "status": "announced",
    "mw": null,
    "investment": null,
    "county": "Fulton",
    "state": "GA",
    "iso": null,
    "lat": 33.642516,
    "lng": -84.515574,
    "notes": null,
    "source": "cleanview",
    "cleanview_id": 1661
  },
  {
    "name": "Bowling Green Data Center",
    "operator": "Meta",
    "type": "hyperscaler",
    "status": "announced",
    "mw": null,
    "investment": "$800,000,000",
    "county": "Wood",
    "state": "OH",
    "iso": null,
    "lat": 41.466331,
    "lng": -83.635195,
    "notes": null,
    "source": "cleanview",
    "cleanview_id": 1677
  },
  {
    "name": "Columbus Data Center - Phase 2",
    "operator": "Google",
    "type": "hyperscaler",
    "status": "announced",
    "mw": null,
    "investment": null,
    "county": "Licking",
    "state": "OH",
    "iso": null,
    "lat": 39.851617,
    "lng": -83.0011236,
    "notes": null,
    "source": "cleanview",
    "cleanview_id": 1680
  },
  {
    "name": "New Albany Data Center - Phase 5",
    "operator": "Meta",
    "type": "hyperscaler",
    "status": "announced",
    "mw": null,
    "investment": "$1,500,000,000",
    "county": "Licking",
    "state": "OH",
    "iso": null,
    "lat": 40.067538,
    "lng": -82.75073354,
    "notes": null,
    "source": "cleanview",
    "cleanview_id": 1685
  },
  {
    "name": "New Albany Data Center - Phase 3",
    "operator": "Google",
    "type": "hyperscaler",
    "status": "announced",
    "mw": null,
    "investment": null,
    "county": "Licking",
    "state": "OH",
    "iso": null,
    "lat": 40.0936111,
    "lng": -82.7370193,
    "notes": null,
    "source": "cleanview",
    "cleanview_id": 1686
  },
  {
    "name": "Aiken Data Center",
    "operator": "Meta",
    "type": "hyperscaler",
    "status": "announced",
    "mw": null,
    "investment": "$800,000,000",
    "county": "Aiken",
    "state": "SC",
    "iso": null,
    "lat": 33.6286,
    "lng": -81.837769,
    "notes": null,
    "source": "cleanview",
    "cleanview_id": 1692
  },
  {
    "name": "Dorchester County Google Center",
    "operator": "Google",
    "type": "hyperscaler",
    "status": "announced",
    "mw": null,
    "investment": "$510,000,000",
    "county": "Dorchester",
    "state": "SC",
    "iso": null,
    "lat": 32.957292,
    "lng": -80.309435,
    "notes": null,
    "source": "cleanview",
    "cleanview_id": 1695
  },
  {
    "name": "Greenfield",
    "operator": "Google",
    "type": "hyperscaler",
    "status": "announced",
    "mw": null,
    "investment": null,
    "county": "Botetourt",
    "state": "VA",
    "iso": null,
    "lat": 37.441695,
    "lng": -79.912694,
    "notes": null,
    "source": "cleanview",
    "cleanview_id": 1696
  },
  {
    "name": "AWS Sunbury",
    "operator": "AWS",
    "type": "hyperscaler",
    "status": "announced",
    "mw": null,
    "investment": "$2,000,000,000",
    "county": "Delaware",
    "state": "OH",
    "iso": null,
    "lat": 40.21850348,
    "lng": -82.84701945,
    "notes": null,
    "source": "cleanview",
    "cleanview_id": 1681
  },
  {
    "name": "New Albany Data Center - Phase 2",
    "operator": "Google",
    "type": "hyperscaler",
    "status": "announced",
    "mw": null,
    "investment": "$1,000,000,000",
    "county": "Licking",
    "state": "OH",
    "iso": null,
    "lat": 40.0592147,
    "lng": -82.766047,
    "notes": null,
    "source": "cleanview",
    "cleanview_id": 1683
  },
  {
    "name": "Lakeside Commerce Park",
    "operator": "Microsoft",
    "type": "hyperscaler",
    "status": "announced",
    "mw": null,
    "investment": null,
    "county": "Mecklenburg",
    "state": "VA",
    "iso": null,
    "lat": 36.631443,
    "lng": -78.516707,
    "notes": null,
    "source": "cleanview",
    "cleanview_id": 1698
  },
  {
    "name": "Skipwith Road Campus: LYH03",
    "operator": "Microsoft",
    "type": "hyperscaler",
    "status": "announced",
    "mw": null,
    "investment": null,
    "county": "Mecklenburg",
    "state": "VA",
    "iso": null,
    "lat": 36.631443,
    "lng": -78.516707,
    "notes": null,
    "source": "cleanview",
    "cleanview_id": 1699
  },
  {
    "name": "Ridge Road Campus",
    "operator": "Microsoft",
    "type": "hyperscaler",
    "status": "announced",
    "mw": null,
    "investment": null,
    "county": "Mecklenburg",
    "state": "VA",
    "iso": null,
    "lat": 36.692368,
    "lng": -78.36617,
    "notes": null,
    "source": "cleanview",
    "cleanview_id": 1701
  },
  {
    "name": "Marvell Development Data Center",
    "operator": "AWS",
    "type": "hyperscaler",
    "status": "announced",
    "mw": null,
    "investment": null,
    "county": "Culpeper",
    "state": "VA",
    "iso": null,
    "lat": 38.440405,
    "lng": -77.882541,
    "notes": null,
    "source": "cleanview",
    "cleanview_id": 1710
  },
  {
    "name": "Lake Anna Tech Campus",
    "operator": "AWS",
    "type": "hyperscaler",
    "status": "announced",
    "mw": null,
    "investment": "$11,000,000,000",
    "county": "Louisa",
    "state": "VA",
    "iso": null,
    "lat": 38.04825038,
    "lng": -77.80991453,
    "notes": null,
    "source": "cleanview",
    "cleanview_id": 1711
  },
  {
    "name": "Warrenton Amazon Data Center",
    "operator": "AWS",
    "type": "hyperscaler",
    "status": "announced",
    "mw": null,
    "investment": "$55,000,000",
    "county": "Fauquier",
    "state": "VA",
    "iso": null,
    "lat": 38.72947429,
    "lng": -77.7875309,
    "notes": null,
    "source": "cleanview",
    "cleanview_id": 1714
  },
  {
    "name": "Gainsville Campus",
    "operator": "AWS",
    "type": "hyperscaler",
    "status": "announced",
    "mw": null,
    "investment": null,
    "county": "Prince William",
    "state": "VA",
    "iso": null,
    "lat": 38.7903556,
    "lng": -77.5813892,
    "notes": null,
    "source": "cleanview",
    "cleanview_id": 1732
  },
  {
    "name": "Bristow Campus",
    "operator": "Microsoft",
    "type": "hyperscaler",
    "status": "announced",
    "mw": null,
    "investment": null,
    "county": "Prince William",
    "state": "VA",
    "iso": null,
    "lat": 38.77146994,
    "lng": -77.57530727,
    "notes": null,
    "source": "cleanview",
    "cleanview_id": 1736
  },
  {
    "name": "IAD11 and IAD12",
    "operator": "Microsoft",
    "type": "hyperscaler",
    "status": "announced",
    "mw": null,
    "investment": "$400,000,000",
    "county": "Loudoun",
    "state": "VA",
    "iso": null,
    "lat": 38.947911,
    "lng": -77.5602869,
    "notes": null,
    "source": "cleanview",
    "cleanview_id": 1742
  },
  {
    "name": "42139 REEDS FARM LN",
    "operator": "AWS",
    "type": "hyperscaler",
    "status": "announced",
    "mw": null,
    "investment": null,
    "county": "Loudoun",
    "state": "VA",
    "iso": null,
    "lat": 38.94492708,
    "lng": -77.54986629,
    "notes": null,
    "source": "cleanview",
    "cleanview_id": 1745
  },
  {
    "name": "Leesburg Gateway",
    "operator": "Google",
    "type": "hyperscaler",
    "status": "announced",
    "mw": null,
    "investment": null,
    "county": "Loudoun",
    "state": "VA",
    "iso": null,
    "lat": 39.10315177,
    "lng": -77.5363821,
    "notes": null,
    "source": "cleanview",
    "cleanview_id": 1750
  },
  {
    "name": "University Blvd. Campus",
    "operator": "Microsoft",
    "type": "hyperscaler",
    "status": "announced",
    "mw": null,
    "investment": null,
    "county": "Prince William",
    "state": "VA",
    "iso": null,
    "lat": 38.79567725,
    "lng": -77.53462257,
    "notes": null,
    "source": "cleanview",
    "cleanview_id": 1751
  },
  {
    "name": "Northwoods Property",
    "operator": "AWS",
    "type": "hyperscaler",
    "status": "announced",
    "mw": null,
    "investment": null,
    "county": "Loudoun",
    "state": "VA",
    "iso": null,
    "lat": 38.9802823,
    "lng": -77.49444868,
    "notes": null,
    "source": "cleanview",
    "cleanview_id": 1775
  },
  {
    "name": "AWS H&M Property",
    "operator": "AWS",
    "type": "hyperscaler",
    "status": "announced",
    "mw": null,
    "investment": null,
    "county": "Loudoun",
    "state": "VA",
    "iso": null,
    "lat": 38.92173048,
    "lng": -77.48288047,
    "notes": null,
    "source": "cleanview",
    "cleanview_id": 1778
  },
  {
    "name": "Carter's Store Tech Campus",
    "operator": "AWS",
    "type": "hyperscaler",
    "status": "announced",
    "mw": null,
    "investment": "$1,000,000,000",
    "county": "Spotsylvania",
    "state": "VA",
    "iso": null,
    "lat": 38.18951163,
    "lng": -77.45480833,
    "notes": null,
    "source": "cleanview",
    "cleanview_id": 1789
  },
  {
    "name": "AVION DATA CENTER",
    "operator": "AWS",
    "type": "hyperscaler",
    "status": "announced",
    "mw": null,
    "investment": null,
    "county": "Fairfax",
    "state": "VA",
    "iso": null,
    "lat": 38.90454295,
    "lng": -77.45267338,
    "notes": null,
    "source": "cleanview",
    "cleanview_id": 1791
  },
  {
    "name": "Parsons Business Park (Dumfries Rd.)",
    "operator": "AWS",
    "type": "hyperscaler",
    "status": "announced",
    "mw": null,
    "investment": null,
    "county": "Prince William",
    "state": "VA",
    "iso": null,
    "lat": 38.64540665,
    "lng": -77.44198652,
    "notes": null,
    "source": "cleanview",
    "cleanview_id": 1801
  },
  {
    "name": "Summit Crossing Tech Campus",
    "operator": "AWS",
    "type": "hyperscaler",
    "status": "announced",
    "mw": null,
    "investment": "$1,000,000,000",
    "county": "Spotsylvania",
    "state": "VA",
    "iso": null,
    "lat": 38.18847143,
    "lng": -77.44053219,
    "notes": null,
    "source": "cleanview",
    "cleanview_id": 1804
  },
  {
    "name": "Perspecta Datacenter Campus",
    "operator": "AWS",
    "type": "hyperscaler",
    "status": "announced",
    "mw": null,
    "investment": null,
    "county": "Fairfax",
    "state": "VA",
    "iso": null,
    "lat": 38.92334599,
    "lng": -77.42683496,
    "notes": null,
    "source": "cleanview",
    "cleanview_id": 1812
  },
  {
    "name": "Renaissance Technology Park",
    "operator": "AWS",
    "type": "hyperscaler",
    "status": "announced",
    "mw": null,
    "investment": null,
    "county": "Fairfax",
    "state": "VA",
    "iso": null,
    "lat": 38.93528768,
    "lng": -77.4253492,
    "notes": null,
    "source": "cleanview",
    "cleanview_id": 1813
  },
  {
    "name": "Amazon: Hobart Expansion",
    "operator": "AWS",
    "type": "hyperscaler",
    "status": "planned",
    "mw": 2350,
    "investment": null,
    "county": "Lake County",
    "state": "IN",
    "iso": "MISO",
    "lat": 41.503693,
    "lng": -87.291457,
    "notes": null,
    "source": "baxtel",
    "baxtel_slug": "amazon-hobart-expansion"
  },
  {
    "name": "Devlin Technology Expansion",
    "operator": "AWS",
    "type": "hyperscaler",
    "status": "planned",
    "mw": 900,
    "investment": null,
    "county": "Prince William County",
    "state": "VA",
    "iso": "PJM",
    "lat": 38.765329,
    "lng": -77.575492,
    "notes": null,
    "source": "baxtel",
    "baxtel_slug": "devlin-technology-expansion"
  },
  {
    "name": "Amazon: King George, VA",
    "operator": "AWS",
    "type": "hyperscaler",
    "status": "in doubt",
    "mw": 900,
    "investment": null,
    "county": "King George County",
    "state": "VA",
    "iso": "PJM",
    "lat": 38.26463,
    "lng": -77.312309,
    "notes": null,
    "source": "baxtel",
    "baxtel_slug": "amazon-king-george-va"
  },
  {
    "name": "Amazon: Blanchard Campus",
    "operator": "AWS",
    "type": "hyperscaler",
    "status": "land_bank",
    "mw": 750,
    "investment": null,
    "county": "Caddo Parish",
    "state": "LA",
    "iso": "MISO",
    "lat": 32.616052,
    "lng": -94.032121,
    "notes": null,
    "source": "baxtel",
    "baxtel_slug": "amazon-blanchard-campus"
  },
  {
    "name": "Amazon: Mattameade Expansion",
    "operator": "AWS",
    "type": "hyperscaler",
    "status": "planned",
    "mw": 700,
    "investment": null,
    "county": "Caroline County",
    "state": "VA",
    "iso": "PJM",
    "lat": 38.107612,
    "lng": -77.491562,
    "notes": null,
    "source": "baxtel",
    "baxtel_slug": "amazon-mattameade-expansion"
  },
  {
    "name": "Amazon: Wilderness Expansion",
    "operator": "AWS",
    "type": "hyperscaler",
    "status": "planned",
    "mw": 550,
    "investment": null,
    "county": "Orange County",
    "state": "VA",
    "iso": "PJM",
    "lat": 38.333007,
    "lng": -77.72712,
    "notes": null,
    "source": "baxtel",
    "baxtel_slug": "amazon-wilderness-expansion"
  },
  {
    "name": "Amazon: Wilmington, OH",
    "operator": "AWS",
    "type": "hyperscaler",
    "status": "in doubt",
    "mw": 450,
    "investment": null,
    "county": "Greene County",
    "state": "OH",
    "iso": "PJM",
    "lat": 39.638159,
    "lng": -83.89618,
    "notes": null,
    "source": "baxtel",
    "baxtel_slug": "amazon-wilmington-oh"
  },
  {
    "name": "Amazon: Northeast Creek Expansion",
    "operator": "AWS",
    "type": "hyperscaler",
    "status": "planned",
    "mw": 450,
    "investment": null,
    "county": "Louisa County",
    "state": "VA",
    "iso": "PJM",
    "lat": 37.983713,
    "lng": -77.956708,
    "notes": null,
    "source": "baxtel",
    "baxtel_slug": "amazon-northeast-creek-expansion"
  },
  {
    "name": "AWS: Costas Expansion",
    "operator": "AWS",
    "type": "hyperscaler",
    "status": "planned",
    "mw": 350,
    "investment": null,
    "county": "Madison County",
    "state": "MS",
    "iso": "MISO",
    "lat": 32.404382,
    "lng": -90.164661,
    "notes": null,
    "source": "baxtel",
    "baxtel_slug": "aws-costas-expansion"
  },
  {
    "name": "Desper Creek Expansion",
    "operator": "AWS",
    "type": "hyperscaler",
    "status": "land_bank",
    "mw": 350,
    "investment": null,
    "county": "Louisa County",
    "state": "VA",
    "iso": "PJM",
    "lat": 37.971617,
    "lng": -77.955911,
    "notes": null,
    "source": "baxtel",
    "baxtel_slug": "desper-creek-expansion"
  },
  {
    "name": "Amazon: Cosner Tech(Phase 2)",
    "operator": "AWS",
    "type": "hyperscaler",
    "status": "planned",
    "mw": 330,
    "investment": null,
    "county": "Spotsylvania County",
    "state": "VA",
    "iso": "PJM",
    "lat": 38.207141,
    "lng": -77.478667,
    "notes": null,
    "source": "baxtel",
    "baxtel_slug": "amazon-cosner-techphase-2"
  },
  {
    "name": "Amazon: Carter's Store Tech Campus",
    "operator": "AWS",
    "type": "hyperscaler",
    "status": "planned",
    "mw": 260,
    "investment": null,
    "county": null,
    "state": null,
    "iso": null,
    "lat": 39.44786,
    "lng": -77.47009,
    "notes": null,
    "source": "baxtel"
  },
  {
    "name": "Amazon: Vicksburg Expansion",
    "operator": "AWS",
    "type": "hyperscaler",
    "status": "planned",
    "mw": 250,
    "investment": null,
    "county": "Warren County",
    "state": "MS",
    "iso": "MISO",
    "lat": 32.40099,
    "lng": -90.921876,
    "notes": null,
    "source": "baxtel",
    "baxtel_slug": "amazon-vicksburg-expansion"
  },
  {
    "name": "Amazon: Galaxy Expansion",
    "operator": "AWS",
    "type": "hyperscaler",
    "status": "planned",
    "mw": 250,
    "investment": null,
    "county": "Shelby County",
    "state": "OH",
    "iso": "PJM",
    "lat": 40.270018,
    "lng": -84.191537,
    "notes": null,
    "source": "baxtel",
    "baxtel_slug": "amazon-galaxy-expansion"
  },
  {
    "name": "Brambleton Tech Park",
    "operator": "AWS",
    "type": "hyperscaler",
    "status": "planned",
    "mw": 180,
    "investment": null,
    "county": "Loudoun County",
    "state": "VA",
    "iso": "PJM",
    "lat": 38.957343,
    "lng": -77.531541,
    "notes": null,
    "source": "baxtel",
    "baxtel_slug": "brambleton-tech-park"
  },
  {
    "name": "Amazon: Jeffersonville-2 Campus",
    "operator": "AWS",
    "type": "hyperscaler",
    "status": "planned",
    "mw": 115,
    "investment": null,
    "county": "Fayette County",
    "state": "OH",
    "iso": "PJM",
    "lat": 39.613324,
    "lng": -83.586424,
    "notes": null,
    "source": "baxtel",
    "baxtel_slug": "amazon-jeffersonville-2-campus"
  },
  {
    "name": "Amazon: Summit Crossing Tech Campus",
    "operator": "AWS",
    "type": "hyperscaler",
    "status": "under_construction",
    "mw": 90,
    "investment": null,
    "county": "Spotsylvania County",
    "state": "VA",
    "iso": "PJM",
    "lat": 38.190727,
    "lng": -77.441615,
    "notes": null,
    "source": "baxtel",
    "baxtel_slug": "amazon-summit-crossing-tech-campus"
  },
  {
    "name": "Amazon: IAD-501",
    "operator": "AWS",
    "type": "hyperscaler",
    "status": "under_construction",
    "mw": 80,
    "investment": null,
    "county": "Fairfax County",
    "state": "VA",
    "iso": "PJM",
    "lat": 38.937724,
    "lng": -77.42556,
    "notes": null,
    "source": "baxtel",
    "baxtel_slug": "amazon-iad-501"
  },
  {
    "name": "Keystone Trade Center Campus",
    "operator": "AWS",
    "type": "hyperscaler",
    "status": "under_construction",
    "mw": 80,
    "investment": null,
    "county": "Bucks County",
    "state": "PA",
    "iso": "PJM",
    "lat": 40.155598,
    "lng": -74.749283,
    "notes": null,
    "source": "baxtel",
    "baxtel_slug": "keystone-trade-center-campus"
  },
  {
    "name": "Amazon: Elliot Campus, Mesa",
    "operator": "AWS",
    "type": "hyperscaler",
    "status": "planned",
    "mw": 70,
    "investment": null,
    "county": "Maricopa County",
    "state": "AZ",
    "iso": "WECC",
    "lat": 33.348463,
    "lng": -111.610851,
    "notes": null,
    "source": "baxtel",
    "baxtel_slug": "amazon-elliot-campus-mesa"
  },
  {
    "name": "Amazon: Resilient 3",
    "operator": "AWS",
    "type": "hyperscaler",
    "status": "planned",
    "mw": 70,
    "investment": null,
    "county": "Caddo Parish",
    "state": "LA",
    "iso": "MISO",
    "lat": 32.455564,
    "lng": -93.905112,
    "notes": null,
    "source": "baxtel",
    "baxtel_slug": "amazon-resilient-3"
  },
  {
    "name": "Amazon: Lake Anna Tech Campus",
    "operator": "AWS",
    "type": "hyperscaler",
    "status": "under_construction",
    "mw": 70,
    "investment": null,
    "county": "Louisa County",
    "state": "VA",
    "iso": "PJM",
    "lat": 38.048677,
    "lng": -77.812619,
    "notes": null,
    "source": "baxtel",
    "baxtel_slug": "amazon-lake-anna-tech-campus"
  },
  {
    "name": "Amazon PDX112",
    "operator": "AWS",
    "type": "hyperscaler",
    "status": "operational",
    "mw": 60,
    "investment": null,
    "county": "Morrow County",
    "state": "OR",
    "iso": "WECC",
    "lat": 45.862044,
    "lng": -119.609358,
    "notes": null,
    "source": "baxtel",
    "baxtel_slug": "amazon-pdx112"
  },
  {
    "name": "Amazon: Hermiston 3",
    "operator": "AWS",
    "type": "hyperscaler",
    "status": "operational",
    "mw": 60,
    "investment": null,
    "county": "Umatilla County",
    "state": "OR",
    "iso": "WECC",
    "lat": 45.79927,
    "lng": -119.366884,
    "notes": null,
    "source": "baxtel",
    "baxtel_slug": "amazon-hermiston-3"
  },
  {
    "name": "Amazon: Jeffersonville-1 Campus",
    "operator": "AWS",
    "type": "hyperscaler",
    "status": "under_construction",
    "mw": 60,
    "investment": null,
    "county": "Fayette County",
    "state": "OH",
    "iso": "PJM",
    "lat": 39.632891,
    "lng": -83.569174,
    "notes": null,
    "source": "baxtel",
    "baxtel_slug": "amazon-jeffersonville-1-campus"
  },
  {
    "name": "Amazon: Sunbury, Ohio",
    "operator": "AWS",
    "type": "hyperscaler",
    "status": "planned",
    "mw": 60,
    "investment": null,
    "county": "Delaware County",
    "state": "OH",
    "iso": "PJM",
    "lat": 40.218045,
    "lng": -82.847781,
    "notes": null,
    "source": "baxtel",
    "baxtel_slug": "amazon-sunbury-ohio"
  },
  {
    "name": "Amazon: Cosgray 4",
    "operator": "AWS",
    "type": "hyperscaler",
    "status": "operational",
    "mw": 60,
    "investment": null,
    "county": "Franklin County",
    "state": "OH",
    "iso": "PJM",
    "lat": 40.051325,
    "lng": -83.175694,
    "notes": null,
    "source": "baxtel",
    "baxtel_slug": "amazon-cosgray-4"
  },
  {
    "name": "Amazon PDX 92",
    "operator": "AWS",
    "type": "hyperscaler",
    "status": "operational",
    "mw": 55,
    "investment": null,
    "county": "Morrow County",
    "state": "OR",
    "iso": "WECC",
    "lat": 45.837484,
    "lng": -119.694202,
    "notes": null,
    "source": "baxtel",
    "baxtel_slug": "amazon-pdx-92"
  },
  {
    "name": "Amazon: Pecos Campus, Mesa",
    "operator": "AWS",
    "type": "hyperscaler",
    "status": "under_construction",
    "mw": 55,
    "investment": null,
    "county": "Maricopa County",
    "state": "AZ",
    "iso": "WECC",
    "lat": 33.295823,
    "lng": -111.607125,
    "notes": null,
    "source": "baxtel",
    "baxtel_slug": "amazon-pecos-campus-mesa"
  },
  {
    "name": "Amazon: IAD-104",
    "operator": "AWS",
    "type": "hyperscaler",
    "status": "operational",
    "mw": 55,
    "investment": null,
    "county": "Prince William County",
    "state": "VA",
    "iso": "PJM",
    "lat": 38.748691,
    "lng": -77.52049,
    "notes": null,
    "source": "baxtel",
    "baxtel_slug": "amazon-iad-104"
  },
  {
    "name": "Amazon PDX-51",
    "operator": "AWS",
    "type": "hyperscaler",
    "status": "operational",
    "mw": 50,
    "investment": null,
    "county": "Umatilla County",
    "state": "OR",
    "iso": "WECC",
    "lat": 45.91727,
    "lng": -119.267705,
    "notes": null,
    "source": "baxtel",
    "baxtel_slug": "amazon-pdx-51"
  },
  {
    "name": "Amazon: 80937 Powerline",
    "operator": "AWS",
    "type": "hyperscaler",
    "status": "operational",
    "mw": 50,
    "investment": null,
    "county": "Umatilla County",
    "state": "OR",
    "iso": "WECC",
    "lat": 45.882553,
    "lng": -119.341681,
    "notes": null,
    "source": "baxtel",
    "baxtel_slug": "amazon-80937-powerline"
  },
  {
    "name": "Amazon PDX 69",
    "operator": "AWS",
    "type": "hyperscaler",
    "status": "operational",
    "mw": 50,
    "investment": null,
    "county": "Umatilla County",
    "state": "OR",
    "iso": "WECC",
    "lat": 45.905226,
    "lng": -119.320416,
    "notes": null,
    "source": "baxtel",
    "baxtel_slug": "amazon-pdx-69"
  },
  {
    "name": "Amazon: Wanapa 20",
    "operator": "AWS",
    "type": "hyperscaler",
    "status": "operational",
    "mw": 50,
    "investment": null,
    "county": "Umatilla County",
    "state": "OR",
    "iso": "WECC",
    "lat": 45.920773,
    "lng": -119.231796,
    "notes": null,
    "source": "baxtel",
    "baxtel_slug": "amazon-wanapa-20"
  },
  {
    "name": "Amazon: Bombing 3",
    "operator": "AWS",
    "type": "hyperscaler",
    "status": "operational",
    "mw": 50,
    "investment": null,
    "county": "Morrow County",
    "state": "OR",
    "iso": "WECC",
    "lat": 45.82001,
    "lng": -119.637184,
    "notes": null,
    "source": "baxtel",
    "baxtel_slug": "amazon-bombing-3"
  },
  {
    "name": "Amazon: Penney Bldg-D",
    "operator": "AWS",
    "type": "hyperscaler",
    "status": "operational",
    "mw": 50,
    "investment": null,
    "county": "Umatilla County",
    "state": "OR",
    "iso": "WECC",
    "lat": 45.811709,
    "lng": -119.268649,
    "notes": null,
    "source": "baxtel",
    "baxtel_slug": "amazon-penney-bldg-d"
  },
  {
    "name": "Amazon: Round Rock, TX",
    "operator": "AWS",
    "type": "hyperscaler",
    "status": "under_construction",
    "mw": 50,
    "investment": null,
    "county": "Williamson County",
    "state": "TX",
    "iso": "ERCOT",
    "lat": 30.483522,
    "lng": -97.697947,
    "notes": null,
    "source": "baxtel",
    "baxtel_slug": "amazon-round-rock-tx"
  },
  {
    "name": "Amazon: Project Green Campus",
    "operator": "AWS",
    "type": "hyperscaler",
    "status": "planned",
    "mw": 50,
    "investment": null,
    "county": "Montgomery County",
    "state": "MO",
    "iso": "MISO",
    "lat": 38.907663,
    "lng": -91.399563,
    "notes": null,
    "source": "baxtel",
    "baxtel_slug": "amazon-project-green-campus"
  },
  {
    "name": "AWS: Madison 8",
    "operator": "AWS",
    "type": "hyperscaler",
    "status": "under_construction",
    "mw": 50,
    "investment": null,
    "county": "Madison County",
    "state": "MS",
    "iso": "MISO",
    "lat": 32.600778,
    "lng": -90.087126,
    "notes": null,
    "source": "baxtel",
    "baxtel_slug": "aws-madison-8"
  },
  {
    "name": "Amazon: Bossier Parish Campus",
    "operator": "AWS",
    "type": "hyperscaler",
    "status": "planned",
    "mw": 50,
    "investment": null,
    "county": "Bossier Parish",
    "state": "LA",
    "iso": "MISO",
    "lat": 32.743901,
    "lng": -93.742083,
    "notes": null,
    "source": "baxtel",
    "baxtel_slug": "amazon-bossier-parish-campus"
  },
  {
    "name": "AWS: Madison 4",
    "operator": "AWS",
    "type": "hyperscaler",
    "status": "operational",
    "mw": 50,
    "investment": null,
    "county": "Madison County",
    "state": "MS",
    "iso": "MISO",
    "lat": 32.596082,
    "lng": -90.098009,
    "notes": null,
    "source": "baxtel",
    "baxtel_slug": "aws-madison-4"
  },
  {
    "name": "Amazon: New Carlisle II DC3",
    "operator": "AWS",
    "type": "hyperscaler",
    "status": "operational",
    "mw": 50,
    "investment": null,
    "county": "St. Joseph County",
    "state": "IN",
    "iso": "MISO",
    "lat": 41.668505,
    "lng": -86.47962,
    "notes": null,
    "source": "baxtel",
    "baxtel_slug": "amazon-new-carlisle-ii-dc3"
  },