[{"pid":51087,"name":"Manawa-Indian Creek East 161 kV Line Taps","proj":"Indian Creek West 161 kV Substation & Associated Upgrades","ftype":"Line New","kv":161,"cost":1500000,"status":"Approved","isd":"2028-07-01","iso":"MISO","state":"IA","from_sub":"Manawa","to_sub":"Indian Creek East","from_lat":42.070024,"from_lng":-93.493347,"to_lat":42.896225,"to_lng":-96.309509},{"pid":51087,"name":"Indian Creek West-Fox Run 161 kV Line","proj":"Indian Creek West 161 kV Substation & Associated Upgrades","ftype":"Line New","kv":161,"cost":8500000,"status":"Approved","isd":"2029-07-01","iso":"MISO","state":"IA","from_sub":"Indian Creek West","to_sub":"Fox Run","from_lat":42.896225,"from_lng":-96.309509,"to_lat":42.070024,"to_lng":-93.493347},{"pid":51093,"name":"345kV Line from Merom to Gill","proj":"New Gill 345 kV Station and 345 kV Lines","ftype":"Line New","kv":345,"cost":3500000,"status":"Approved","isd":"2028-01-01","iso":"MISO","state":"IN","from_sub":"Merom","to_sub":"Gill","from_lat":39.057641,"from_lng":-87.566595,"to_lat":39.903026,"to_lng":-86.28395},{"pid":51114,"name":"Pike-Peno Creek 161 kV","proj":"Apply Pike \u2013 Peno Creek 161 kV E3X","ftype":"Line Upgrade","kv":161,"cost":800000,"status":"Approved","isd":"2029-12-01","iso":"MISO","state":"MO","from_sub":"Pike","to_sub":"Peno Creek","from_lat":36.545988,"from_lng":-94.455884,"to_lat":40.126706,"to_lng":-95.329064},{"pid":50737,"name":"New Lumberjack-Odyssey and Lumberjack-Montgomery 345 kV lines","proj":"New Load Addition at New Elkhorn 345 kV substation (Elkhorn Phase 2)","ftype":"Line New","kv":345,"cost":15000000,"status":"Approved","isd":"2028-12-01","iso":"MISO","state":"MO","from_sub":"Lumberjack","to_sub":"Montgomery/Odyssey","from_lat":38.35075,"from_lng":-92.456783,"to_lat":39.004044,"to_lng":-93.95561},{"pid":50628,"name":"LEAP Phase 2","proj":"Upgrade LEAP Transmission Network Phase 2","ftype":"Transformer","kv":345,"cost":345000000,"status":"Approved","isd":"2029-06-30","iso":"MISO","state":"IN","from_sub":"Fayette/Wolf Creek","to_sub":"Edwards","from_lat":39.433103,"from_lng":-86.395272,"to_lat":38.81199,"to_lng":-87.25224},{"pid":50514,"name":"W-13 345kV Transmission Line Modifications","proj":"J1502 Emerson Rd SS Network Upgrades and Interconnection Facilities","ftype":"Line New","kv":345,"cost":2426000,"status":"Approved","isd":"2028-06-30","iso":"MISO","state":"WI","from_sub":"Briggs Road","to_sub":"North Madison","from_lat":43.825254,"from_lng":-89.644568,"to_lat":43.100586,"to_lng":-89.348988},{"pid":50518,"name":"X-127 138 kV Transmission Line Reconductor","proj":"J1773 J1781 MPFCA Network Upgrades","ftype":"Line Upgrade","kv":138,"cost":1625089,"status":"Approved","isd":"2027-10-10","iso":"MISO","state":"WI","from_sub":"Hill Valley","to_sub":"Eden","from_lat":43.741615,"from_lng":-90.774206,"to_lat":43.6936,"to_lng":-88.36094},{"pid":50518,"name":"X-147 138 kV Transmission Line Reconductor","proj":"J1773 J1781 MPFCA Network Upgrades","ftype":"Line Upgrade","kv":138,"cost":5998000,"status":"Approved","isd":"2027-10-10","iso":"MISO","state":"WI","from_sub":"Eden","to_sub":"Highland","from_lat":43.6936,"from_lng":-88.36094,"to_lat":43.04666,"to_lng":-90.37985},{"pid":50519,"name":"Reactor Relocation","proj":"Reactor Relocation from North Madison SS to J1502 POI SS","ftype":"Voltage Device","kv":345,"cost":5165000,"status":"Approved","isd":"2028-06-30","iso":"MISO","state":"WI","from_sub":"North Madison","to_sub":"J1502 POI","from_lat":43.100586,"from_lng":-89.348988,"to_lat":44.630907,"to_lng":-89.709392},{"pid":50520,"name":"Donaldson - Donaldson South Line","proj":"OTP Donaldson - Donaldson South J1575 Network Upgrades","ftype":"Line Upgrade","kv":115,"cost":83341,"status":"Approved","isd":"2028-12-31","iso":"MISO","state":"MN","from_sub":"Donaldson 115 kV","to_sub":"Donaldson South 115 kV","from_lat":46.108569,"from_lng":-93.618577,"to_lat":46.108569,"to_lng":-93.618577},{"pid":50521,"name":"Donaldson South - J1575 Tie Line","proj":"OTP Donaldson South J1575 Interconnection","ftype":"Line New","kv":115,"cost":2091244,"status":"Approved","isd":"2028-08-03","iso":"MISO","state":"MN","from_sub":"Donaldson South 115 kV","to_sub":"J1575 115 kV","from_lat":46.108569,"from_lng":-93.618577,"to_lat":46.108569,"to_lng":-93.618577},{"pid":50528,"name":"Benoit 230 kV Station","proj":"Benoit 230 kV Station","ftype":"Substation","kv":230,"cost":61200000,"status":"Approved","isd":"2027-07-01","iso":"MISO","state":"LA","from_sub":"Mud Lake","to_sub":"Big  Lake","from_lat":30.299917,"from_lng":-90.852875,"to_lat":30.299917,"to_lng":-90.852875},{"pid":50529,"name":"Appleton Area Reliability Project","proj":"Appleton Area Reliability Project","ftype":"Line New","kv":138,"cost":35700000,"status":"Approved","isd":"2029-05-01","iso":"MISO","state":"WI","from_sub":"City Limits","to_sub":"Northside","from_lat":44.216648,"from_lng":-88.786223,"to_lat":39.903026,"to_lng":-86.28395},{"pid":50530,"name":"X-119 138kV Transmission Line Modifications","proj":"J1750 Grace Lake SS Network Upgrades and Interconnection Facilities","ftype":"Line New","kv":138,"cost":1581000,"status":"Approved","isd":"2029-03-13","iso":"MISO","state":"MI","from_sub":"Grace Lake","to_sub":"Empire","from_lat":43.85197,"from_lng":-85.00531,"to_lat":44.81111,"to_lng":-86.06009},{"pid":50026,"name":"Kaukauna Central Tap - Melissa 138 kV (971K11), Rerate","proj":"Kaukauna Central Tap - Melissa 138 kV (971K11), Rerate","ftype":"Line Upgrade","kv":138,"cost":2700000,"status":"Construction","isd":"2026-04-30","iso":"MISO","state":"WI","from_sub":"Kaukauna Central Tap","to_sub":"Melissa","from_lat":44.27804,"from_lng":-88.27205,"to_lat":44.630907,"to_lng":-89.709392},{"pid":50044,"name":"Hull-Marion-7324 Rebuild","proj":"Hull-Marion-7324 Rebuild","ftype":"Line Upgrade","kv":138,"cost":9400000,"status":"Approved","isd":"2030-12-01","iso":"MISO","state":"IL","from_sub":"Hull","to_sub":"Marion","from_lat":39.70699,"from_lng":-91.20681,"to_lat":37.729571,"to_lng":-88.912852},{"pid":50048,"name":"Champagne \u2013 East Opelousas \u2013 Colton 138kV line upgrades","proj":"MPFCA J1644, J1686, J1832: Upgrade of Champagne \u2013 East Opelousas \u2013 Colton 138 kV line","ftype":"Line Upgrade","kv":138,"cost":9105556,"status":"Construction","isd":"2025-12-31","iso":"MISO","state":"LA","from_sub":"Champagne","to_sub":"Colton","from_lat":30.863437,"from_lng":-91.798717,"to_lat":31.715764,"to_lng":-91.516323},{"pid":50121,"name":"ETAWS-QUARY_Relocate w OPGW","proj":"Iosco - Karn 138 kV Relocation (#50064 Alternative)","ftype":"Line Upgrade","kv":138,"cost":4700000,"status":"Approved","isd":"2028-09-29","iso":"MISO","state":"MI","from_sub":"East Tawas","to_sub":"Quary","from_lat":44.27946,"from_lng":-83.49025,"to_lat":43.815182,"to_lng":-83.341775},{"pid":50121,"name":"COTGR-QUARY_Relocate w OPGW","proj":"Iosco - Karn 138 kV Relocation (#50064 Alternative)","ftype":"Line Upgrade","kv":138,"cost":26750000,"status":"Approved","isd":"2028-09-29","iso":"MISO","state":"MI","from_sub":"Quary","to_sub":"Cottage Grove","from_lat":43.815182,"from_lng":-83.341775,"to_lat":44.844176,"to_lng":-85.660493},{"pid":50121,"name":"COTGR-KARN_Relocate w OPGW","proj":"Iosco - Karn 138 kV Relocation (#50064 Alternative)","ftype":"Line Upgrade","kv":138,"cost":6650000,"status":"Approved","isd":"2028-09-29","iso":"MISO","state":"MI","from_sub":"Cottage Grove","to_sub":"Karn","from_lat":44.844176,"from_lng":-85.660493,"to_lat":44.634126,"to_lng":-85.703494},{"pid":50545,"name":"O-119 138kV Transmission Line Modifications","proj":"J1752 Shady Dr SS Network Upgrades and Interconnection Facilities","ftype":"Line New","kv":138,"cost":2370000,"status":"Approved","isd":"2028-05-15","iso":"MISO","state":"WI","from_sub":"Arnott","to_sub":"Hartman Creek","from_lat":44.630907,"from_lng":-89.709392,"to_lat":44.428885,"to_lng":-87.633143},{"pid":50356,"name":"Port Acres Bulk to Legend 230 kV line Ckt 1","proj":"Port Acres Bulk to Legend 230 kV Rebuild","ftype":"Line Upgrade","kv":230,"cost":21900000,"status":"Approved","isd":"2028-12-01","iso":"MISO","state":"TX","from_sub":"Port Acres","to_sub":"Legend","from_lat":29.901882,"from_lng":-94.032119,"to_lat":31.434703,"to_lng":-99.281824},{"pid":50356,"name":"Port Acres to Legend 230 kV Ckt 2","proj":"Port Acres Bulk to Legend 230 kV Rebuild","ftype":"Line Upgrade","kv":230,"cost":1,"status":"Approved","isd":"2028-12-01","iso":"MISO","state":"TX","from_sub":"Port Acres","to_sub":"Legend","from_lat":29.901882,"from_lng":-94.032119,"to_lat":31.434703,"to_lng":-99.281824},{"pid":50588,"name":"Forest Junction \u2013 Branch River 345 kV (W-15), Line Uprate","proj":"Forest Junction \u2013 Branch River 345 kV (W-15), Line Uprate","ftype":"Line Upgrade","kv":345,"cost":7754000,"status":"Approved","isd":"2029-01-01","iso":"MISO","state":"WI","from_sub":"Forest Junction","to_sub":"Branch River","from_lat":44.21249,"from_lng":-88.14427,"to_lat":44.109853,"to_lng":-87.483874},{"pid":50212,"name":"Avery-Midtown_Install Underground Fiber","proj":"Avery - New DTE Interconnection","ftype":"Misc.","kv":120,"cost":1721000,"status":"Approved","isd":"2028-09-29","iso":"MISO","state":"MI","from_sub":"Avery","to_sub":"Midtown","from_lat":44.844176,"from_lng":-85.660493,"to_lat":44.844176,"to_lng":-85.660493,"matched_coords":[[-85.6915,44.7786],[-85.6893,44.7786],[-85.6893,44.7791],[-85.6893,44.7818],[-85.6893,44.7847],[-85.6981,44.7847],[-85.6994,44.7847],[-85.7048,44.7892],[-85.7049,44.7975],[-85.7049,44.7989],[-85.7049,44.8021],[-85.7089,44.802],[-85.7089,44.8025],[-85.7089,44.8025]]},{"pid":50597,"name":"Cody-Proud_New Hudson Cut-In","proj":"DTE New Hudson Interconnection","ftype":"Line New","kv":120,"cost":1793000,"status":"Approved","isd":"2028-03-31","iso":"MISO","state":"MI","from_sub":"Cody","to_sub":"Proud","from_lat":44.844176,"from_lng":-85.660493,"to_lat":44.844176,"to_lng":-85.660493,"matched_coords":[[-85.6915,44.7786],[-85.6893,44.7786],[-85.6893,44.7791],[-85.6893,44.7818],[-85.6893,44.7847],[-85.6981,44.7847],[-85.6994,44.7847],[-85.7048,44.7892],[-85.7049,44.7975],[-85.7049,44.7989],[-85.7049,44.8021],[-85.7089,44.802],[-85.7089,44.8025],[-85.7089,44.8025]]},{"pid":50602,"name":"County Line 230kV","proj":"Green Acres 500/230 kV New Substation","ftype":"Substation","kv":230,"cost":72000000,"status":"Approved","isd":"2029-12-01","iso":"MISO","state":"MS","from_sub":"County Line","to_sub":"Green Acres","from_lat":33.64279,"from_lng":-90.537368,"to_lat":41.483926,"to_lng":-87.297258},{"pid":50602,"name":"Green Acres - County line","proj":"Green Acres 500/230 kV New Substation","ftype":"Line New","kv":230,"cost":1,"status":"Approved","isd":"2029-12-01","iso":"MISO","state":"MS","from_sub":"Green Acres","to_sub":"County Line","from_lat":41.483926,"from_lng":-87.297258,"to_lat":33.64279,"to_lng":-90.537368},{"pid":50608,"name":"Riparian 115 kV Station","proj":"Riparian 115 kV Station","ftype":"Substation","kv":115,"cost":38200000,"status":"Approved","isd":"2026-12-30","iso":"MISO","state":"LA","from_sub":"Alliance","to_sub":"Happy Jack","from_lat":30.863437,"from_lng":-91.798717,"to_lat":29.521883,"to_lng":-89.733676},{"pid":50614,"name":"Two 345kV Lines from Marble Hill Station to Customer","proj":"New Marble Hill 345 kV Station and Load","ftype":"Line New","kv":345,"cost":4500000,"status":"Approved","isd":"2028-06-01","iso":"MISO","state":"IN","from_sub":"Marble Hill Station","to_sub":"Marble Hill Customer","from_lat":39.550047,"from_lng":-86.535832,"to_lat":39.550047,"to_lng":-86.535832},{"pid":50617,"name":"New Montgomery to Lumberjack 345 kV double circuit line","proj":"New 345 kV Lumberjack substation for Load Connection","ftype":"Line Upgrade","kv":345,"cost":14000000,"status":"Approved","isd":"2027-12-01","iso":"MISO","state":"MO","from_sub":"Montgomery","to_sub":"Lumberjack","from_lat":38.935184,"from_lng":-91.465427,"to_lat":38.35075,"to_lng":-92.456783},{"pid":50106,"name":"Line Taps for Big Cedar Switching Station","proj":"Big Cedar Interconnection","ftype":"Line New","kv":345,"cost":5736250,"status":"Approved","isd":"2026-03-31","iso":"MISO","state":"IA","from_sub":"Big Cedar","to_sub":"Morgan Valley","from_lat":41.219972,"from_lng":-92.506291,"to_lat":42.037189,"to_lng":-95.256476},{"pid":50106,"name":"Beverly - Big Cedar #2 345 kV Line","proj":"Big Cedar Interconnection","ftype":"Line New","kv":345,"cost":2652500,"status":"Approved","isd":"2026-03-31","iso":"MISO","state":"IA","from_sub":"Beverly","to_sub":"Big Cedar","from_lat":42.070024,"from_lng":-93.493347,"to_lat":41.219972,"to_lng":-92.506291},{"pid":50552,"name":"Line: MN/ND State Line - Bison - 345 kV","proj":"LRTP-19: Bison - Alexandria","ftype":"Line Upgrade","kv":345,"cost":19600000,"status":"Approved","isd":"2032-06-01","iso":"MISO","state":"ND","from_sub":"MN/ND State Line","to_sub":"Bison","from_lat":47.44217,"from_lng":-100.460816,"to_lat":47.44217,"to_lng":-100.460816},{"pid":20020,"name":"Gaylord-Lewiston Jct_Rebuild with OPGW","proj":"Rebuild Gaylord - Mio Dam 138kV line","ftype":"Line Upgrade","kv":138,"cost":0,"status":"Approved","isd":"2029-12-31","iso":"MISO","state":"MI","from_sub":"Gaylord","to_sub":"Lewiston Jct.","from_lat":45.028411,"from_lng":-84.612207,"to_lat":44.91306,"to_lng":-84.21857},{"pid":51152,"name":"Merom - Gill 345 kV Line","proj":"New Merom to Gill 345 kV Line addition","ftype":"Line New","kv":345,"cost":2000000,"status":"Approved","isd":"2028-01-01","iso":"MISO","state":"IN","from_sub":"Merom","to_sub":"Gill","from_lat":39.057641,"from_lng":-87.566595,"to_lat":39.903026,"to_lng":-86.28395},{"pid":15598,"name":"23630-Badoura 230-Badoura 115","proj":"Badoura Transformer Replacement","ftype":"Transformer","kv":230,"cost":400000,"status":"Approved","isd":"2026-12-31","iso":"MISO","state":"MN","from_sub":"Badoura 230","to_sub":"Badoura 115","from_lat":46.316134,"from_lng":-94.19948,"to_lat":46.316134,"to_lng":-94.19948},{"pid":15652,"name":"23663-Atlanta-Gaylord OCB","proj":"Rebuild Atlanta to Gaylord 138kV","ftype":"Line Upgrade","kv":138,"cost":16500000,"status":"Approved","isd":"2026-12-31","iso":"MISO","state":"MI","from_sub":"Atlanta","to_sub":"Gaylord OCB","from_lat":45.030626,"from_lng":-84.173067,"to_lat":45.028411,"to_lng":-84.612207,"matched_coords":[[-84.7224,45.0046],[-84.7217,45.0039],[-84.7157,45.0039],[-84.7062,45.0018],[-84.7011,44.9994],[-84.6945,44.9963],[-84.6898,44.9963],[-84.6867,44.9963],[-84.685,44.9961],[-84.6815,44.9958],[-84.6746,44.9951],[-84.6722,44.9948],[-84.6685,44.9913],[-84.6617,44.9873],[-84.6476,44.9874],[-84.639,44.9891],[-84.6304,44.9872],[-84.6212,44.9873],[-84.6124,44.9874],[-84.6069,44.9874],[-84.605,44.9873],[-84.5954,44.9872],[-84.5888,44.9871],[-84.5832,44.987],[-84.5829,44.9904],[-84.5758,44.9907],[-84.573,44.9941],[-84.5584,44.9978],[-84.5472,44.9974],[-84.5296,44.9973],[-84.5273,44.9981],[-84.5211,44.9975],[-84.4993,44.9974],[-84.4866,45.0005],[-84.4705,45.0004],[-84.4435,44.9999],[-84.4265,44.9962],[-84.3954,44.9955],[-84.3823,44.9952],[-84.3718,44.9958],[-84.3649,44.9959],[-84.3451,44.9959],[-84.3297,44.9991],[-84.294,44.9995],[-84.2626,44.9993],[-84.2344,44.9998],[-84.2239,45.0001],[-84.2143,45.0002],[-84.2088,45.0011],[-84.1916,45.0023],[-84.1661,45.007],[-84.1657,45.008],[-84.1657,45.008]]},{"pid":16023,"name":"24493-Northeast-Northwest","proj":"Lincoln-Northeast-Northwest 120 kV Rebuild","ftype":"Line Upgrade","kv":120,"cost":49642000,"status":"Construction","isd":"2026-05-15","iso":"MISO","state":"MI","from_sub":"Northeast","to_sub":"Northwest","from_lat":43.356518,"from_lng":-84.497138,"to_lat":44.844176,"to_lng":-85.660493},{"pid":18058,"name":"24925-Arrowhead-Center (Block 1)","proj":"Square Butte - Arrowhead HVDC Line Hardening","ftype":"Misc.","kv":250,"cost":3000000,"status":"Approved","isd":"2023-12-31","iso":"MISO","state":"ND","from_sub":"Arrowhead","to_sub":"Center (Block 1)","from_lat":47.44217,"from_lng":-100.460816,"to_lat":47.44217,"to_lng":-100.460816},{"pid":18058,"name":"24926-Arrowhead-Center (Block 2)","proj":"Square Butte - Arrowhead HVDC Line Hardening","ftype":"Misc.","kv":250,"cost":3000000,"status":"Approved","isd":"2024-12-31","iso":"MISO","state":"ND","from_sub":"Arrowhead","to_sub":"Center (Block 2)","from_lat":47.44217,"from_lng":-100.460816,"to_lat":47.44217,"to_lng":-100.460816},{"pid":18889,"name":"25339-Hickok-North LaSalle","proj":"Rebuild Hickok-North LaSalle 138 kV line (1659)","ftype":"Line Upgrade","kv":138,"cost":6500000,"status":"Approved","isd":"2029-06-01","iso":"MISO","state":"IL","from_sub":"Hickok","to_sub":"North LaSalle","from_lat":40.102875,"from_lng":-89.152611,"to_lat":41.365092,"to_lng":-89.0866},{"pid":17868,"name":"25390-Hilltop-Haines Road","proj":"Duluth Loop 115 kV Project","ftype":"Line New","kv":115,"cost":19000000,"status":"Approved","isd":"2026-12-31","iso":"MISO","state":"MN","from_sub":"Hilltop","to_sub":"Haines Road","from_lat":45.053299,"from_lng":-93.247448,"to_lat":47.68607,"to_lng":-94.63275},{"pid":21766,"name":"26356-Little Fork-International Falls","proj":"126 Line Asset Renewal","ftype":"Line Upgrade","kv":115,"cost":750000,"status":"Construction","isd":"2025-12-31","iso":"MISO","state":"MN","from_sub":"Little Fork","to_sub":"International Falls","from_lat":48.357144,"from_lng":-93.612836,"to_lat":48.60278,"to_lng":-93.40194,"matched_coords":[[-93.6065,48.3873],[-93.6075,48.3869],[-93.609,48.3883],[-93.6072,48.3887],[-93.6037,48.3888],[-93.5987,48.388],[-93.5952,48.3888],[-93.5923,48.3901],[-93.5894,48.3911],[-93.5847,48.3925],[-93.582,48.3948],[-93.5792,48.3973],[-93.5753,48.3985],[-93.5706,48.4],[-93.5675,48.4034],[-93.5628,48.4051],[-93.5571,48.405],[-93.5516,48.4049],[-93.5462,48.405],[-93.5407,48.4052],[-93.5353,48.4054],[-93.5262,48.4115],[-93.5208,48.4197],[-93.5018,48.4384],[-93.4877,48.4524],[-93.4721,48.4677],[-93.4581,48.4816],[-93.447,48.4925],[-93.4381,48.4998],[-93.4154,48.5164],[-93.4054,48.5237],[-93.3977,48.5293],[-93.388,48.5364],[-93.3732,48.5364],[-93.365,48.5465],[-93.3626,48.5494],[-93.3603,48.5523],[-93.358,48.5552],[-93.3556,48.5581],[-93.3533,48.561],[-93.3512,48.5637],[-93.3492,48.5662],[-93.3471,48.5687],[-93.346,48.5701],[-93.3459,48.5728],[-93.346,48.5759],[-93.3486,48.5786],[-93.3512,48.5812],[-93.3538,48.5838],[-93.3564,48.5863],[-93.3591,48.5889],[-93.3616,48.5913],[-93.3645,48.5942],[-93.3694,48.5942],[-93.3742,48.5943],[-93.3791,48.5943],[-93.3838,48.5943],[-93.3885,48.5944],[-93.3923,48.5944],[-93.3924,48.5937],[-93.3924,48.5937]]},{"pid":21976,"name":"26606-Jasper-Laurel","proj":"Jasper to Laurel 161kV Line Rebuild","ftype":"Line Upgrade","kv":161,"cost":18420000,"status":"Approved","isd":"2028-12-30","iso":"MISO","state":"IA","from_sub":"Jasper","to_sub":"Laurel","from_lat":41.51941,"from_lng":-93.105517,"to_lat":41.88416,"to_lng":-92.92214},{"pid":21926,"name":"26648-Norwich SS-Harbor SS","proj":"Harbor \u2013 Russell Terminal 138 kV (893K11), Rebuild","ftype":"Line Upgrade","kv":138,"cost":61200000,"status":"Approved","isd":"2029-11-01","iso":"MISO","state":"WI","from_sub":"Norwich SS","to_sub":"Harbor SS","from_lat":44.630907,"from_lng":-89.709392,"to_lat":44.630907,"to_lng":-89.709392},{"pid":22015,"name":"26664-Blackstone-Leoni #1","proj":"Blackstone \u2013 Leoni #1 138 kV Rebuild","ftype":"Line Upgrade","kv":138,"cost":9232000,"status":"Approved","isd":"2028-06-01","iso":"MISO","state":"MI","from_sub":"Blackstone","to_sub":"Leoni","from_lat":44.844176,"from_lng":-85.660493,"to_lat":42.243925,"to_lng":-84.269121},{"pid":22018,"name":"Blackstone_Leoni #3 & #2 138kV Rebuild","proj":"Blackstone \u2013 Leoni #3 and #2 138 kV Rebuild","ftype":"Line Upgrade","kv":138,"cost":7972000,"status":"Approved","isd":"2028-06-01","iso":"MISO","state":"MI","from_sub":"Blackstone","to_sub":"Leoni","from_lat":44.844176,"from_lng":-85.660493,"to_lat":42.243925,"to_lng":-84.269121},{"pid":22020,"name":"26668-Leoni-Parr Road","proj":"Leoni \u2013 Parr Rd 138kV Rebuild","ftype":"Line Upgrade","kv":138,"cost":41842000,"status":"In Service","isd":"2025-12-01","iso":"MISO","state":"MI","from_sub":"Leoni","to_sub":"Parr Road","from_lat":42.243925,"from_lng":-84.269121,"to_lat":42.823317,"to_lng":-84.211149},{"pid":22021,"name":"26673-Cobb-Dupont","proj":"Chopin \u2013 Dupont \u2013 White Lake 138kV Rebuild","ftype":"Line Upgrade","kv":138,"cost":2310000,"status":"Approved","isd":"2027-05-03","iso":"MISO","state":"MI","from_sub":"Cobb","to_sub":"Dupont","from_lat":42.41892,"from_lng":-86.187529,"to_lat":44.844176,"to_lng":-85.660493},{"pid":21999,"name":"26677-Elk-Magnolia","proj":"J1164 Generator Interconnection Network Upgrades","ftype":"Line New","kv":161,"cost":775200,"status":"Approved","isd":"2026-08-14","iso":"MISO","state":"MN","from_sub":"Elk","to_sub":"Magnolia","from_lat":44.588963,"from_lng":-93.369473,"to_lat":43.644047,"to_lng":-96.07695},{"pid":21751,"name":"New Ameren Pana-PPI Paragon 138 kV Line","proj":"New Paragon 138/69 kV Substation","ftype":"Line New","kv":138,"cost":1320000,"status":"Approved","isd":"2028-03-01","iso":"MISO","state":"IL","from_sub":"Ameren Pana N","to_sub":"PPI Paragon","from_lat":39.38893,"from_lng":-89.08008,"to_lat":40.102875,"to_lng":-89.152611},{"pid":23706,"name":"27486-Cromwell-Portage Lake","proj":"158 Line Rebuild","ftype":"Line Upgrade","kv":115,"cost":25000000,"status":"Approved","isd":"2029-03-31","iso":"MISO","state":"MN","from_sub":"Cromwell","to_sub":"Portage Lake","from_lat":46.654061,"from_lng":-92.836499,"to_lat":46.774041,"to_lng":-92.171636},{"pid":23709,"name":"27489-Campbell-Blendon","proj":"Campbell \u2013 Blendon 138kV Loop Into Tyler","ftype":"Line Upgrade","kv":138,"cost":1245000,"status":"Construction","isd":"2028-01-27","iso":"MISO","state":"MI","from_sub":"Campbell","to_sub":"Blendon","from_lat":46.017181,"from_lng":-87.131251,"to_lat":44.844176,"to_lng":-85.660493},{"pid":23709,"name":"27492-Campbell-Port Sheldon","proj":"Campbell \u2013 Blendon 138kV Loop Into Tyler","ftype":"Line Upgrade","kv":138,"cost":730000,"status":"Construction","isd":"2028-01-27","iso":"MISO","state":"MI","from_sub":"Campbell","to_sub":"Port Sheldon","from_lat":46.017181,"from_lng":-87.131251,"to_lat":42.899465,"to_lng":-86.199769},{"pid":23765,"name":"27521-Joppa-Grahamville","proj":"Rebuild Joppa-Joppa TS-Grahamville 161 line (854)","ftype":"Line Upgrade","kv":161,"cost":21900000,"status":"Approved","isd":"2031-12-31","iso":"MISO","state":"KY","from_sub":"Joppa","to_sub":"Grahamville","from_lat":37.051731,"from_lng":-85.242182,"to_lat":37.107554,"to_lng":-88.780056},{"pid":23826,"name":"27522-Joppa-Grahamville","proj":"Rebuild Joppa - Grahamville 161 line (804)","ftype":"Line Upgrade","kv":161,"cost":21900000,"status":"Approved","isd":"2031-12-31","iso":"MISO","state":"KY","from_sub":"Joppa","to_sub":"Grahamville","from_lat":37.051731,"from_lng":-85.242182,"to_lat":37.107554,"to_lng":-88.780056},{"pid":23827,"name":"27528-Joppa-Joppa TS","proj":"New 3-breaker ring bus substation","ftype":"Line New","kv":161,"cost":1,"status":"Approved","isd":"2026-12-31","iso":"MISO","state":"IL","from_sub":"Joppa","to_sub":"Joppa TS","from_lat":37.051731,"from_lng":-85.242182,"to_lat":37.209231,"to_lng":-88.844181},{"pid":23763,"name":"27548-Laketown-Laketown Tap","proj":"Laketown Substation Tap","ftype":"Substation","kv":115,"cost":13904910,"status":"Approved","isd":"2028-09-26","iso":"MISO","state":"MN","from_sub":"Laketown","to_sub":"Laketown Tap","from_lat":46.316134,"from_lng":-94.19948,"to_lat":43.55802,"to_lng":-92.64268},{"pid":24738,"name":"28070-Hull-Herleman","proj":"Rebuild Hull-Herleman-1682 138 kV Transmission Line","ftype":"Line Upgrade","kv":138,"cost":24000000,"status":"Approved","isd":"2027-12-01","iso":"MISO","state":"IL","from_sub":"Hull","to_sub":"Herleman","from_lat":39.70699,"from_lng":-91.20681,"to_lat":41.689533,"to_lng":-89.545604},{"pid":24758,"name":"28078-Columbia-North Madison","proj":"J1410 J1411 North Arlington Swt St MPFCA & Network Upgrades","ftype":"Line Upgrade","kv":345,"cost":4680062,"status":"Construction","isd":"2026-06-03","iso":"MISO","state":"WI","from_sub":"Columbia","to_sub":"North Madison","from_lat":43.471882,"from_lng":-89.330472,"to_lat":43.100586,"to_lng":-89.348988},{"pid":24838,"name":"28116-North Appleton-Fox River","proj":"J1316 Paris SS Network Upgrades","ftype":"Line Upgrade","kv":345,"cost":22347091,"status":"Approved","isd":"2028-12-29","iso":"MISO","state":"WI","from_sub":"North Appleton","to_sub":"Fox River","from_lat":44.275702,"from_lng":-88.370856,"to_lat":42.556963,"to_lng":-88.184533},{"pid":24861,"name":"28123-Evergreen-Donaldsonville","proj":"J1583 Interconnection on Evergreen to Donaldsonville 230 kV","ftype":"Substation","kv":230,"cost":5000000,"status":"Approved","isd":"2027-06-01","iso":"MISO","state":"LA","from_sub":"Evergreen","to_sub":"Donaldsonville","from_lat":30.91614,"from_lng":-92.067027,"to_lat":30.10103,"to_lng":-90.99288},{"pid":24862,"name":"28125-Champagne-Plaisance","proj":"J1644 Generator Interconnection on Champagne to Plaisance 138 kV","ftype":"Substation","kv":138,"cost":4329000,"status":"Approved","isd":"2026-06-01","iso":"MISO","state":"LA","from_sub":"Champagne","to_sub":"Plaisance","from_lat":30.863437,"from_lng":-91.798717,"to_lat":30.612419,"to_lng":-92.126232},{"pid":14344,"name":"23317-Airport-Hillman Tap","proj":"Airport - Hillman Tap 138 kV Sag Remediation","ftype":"Line Upgrade","kv":138,"cost":1061250,"status":"Approved","isd":"2028-06-01","iso":"MISO","state":"MI","from_sub":"Airport","to_sub":"Hillman Tap","from_lat":44.844176,"from_lng":-85.660493,"to_lat":45.05958,"to_lng":-84.022691},{"pid":14001,"name":"23390-Burnips Junction-Burnips","proj":"Blendon Area Upgrade","ftype":"Line Upgrade","kv":138,"cost":900000,"status":"In Service","isd":"2020-06-01","iso":"MISO","state":"MI","from_sub":"Burnips Junction","to_sub":"Burnips","from_lat":42.731193,"from_lng":-85.840372,"to_lat":42.731193,"to_lng":-85.840372},{"pid":15939,"name":"24052-Leoni-Beecher","proj":"Leoni - Beecher 138 kV Sixed Wire","ftype":"Line Upgrade","kv":138,"cost":8300000,"status":"Approved","isd":"2027-04-30","iso":"MISO","state":"MI","from_sub":"Leoni","to_sub":"Beecher","from_lat":42.243925,"from_lng":-84.269121,"to_lat":44.844176,"to_lng":-85.660493},{"pid":16023,"name":"24170-Northeast-Northwest","proj":"Lincoln-Northeast-Northwest 120 kV Rebuild","ftype":"Line Upgrade","kv":120,"cost":27090000,"status":"Construction","isd":"2026-08-31","iso":"MISO","state":"MI","from_sub":"Northeast","to_sub":"Northwest","from_lat":43.356518,"from_lng":-84.497138,"to_lat":44.844176,"to_lng":-85.660493},{"pid":20148,"name":"25853-Appleton-Benson","proj":"Appleton - Benson (AG-AB) 115 kV Line","ftype":"Line New","kv":115,"cost":32574591,"status":"Approved","isd":"2029-12-31","iso":"MISO","state":"MN","from_sub":"Appleton","to_sub":"Benson","from_lat":45.282008,"from_lng":-95.95757,"to_lat":45.281669,"to_lng":-95.672102},{"pid":20148,"name":"25854-Benson-Benson Muni","proj":"Appleton - Benson (AG-AB) 115 kV Line","ftype":"Line New","kv":115,"cost":9284688,"status":"Approved","isd":"2029-12-31","iso":"MISO","state":"MN","from_sub":"Benson","to_sub":"Benson Muni","from_lat":45.281669,"from_lng":-95.672102,"to_lat":45.281669,"to_lng":-95.672102,"matched_coords":[[-95.634,45.3263],[-95.6344,45.3264],[-95.6346,45.3264],[-95.6349,45.3263],[-95.635,45.3251],[-95.635,45.325],[-95.6357,45.325],[-95.6357,45.325]]},{"pid":20162,"name":"25886-Grey Iron-Claremont","proj":"Claremont 138 kV Station Rebuild","ftype":"Line New","kv":138,"cost":530000,"status":"Approved","isd":"2028-12-29","iso":"MISO","state":"MI","from_sub":"Grey Iron","to_sub":"Claremont","from_lat":43.489001,"from_lng":-83.385078,"to_lat":44.844176,"to_lng":-85.660493},{"pid":20162,"name":"25887-Holland Road-Claremont","proj":"Claremont 138 kV Station Rebuild","ftype":"Line New","kv":138,"cost":530000,"status":"Approved","isd":"2028-12-29","iso":"MISO","state":"MI","from_sub":"Holland Road","to_sub":"Claremont","from_lat":42.743806,"from_lng":-86.083703,"to_lat":44.844176,"to_lng":-85.660493},{"pid":20162,"name":"25888-Manning #1-Claremont","proj":"Claremont 138 kV Station Rebuild","ftype":"Line New","kv":138,"cost":530000,"status":"Approved","isd":"2028-12-29","iso":"MISO","state":"MI","from_sub":"Manning #1","to_sub":"Claremont","from_lat":44.844176,"from_lng":-85.660493,"to_lat":44.844176,"to_lng":-85.660493,"matched_coords":[[-85.6915,44.7786],[-85.6893,44.7786],[-85.6893,44.7791],[-85.6893,44.7818],[-85.6893,44.7847],[-85.6981,44.7847],[-85.6994,44.7847],[-85.7048,44.7892],[-85.7049,44.7975],[-85.7049,44.7989],[-85.7049,44.8021],[-85.7089,44.802],[-85.7089,44.8025],[-85.7089,44.8025]]},{"pid":20162,"name":"25889-Manning #2-Claremont","proj":"Claremont 138 kV Station Rebuild","ftype":"Line New","kv":138,"cost":535000,"status":"Approved","isd":"2028-12-29","iso":"MISO","state":"MI","from_sub":"Manning #2","to_sub":"Claremont","from_lat":44.844176,"from_lng":-85.660493,"to_lat":44.844176,"to_lng":-85.660493,"matched_coords":[[-85.6915,44.7786],[-85.6893,44.7786],[-85.6893,44.7791],[-85.6893,44.7818],[-85.6893,44.7847],[-85.6981,44.7847],[-85.6994,44.7847],[-85.7048,44.7892],[-85.7049,44.7975],[-85.7049,44.7989],[-85.7049,44.8021],[-85.7089,44.802],[-85.7089,44.8025],[-85.7089,44.8025]]},{"pid":20162,"name":"25890-Cornell #1-Claremont","proj":"Claremont 138 kV Station Rebuild","ftype":"Line New","kv":138,"cost":440000,"status":"Approved","isd":"2028-12-29","iso":"MISO","state":"MI","from_sub":"Cornell #1","to_sub":"Claremont","from_lat":44.844176,"from_lng":-85.660493,"to_lat":44.844176,"to_lng":-85.660493,"matched_coords":[[-85.6915,44.7786],[-85.6893,44.7786],[-85.6893,44.7791],[-85.6893,44.7818],[-85.6893,44.7847],[-85.6981,44.7847],[-85.6994,44.7847],[-85.7048,44.7892],[-85.7049,44.7975],[-85.7049,44.7989],[-85.7049,44.8021],[-85.7089,44.802],[-85.7089,44.8025],[-85.7089,44.8025]]},{"pid":20162,"name":"25891-Cornell #2-Claremont","proj":"Claremont 138 kV Station Rebuild","ftype":"Line New","kv":138,"cost":444000,"status":"Approved","isd":"2028-12-29","iso":"MISO","state":"MI","from_sub":"Cornell #2","to_sub":"Claremont","from_lat":44.844176,"from_lng":-85.660493,"to_lat":44.844176,"to_lng":-85.660493,"matched_coords":[[-85.6915,44.7786],[-85.6893,44.7786],[-85.6893,44.7791],[-85.6893,44.7818],[-85.6893,44.7847],[-85.6981,44.7847],[-85.6994,44.7847],[-85.7048,44.7892],[-85.7049,44.7975],[-85.7049,44.7989],[-85.7049,44.8021],[-85.7089,44.802],[-85.7089,44.8025],[-85.7089,44.8025]]},{"pid":20162,"name":"25892-Lawndale-Claremont","proj":"Claremont 138 kV Station Rebuild","ftype":"Line New","kv":138,"cost":448000,"status":"Approved","isd":"2028-12-29","iso":"MISO","state":"MI","from_sub":"Lawndale","to_sub":"Claremont","from_lat":42.264543,"from_lng":-85.561545,"to_lat":44.844176,"to_lng":-85.660493},{"pid":20167,"name":"25898-Cato-Corktown","proj":"Cato \u2013 Corktown 120 kV","ftype":"Line New","kv":120,"cost":17000000,"status":"Approved","isd":"2027-10-01","iso":"MISO","state":"MI","from_sub":"Cato","to_sub":"Corktown","from_lat":44.844176,"from_lng":-85.660493,"to_lat":44.844176,"to_lng":-85.660493,"matched_coords":[[-85.6915,44.7786],[-85.6893,44.7786],[-85.6893,44.7791],[-85.6893,44.7818],[-85.6893,44.7847],[-85.6981,44.7847],[-85.6994,44.7847],[-85.7048,44.7892],[-85.7049,44.7975],[-85.7049,44.7989],[-85.7049,44.8021],[-85.7089,44.802],[-85.7089,44.8025],[-85.7089,44.8025]]},{"pid":15942,"name":"26024-Chopin-Cobb (CE TB#7)","proj":"Rebuild Station Cobb 138 kV","ftype":"Line New","kv":138,"cost":441500,"status":"Approved","isd":"2028-01-14","iso":"MISO","state":"MI","from_sub":"Chopin","to_sub":"Cobb (CE TB#7)","from_lat":44.844176,"from_lng":-85.660493,"to_lat":44.844176,"to_lng":-85.660493,"matched_coords":[[-85.6915,44.7786],[-85.6893,44.7786],[-85.6893,44.7791],[-85.6893,44.7818],[-85.6893,44.7847],[-85.6981,44.7847],[-85.6994,44.7847],[-85.7048,44.7892],[-85.7049,44.7975],[-85.7049,44.7989],[-85.7049,44.8021],[-85.7089,44.802],[-85.7089,44.8025],[-85.7089,44.8025]]},{"pid":15942,"name":"26025-Chopin-Cobb (CE TB#8)","proj":"Rebuild Station Cobb 138 kV","ftype":"Line New","kv":138,"cost":1300000,"status":"Approved","isd":"2028-01-14","iso":"MISO","state":"MI","from_sub":"Chopin","to_sub":"Cobb (CE TB#8)","from_lat":44.844176,"from_lng":-85.660493,"to_lat":44.844176,"to_lng":-85.660493,"matched_coords":[[-85.6915,44.7786],[-85.6893,44.7786],[-85.6893,44.7791],[-85.6893,44.7818],[-85.6893,44.7847],[-85.6981,44.7847],[-85.6994,44.7847],[-85.7048,44.7892],[-85.7049,44.7975],[-85.7049,44.7989],[-85.7049,44.8021],[-85.7089,44.802],[-85.7089,44.8025],[-85.7089,44.8025]]},{"pid":15942,"name":"26026-Chopin-Muskegon Heights 1 (CE TB#4)","proj":"Rebuild Station Cobb 138 kV","ftype":"Line New","kv":138,"cost":343000,"status":"Approved","isd":"2028-01-14","iso":"MISO","state":"MI","from_sub":"Chopin","to_sub":"Muskegon Heights 1 (CE TB#4)","from_lat":44.844176,"from_lng":-85.660493,"to_lat":42.325592,"to_lng":-83.839388},{"pid":15942,"name":"26027-Chopin-Muskegon Heights 2 (CE TB#7)","proj":"Rebuild Station Cobb 138 kV","ftype":"Line New","kv":138,"cost":158400,"status":"Approved","isd":"2028-01-14","iso":"MISO","state":"MI","from_sub":"Chopin","to_sub":"Muskegon Heights 2 (CE TB#7)","from_lat":44.844176,"from_lng":-85.660493,"to_lat":42.325592,"to_lng":-83.839388},{"pid":19546,"name":"26037-Raisin Tap-Raisin","proj":"J875 Generator Interconnection","ftype":"Misc.","kv":138,"cost":1445000,"status":"In Service","isd":"2023-05-19","iso":"MISO","state":"MI","from_sub":"Raisin Tap","to_sub":"Raisin","from_lat":44.844176,"from_lng":-85.660493,"to_lat":44.844176,"to_lng":-85.660493,"matched_coords":[[-85.6915,44.7786],[-85.6893,44.7786],[-85.6893,44.7791],[-85.6893,44.7818],[-85.6893,44.7847],[-85.6981,44.7847],[-85.6994,44.7847],[-85.7048,44.7892],[-85.7049,44.7975],[-85.7049,44.7989],[-85.7049,44.8021],[-85.7089,44.802],[-85.7089,44.8025],[-85.7089,44.8025]]},{"pid":18066,"name":"26107-Badoura-Dog Lake","proj":"Badoura 115kV Substation Modernization","ftype":"Misc.","kv":115,"cost":580000,"status":"Approved","isd":"2025-12-31","iso":"MISO","state":"MN","from_sub":"Badoura","to_sub":"Dog Lake","from_lat":46.973708,"from_lng":-94.697017,"to_lat":47.821318,"to_lng":-93.156013},{"pid":18066,"name":"26108-Badoura-Hubbard","proj":"Badoura 115kV Substation Modernization","ftype":"Misc.","kv":115,"cost":490000,"status":"Approved","isd":"2025-12-31","iso":"MISO","state":"MN","from_sub":"Badoura","to_sub":"Hubbard","from_lat":46.973708,"from_lng":-94.697017,"to_lat":46.836626,"to_lng":-95.010298,"matched_coords":[[-95.0111,46.8277],[-95.0106,46.8274],[-95.0102,46.8274],[-95.0003,46.8273],[-94.9955,46.8273],[-94.9855,46.8273],[-94.9799,46.8273],[-94.9748,46.8273],[-94.9672,46.8272],[-94.9483,46.827],[-94.9427,46.8269],[-94.9349,46.8269],[-94.9246,46.8269],[-94.9118,46.8269],[-94.9094,46.8272],[-94.8943,46.8291],[-94.8745,46.8317],[-94.8608,46.8383],[-94.8539,46.8416],[-94.8516,46.8428],[-94.8444,46.8456],[-94.8314,46.8507],[-94.8205,46.855],[-94.8088,46.8596],[-94.7878,46.868],[-94.7828,46.8688],[-94.7694,46.8711],[-94.7575,46.873],[-94.7554,46.8742],[-94.7533,46.8753],[-94.7514,46.8763],[-94.7496,46.8772],[-94.7475,46.8783],[-94.7455,46.8793],[-94.7437,46.8794],[-94.7411,46.8795],[-94.7386,46.8795],[-94.7361,46.8796],[-94.7336,46.8797],[-94.7308,46.8798],[-94.7292,46.8798],[-94.7286,46.8795],[-94.7284,46.8794],[-94.7269,46.8788],[-94.7247,46.8779],[-94.7231,46.8772],[-94.723,46.8759],[-94.7229,46.8755],[-94.7227,46.8754],[-94.7227,46.8754]]},{"pid":22586,"name":"26804-Buck Creek-Hazelwood","proj":"Buskirk - New CE Interconnection","ftype":"Line New","kv":138,"cost":2770000,"status":"Construction","isd":"2026-04-06","iso":"MISO","state":"MI","from_sub":"Buck Creek","to_sub":"Hazelwood","from_lat":44.844176,"from_lng":-85.660493,"to_lat":44.844176,"to_lng":-85.660493,"matched_coords":[[-85.6915,44.7786],[-85.6893,44.7786],[-85.6893,44.7791],[-85.6893,44.7818],[-85.6893,44.7847],[-85.6981,44.7847],[-85.6994,44.7847],[-85.7048,44.7892],[-85.7049,44.7975],[-85.7049,44.7989],[-85.7049,44.8021],[-85.7089,44.802],[-85.7089,44.8025],[-85.7089,44.8025]]},{"pid":22667,"name":"26823-Havana-Cincinnati","proj":"New PPI - Forest City 138 kV Interconnection","ftype":"Substation","kv":138,"cost":8500000,"status":"Approved","isd":"2028-06-01","iso":"MISO","state":"IL","from_sub":"Havana","to_sub":"Cincinnati","from_lat":40.30004,"from_lng":-90.06095,"to_lat":40.102875,"to_lng":-89.152611},{"pid":22847,"name":"26846-Boyne-Golf","proj":"Kings Point - New DTE 120kV Interconnection","ftype":"Misc.","kv":120,"cost":12800000,"status":"Approved","isd":"2029-11-16","iso":"MISO","state":"MI","from_sub":"Boyne","to_sub":"Golf","from_lat":44.28806,"from_lng":-85.6,"to_lat":44.844176,"to_lng":-85.660493},{"pid":22908,"name":"26922-Joppa-Marion South","proj":"Rebuild Joppa - Marion South 161kV line","ftype":"Line Upgrade","kv":161,"cost":46500000,"status":"Approved","isd":"2030-12-01","iso":"MISO","state":"IL","from_sub":"Joppa","to_sub":"Marion South","from_lat":37.051731,"from_lng":-85.242182,"to_lat":37.729571,"to_lng":-88.912852},{"pid":15866,"name":"26943-Newburgh-Peru","proj":"Newburgh \u2013 Peru 120 kV Rebuild","ftype":"Line Upgrade","kv":120,"cost":40000,"status":"Approved","isd":"2027-12-31","iso":"MISO","state":"MI","from_sub":"Newburgh","to_sub":"Peru","from_lat":46.460159,"from_lng":-85.515605,"to_lat":42.823317,"to_lng":-84.211149},{"pid":22020,"name":"26947-Lark-Leoni","proj":"Leoni \u2013 Parr Rd 138kV Rebuild","ftype":"Line Upgrade","kv":138,"cost":9726000,"status":"In Service","isd":"2025-12-01","iso":"MISO","state":"MI","from_sub":"Lark","to_sub":"Leoni","from_lat":44.844176,"from_lng":-85.660493,"to_lat":42.243925,"to_lng":-84.269121},{"pid":23147,"name":"26971-Amite-Chicken Farm","proj":"J1219/J1257 115 kV station(Hickory)","ftype":"Substation","kv":115,"cost":14390000,"status":"Approved","isd":"2027-06-01","iso":"MISO","state":"LA","from_sub":"Amite","to_sub":"Chicken Farm","from_lat":30.74483,"from_lng":-90.41058,"to_lat":30.863437,"to_lng":-91.798717},{"pid":25424,"name":"28622-NE 6th Street-NE Ankeny","proj":"NE 6th St Substation and 161 kV line taps","ftype":"Line New","kv":161,"cost":1250000,"status":"Approved","isd":"2027-06-01","iso":"MISO","state":"IA","from_sub":"NE 6th Street","to_sub":"NE Ankeny","from_lat":41.509732,"from_lng":-94.31796,"to_lat":41.672687,"to_lng":-93.572173},{"pid":25424,"name":"28623-NE 6th Street-Big Creek","proj":"NE 6th St Substation and 161 kV line taps","ftype":"Line New","kv":161,"cost":1250000,"status":"Approved","isd":"2027-06-01","iso":"MISO","state":"IA","from_sub":"NE 6th Street","to_sub":"Big Creek","from_lat":41.509732,"from_lng":-94.31796,"to_lat":42.896225,"to_lng":-96.309509},{"pid":25461,"name":"28630-Johnson Creek-Maffitt Lake","proj":"Johnson Creek - Maffitt Lake 161 kV line","ftype":"Line New","kv":161,"cost":8500000,"status":"Approved","isd":"2027-08-01","iso":"MISO","state":"IA","from_sub":"Johnson Creek","to_sub":"Maffitt Lake","from_lat":42.896225,"from_lng":-96.309509,"to_lat":42.070024,"to_lng":-93.493347},{"pid":25399,"name":"28638-Inman-Miltona","proj":"Congestion Mitigation Projects","ftype":"Line Upgrade","kv":115,"cost":1190849,"status":"Approved","isd":"2024-10-31","iso":"MISO","state":"MN","from_sub":"Inman","to_sub":"Miltona","from_lat":46.316134,"from_lng":-94.19948,"to_lat":46.06187,"to_lng":-95.295146},{"pid":25430,"name":"28665-Fairview-Madiosnville","proj":"Fairview to Madisonville 230 kV Upgrades","ftype":"Line Upgrade","kv":230,"cost":700000,"status":"Approved","isd":"2027-12-01","iso":"MISO","state":"LA","from_sub":"Fairview","to_sub":"Madiosnville","from_lat":31.325171,"from_lng":-91.532341,"to_lat":30.40436,"to_lng":-90.15702},{"pid":25433,"name":"28669-Graettinger Marsh-Palo Alto","proj":"J1270 POI New 345 kV Interconnection Substation and 345 kV Line Taps","ftype":"Line New","kv":345,"cost":2500000,"status":"Approved","isd":"2027-09-15","iso":"MISO","state":"IA","from_sub":"Graettinger Marsh","to_sub":"Palo Alto","from_lat":43.19802,"from_lng":-94.736878,"to_lat":42.67359,"to_lng":-95.29055},{"pid":25432,"name":"28672-Cypress-Legend","proj":"Cypress to Legend 500 kV line","ftype":"Line New","kv":500,"cost":420000000,"status":"Approved","isd":"2028-12-01","iso":"MISO","state":"TX","from_sub":"Cypress","to_sub":"Legend","from_lat":29.997775,"from_lng":-95.669444,"to_lat":31.434703,"to_lng":-99.281824},{"pid":3439,"name":"6342-Ensor 161 kV-Ensor 69 kV","proj":"New Ensor 161/69 kV Substation","ftype":"Substation","kv":161,"cost":5400000,"status":"Approved","isd":"2029-12-31","iso":"MISO","state":"KY","from_sub":"Ensor 161 kV","to_sub":"Ensor 69 kV","from_lat":36.997587,"from_lng":-84.129021,"to_lat":36.997587,"to_lng":-84.129021,"matched_coords":[[-84.1948,37.0379],[-84.1947,37.0363],[-84.1947,37.0343],[-84.1947,37.0329],[-84.1946,37.0317],[-84.1946,37.0298],[-84.1946,37.0284],[-84.1931,37.0269],[-84.1915,37.0254],[-84.1908,37.0247],[-84.1896,37.0235],[-84.1887,37.0226],[-84.1877,37.0216],[-84.1871,37.0198],[-84.1866,37.0177],[-84.1863,37.0169],[-84.1859,37.0154],[-84.1857,37.0146],[-84.185,37.0135],[-84.184,37.0117],[-84.183,37.0099],[-84.1827,37.0093],[-84.1817,37.0076],[-84.181,37.0063],[-84.1798,37.0043],[-84.1794,37.0035],[-84.1788,37.0025],[-84.1778,37.0007],[-84.1763,36.9991],[-84.1748,36.9975],[-84.1742,36.9969],[-84.1734,36.996],[-84.1725,36.996],[-84.1701,36.996],[-84.1691,36.996],[-84.1668,36.996],[-84.1648,36.996],[-84.1639,36.996],[-84.1612,36.996],[-84.1596,36.9962],[-84.1585,36.9963],[-84.1581,36.9967],[-84.1581,36.9967]]},{"pid":16104,"name":"24210-Altona-Pierson","proj":"Altona to Pierson Rebuild","ftype":"Line Upgrade","kv":138,"cost":13200000,"status":"Approved","isd":"2026-12-31","iso":"MISO","state":"MI","from_sub":"Altona","to_sub":"Pierson","from_lat":44.900641,"from_lng":-85.232932,"to_lat":43.31975,"to_lng":-85.49781},{"pid":15942,"name":"24252-Cobb-Four Mile","proj":"Rebuild Station Cobb 138 kV","ftype":"Line Upgrade","kv":138,"cost":306000,"status":"Approved","isd":"2028-01-14","iso":"MISO","state":"MI","from_sub":"Cobb","to_sub":"Four Mile","from_lat":42.41892,"from_lng":-86.187529,"to_lat":44.844176,"to_lng":-85.660493},{"pid":15942,"name":"24255-Cobb-Felch Road (N-14)","proj":"Rebuild Station Cobb 138 kV","ftype":"Line Upgrade","kv":138,"cost":304000,"status":"Approved","isd":"2028-01-14","iso":"MISO","state":"MI","from_sub":"Cobb","to_sub":"Felch Road (N-14)","from_lat":42.41892,"from_lng":-86.187529,"to_lat":44.844176,"to_lng":-85.660493},{"pid":15942,"name":"24258-Dupont-Chopin","proj":"Rebuild Station Cobb 138 kV","ftype":"Line Upgrade","kv":138,"cost":317000,"status":"Approved","isd":"2028-01-14","iso":"MISO","state":"MI","from_sub":"Dupont","to_sub":"Pine Creek","from_lat":44.844176,"from_lng":-85.660493,"to_lat":42.165601,"to_lng":-85.256099},{"pid":19587,"name":"25516-Petenwell-Council Creek","proj":"Petenwell \u2013 Council Creek, (X-40) 138kV, Partial Structure and OPGW Replacement","ftype":"Misc.","kv":138,"cost":4000000,"status":"Construction","isd":"2026-01-31","iso":"MISO","state":"WI","from_sub":"Petenwell","to_sub":"Council Creek","from_lat":44.630907,"from_lng":-89.709392,"to_lat":44.428885,"to_lng":-87.633143},{"pid":19665,"name":"25527-Deer-Indian (or to the new switching station)","proj":"Deer to Indian 138 kV line","ftype":"Line New","kv":138,"cost":28860000,"status":"Approved","isd":"2027-12-31","iso":"MISO","state":"TX","from_sub":"Deer","to_sub":"Indian (or to the new switching station)","from_lat":33.3265,"from_lng":-95.574678,"to_lat":30.762967,"to_lng":-97.597231},{"pid":19546,"name":"25536-Leoni-Parr Road, Tangent, and Whiting","proj":"J875 Generator Interconnection","ftype":"Misc.","kv":138,"cost":3865459,"status":"In Service","isd":"2023-12-21","iso":"MISO","state":"MI","from_sub":"Leoni","to_sub":"Parr Road, Tangent, and Whiting","from_lat":42.243925,"from_lng":-84.269121,"to_lat":42.823317,"to_lng":-84.211149},{"pid":19928,"name":"25615-Marion-Old Settlers","proj":"Marion-Old Settlers 115kV Ckt#2","ftype":"Line New","kv":115,"cost":1890000,"status":"Approved","isd":"2027-12-31","iso":"MISO","state":"IA","from_sub":"Marion","to_sub":"Old Settlers","from_lat":37.729571,"from_lng":-88.912852,"to_lat":42.070024,"to_lng":-93.493347},{"pid":19928,"name":"25616-Dry Creek-Old Settlers","proj":"Marion-Old Settlers 115kV Ckt#2","ftype":"Line New","kv":115,"cost":336000,"status":"Approved","isd":"2027-12-31","iso":"MISO","state":"IA","from_sub":"Dry Creek","to_sub":"Old Settlers","from_lat":42.896225,"from_lng":-96.309509,"to_lat":42.070024,"to_lng":-93.493347},{"pid":23546,"name":"27273-Henry County-Jefferson County","proj":"Jefferson County 161kV Substation Rebuild","ftype":"Line New","kv":161,"cost":742800,"status":"Approved","isd":"2026-07-30","iso":"MISO","state":"IA","from_sub":"Henry County","to_sub":"Jefferson County","from_lat":40.984803,"from_lng":-91.547259,"to_lat":41.006376,"to_lng":-91.966628,"matched_coords":[[-91.5389,40.9237],[-91.5414,40.9239],[-91.5483,40.9291],[-91.5567,40.9353],[-91.5637,40.9405],[-91.5728,40.9475],[-91.5794,40.9523],[-91.5894,40.9597],[-91.598,40.9656],[-91.6105,40.968],[-91.6214,40.97],[-91.6303,40.9719],[-91.6408,40.9746],[-91.6535,40.9778],[-91.6633,40.9803],[-91.6788,40.9842],[-91.6896,40.9869],[-91.7016,40.99],[-91.7159,40.9936],[-91.7279,40.9966],[-91.7405,40.9998],[-91.7533,41.003],[-91.762,41.0051],[-91.773,41.0078],[-91.7833,41.0103],[-91.7943,41.0129],[-91.8081,41.0159],[-91.8191,41.0182],[-91.8327,41.0211],[-91.8438,41.0234],[-91.8549,41.0257],[-91.8666,41.028],[-91.8767,41.0302],[-91.889,41.0327],[-91.9005,41.0351],[-91.9123,41.0353],[-91.9219,41.0355],[-91.9316,41.0357],[-91.9418,41.0357],[-91.9516,41.0357],[-91.9617,41.0357],[-91.971,41.0356],[-91.9712,41.0354]]},{"pid":23513,"name":"27284-Emerald-Pine Lake","proj":"Emerald Substation","ftype":"Line Upgrade","kv":161,"cost":2000000,"status":"Approved","isd":"2025-06-15","iso":"MISO","state":"WI","from_sub":"Emerald","to_sub":"Pine Lake","from_lat":45.11453,"from_lng":-92.276235,"to_lat":46.25606,"to_lng":-90.140726},{"pid":21929,"name":"27301-Dickinson Coutny-Lakefireld","proj":"Forks Switching Station & Forks-Rost 161kV Circuit","ftype":"Line New","kv":161,"cost":0,"status":"Approved","isd":"2026-12-31","iso":"MISO","state":"MN","from_sub":"Dickinson Coutny","to_sub":"Lakefireld","from_lat":47.152067,"from_lng":-92.435223,"to_lat":46.316134,"to_lng":-94.19948},{"pid":23485,"name":"27311-Bison-Colby","proj":"J1174 & J1175 MPFCA - Network Upgrades","ftype":"Line New","kv":345,"cost":2400000,"status":"Approved","isd":"2026-06-01","iso":"MISO","state":"IA","from_sub":"Bison","to_sub":"Colby","from_lat":47.44217,"from_lng":-100.460816,"to_lat":42.070024,"to_lng":-93.493347},{"pid":24232,"name":"27765-ALEXNOKO-ALEXAND7","proj":"ALP SE Substation","ftype":"Substation","kv":115,"cost":1842000,"status":"Approved","isd":"2028-12-31","iso":"MISO","state":"MN","from_sub":"ALEXNOKO","to_sub":"ALEXAND7","from_lat":46.316134,"from_lng":-94.19948,"to_lat":45.902017,"to_lng":-95.420589},{"pid":24272,"name":"27772-Moler-Coly","proj":"J1421 230 kV Interconnection Project","ftype":"Line Upgrade","kv":230,"cost":1,"status":"Construction","isd":"2026-09-01","iso":"MISO","state":"LA","from_sub":"Moler","to_sub":"Coly","from_lat":30.863437,"from_lng":-91.798717,"to_lat":32.43293,"to_lng":-92.677095},{"pid":24294,"name":"27782-Iosco-Karn","proj":"Mio Dam - Twining - J1210 GIA (Quarry) - NU","ftype":"Line New","kv":138,"cost":1357200,"status":"Approved","isd":"2027-05-03","iso":"MISO","state":"MI","from_sub":"Iosco","to_sub":"Karn","from_lat":44.466341,"from_lng":-83.885375,"to_lat":44.634126,"to_lng":-85.703494},{"pid":24333,"name":"27785-Majestic-Milan","proj":"Majestic-Milan - J1224 & J1329 GIA (Neblo) NU","ftype":"Line New","kv":345,"cost":1678800,"status":"Approved","isd":"2028-05-09","iso":"MISO","state":"MI","from_sub":"Majestic","to_sub":"Milan","from_lat":44.844176,"from_lng":-85.660493,"to_lat":42.08532,"to_lng":-83.68244},{"pid":24295,"name":"27790-Marshall-Blackstone","proj":"Marshall - Blackstone (Stable) - J1248 GIA (Bearcat) NU","ftype":"Line New","kv":138,"cost":3170400,"status":"Approved","isd":"2026-04-30","iso":"MISO","state":"MI","from_sub":"Marshall","to_sub":"Blackstone","from_lat":42.265016,"from_lng":-84.948946,"to_lat":44.844176,"to_lng":-85.660493},{"pid":24279,"name":"27799-Cornell-Goss","proj":"Claremont - Cornell #2 - J1297 GIA (Hathon) NU","ftype":"Line New","kv":138,"cost":3981600,"status":"Approved","isd":"2029-12-28","iso":"MISO","state":"MI","from_sub":"Cornell","to_sub":"Goss","from_lat":45.910352,"from_lng":-87.20714,"to_lat":44.844176,"to_lng":-85.660493},{"pid":24279,"name":"27801-Claremont-Cornell","proj":"Claremont - Cornell #2 - J1297 GIA (Hathon) NU","ftype":"Line New","kv":138,"cost":5350800,"status":"Approved","isd":"2028-12-29","iso":"MISO","state":"MI","from_sub":"Claremont","to_sub":"Cornell","from_lat":44.844176,"from_lng":-85.660493,"to_lat":45.910352,"to_lng":-87.20714},{"pid":24317,"name":"27806-Dupont-Cobb","proj":"DuPont - Cobb - J1375 GIA (Lamos) NU","ftype":"Line New","kv":138,"cost":652800,"status":"Approved","isd":"2028-05-01","iso":"MISO","state":"MI","from_sub":"Dupont","to_sub":"Cobb","from_lat":44.844176,"from_lng":-85.660493,"to_lat":42.41892,"to_lng":-86.187529},{"pid":24317,"name":"27809-Dupont-Cobb","proj":"DuPont - Cobb - J1375 GIA (Lamos) NU","ftype":"Line New","kv":138,"cost":543600,"status":"Approved","isd":"2026-06-01","iso":"MISO","state":"MI","from_sub":"Dupont","to_sub":"Cobb","from_lat":44.844176,"from_lng":-85.660493,"to_lat":42.41892,"to_lng":-86.187529},{"pid":24318,"name":"27814-Deja-Derby","proj":"Eureka - Vestaburg - J1379 GIA NU","ftype":"Line New","kv":138,"cost":12793200,"status":"Approved","isd":"2027-04-06","iso":"MISO","state":"MI","from_sub":"Deja","to_sub":"Derby","from_lat":44.844176,"from_lng":-85.660493,"to_lat":44.844176,"to_lng":-85.660493,"matched_coords":[[-85.6915,44.7786],[-85.6893,44.7786],[-85.6893,44.7791],[-85.6893,44.7818],[-85.6893,44.7847],[-85.6981,44.7847],[-85.6994,44.7847],[-85.7048,44.7892],[-85.7049,44.7975],[-85.7049,44.7989],[-85.7049,44.8021],[-85.7089,44.802],[-85.7089,44.8025],[-85.7089,44.8025]]},{"pid":24318,"name":"27815-Derby-Eureka","proj":"Eureka - Vestaburg - J1379 GIA NU","ftype":"Line Upgrade","kv":138,"cost":13827600,"status":"Approved","isd":"2026-05-05","iso":"MISO","state":"MI","from_sub":"Derby","to_sub":"Eureka","from_lat":44.844176,"from_lng":-85.660493,"to_lat":42.944209,"to_lng":-84.600723},{"pid":24318,"name":"27816-Eureka-North Belding","proj":"Eureka - Vestaburg - J1379 GIA NU","ftype":"Line Upgrade","kv":138,"cost":10574400,"status":"Approved","isd":"2026-02-17","iso":"MISO","state":"MI","from_sub":"Eureka","to_sub":"North Belding","from_lat":42.944209,"from_lng":-84.600723,"to_lat":43.09781,"to_lng":-85.22891},{"pid":24282,"name":"27821-Leoni-Parr Road","proj":"Leoni - Parr Road - J1472 GIA(Vargo) NU","ftype":"Line New","kv":138,"cost":3019000,"status":"Approved","isd":"2027-12-01","iso":"MISO","state":"MI","from_sub":"Leoni","to_sub":"Parr Road","from_lat":42.243925,"from_lng":-84.269121,"to_lat":42.823317,"to_lng":-84.211149},{"pid":23887,"name":"27722-J1378 Crosroads Solar-Gen Sub","proj":"J1378 Crossroads Solar","ftype":"Misc.","kv":230,"cost":1,"status":"Construction","isd":"2026-02-15","iso":"MISO","state":"IN","from_sub":"J1378 Crosroads Solar","to_sub":"Gen Sub","from_lat":39.279496,"from_lng":-85.241629,"to_lat":39.903026,"to_lng":-86.28395},{"pid":23886,"name":"27726-J1234-1235 IN Solar 1-Gen and POI Subs","proj":"New J1234 - J1235 IN Solar 1","ftype":"Misc.","kv":138,"cost":11181000,"status":"Construction","isd":"2026-02-28","iso":"MISO","state":"IN","from_sub":"J1234-1235 IN Solar 1","to_sub":"Gen and POI Subs","from_lat":38.548659,"from_lng":-87.471687,"to_lat":41.094004,"to_lng":-85.024649},{"pid":24072,"name":"27732-Alfred-Frisbie","proj":"Resource Equipment Removal and Bypass","ftype":"Line New","kv":120,"cost":3070000,"status":"Approved","isd":"2025-12-31","iso":"MISO","state":"MI","from_sub":"Alfred","to_sub":"Frisbie","from_lat":44.844176,"from_lng":-85.660493,"to_lat":44.844176,"to_lng":-85.660493,"matched_coords":[[-85.6915,44.7786],[-85.6893,44.7786],[-85.6893,44.7791],[-85.6893,44.7818],[-85.6893,44.7847],[-85.6981,44.7847],[-85.6994,44.7847],[-85.7048,44.7892],[-85.7049,44.7975],[-85.7049,44.7989],[-85.7049,44.8021],[-85.7089,44.802],[-85.7089,44.8025],[-85.7089,44.8025]]},{"pid":24413,"name":"27842-Moranville-Lund","proj":"Richer-Littlefork 230 kV Line Rebuild","ftype":"Line Upgrade","kv":230,"cost":360000,"status":"Approved","isd":"2025-02-28","iso":"MISO","state":"MN","from_sub":"Moranville","to_sub":"Lund","from_lat":46.316134,"from_lng":-94.19948,"to_lat":44.399913,"to_lng":-95.937984},{"pid":24113,"name":"27742-Cole-Penton","proj":"J1424 Singer Substation","ftype":"Misc.","kv":230,"cost":2967565,"status":"Approved","isd":"2026-10-15","iso":"MISO","state":"LA","from_sub":"Cole","to_sub":"Penton","from_lat":32.43293,"from_lng":-92.677095,"to_lat":30.863437,"to_lng":-91.798717},{"pid":24413,"name":"27843-Lund-Littlefork","proj":"Richer-Littlefork 230 kV Line Rebuild","ftype":"Line Upgrade","kv":230,"cost":540000,"status":"Approved","isd":"2026-02-28","iso":"MISO","state":"MN","from_sub":"Lund","to_sub":"Littlefork","from_lat":44.399913,"from_lng":-95.937984,"to_lat":48.357144,"to_lng":-93.612836},{"pid":24375,"name":"27844-Center-Jamestown","proj":"Center-Maple River 345 kV Foundation Restoration","ftype":"Line Upgrade","kv":345,"cost":4400000,"status":"Approved","isd":"2028-12-31","iso":"MISO","state":"ND","from_sub":"Center","to_sub":"Jamestown","from_lat":47.145874,"from_lng":-101.159363,"to_lat":46.921005,"to_lng":-98.745485},{"pid":24375,"name":"27845-Jamestown-Buffalo","proj":"Center-Maple River 345 kV Foundation Restoration","ftype":"Line Upgrade","kv":345,"cost":2000000,"status":"Approved","isd":"2028-12-31","iso":"MISO","state":"ND","from_sub":"Jamestown","to_sub":"Buffalo","from_lat":46.921005,"from_lng":-98.745485,"to_lat":46.920016,"to_lng":-97.557491},{"pid":24375,"name":"27846-Buffalo-Bison","proj":"Center-Maple River 345 kV Foundation Restoration","ftype":"Line Upgrade","kv":345,"cost":750000,"status":"Approved","isd":"2028-12-31","iso":"MISO","state":"ND","from_sub":"Buffalo","to_sub":"Bison","from_lat":46.920016,"from_lng":-97.557491,"to_lat":47.44217,"to_lng":-100.460816},{"pid":9994,"name":"27749-Custer-Monroe","proj":"Custer - Monroe 120 kV Line Rebuild","ftype":"Line Upgrade","kv":120,"cost":18100000,"status":"Construction","isd":"2026-12-31","iso":"MISO","state":"MI","from_sub":"Custer","to_sub":"Monroe","from_lat":43.932434,"from_lng":-86.177683,"to_lat":41.907196,"to_lng":-83.472457},{"pid":9994,"name":"27750-Custer-Monroe","proj":"Custer - Monroe 120 kV Line Rebuild","ftype":"Line New","kv":120,"cost":15100000,"status":"In Service","isd":"2025-04-30","iso":"MISO","state":"MI","from_sub":"Custer","to_sub":"Monroe","from_lat":43.932434,"from_lng":-86.177683,"to_lat":41.907196,"to_lng":-83.472457},{"pid":50552,"name":"Line: Forman - Hankinson - 230 kV","proj":"LRTP-19: Bison - Alexandria","ftype":"Line Upgrade","kv":230,"cost":66500000,"status":"Approved","isd":"2032-06-01","iso":"MISO","state":"ND","from_sub":"Forman","to_sub":"Hankinson","from_lat":46.058634,"from_lng":-97.633282,"to_lat":46.073423,"to_lng":-96.92473,"matched_coords":[[-97.6324,46.096],[-97.6235,46.0957],[-97.6084,46.0956],[-97.5935,46.0955],[-97.5771,46.0954],[-97.5612,46.0953],[-97.5457,46.0952],[-97.5301,46.0952],[-97.5171,46.0952],[-97.5069,46.0952],[-97.496,46.1046],[-97.4911,46.1089],[-97.473,46.1088],[-97.4564,46.1087],[-97.4423,46.1086],[-97.4186,46.1084],[-97.3957,46.1083],[-97.3745,46.1081],[-97.3528,46.1081],[-97.3302,46.1081],[-97.3144,46.1082],[-97.2956,46.1081],[-97.2799,46.1082],[-97.2591,46.1082],[-97.2456,46.1099],[-97.2323,46.1104],[-97.2161,46.1103],[-97.1978,46.1101],[-97.1717,46.115],[-97.1477,46.1159],[-97.1245,46.116],[-97.1043,46.1162],[-97.0861,46.1164],[-97.0654,46.1166],[-97.045,46.1168],[-97.022,46.1169],[-96.995,46.1173],[-96.9776,46.1172],[-96.9597,46.1171],[-96.9436,46.1171],[-96.9236,46.1171],[-96.9077,46.117],[-96.8907,46.1172],[-96.8882,46.1172]]},{"pid":50553,"name":"Line: Maple River - ND/MN State Line - 345 kV","proj":"LRTP-20: Maple River - Cuyuna","ftype":"Line New","kv":345,"cost":29700000,"status":"Approved","isd":"2033-06-01","iso":"MISO","state":"ND","from_sub":"Maple River","to_sub":"ND/MN State Line","from_lat":47.44217,"from_lng":-100.460816,"to_lat":47.44217,"to_lng":-100.460816},{"pid":50553,"name":"Line: ND/MN State Line - Cuyuna - 345 kV","proj":"LRTP-20: Maple River - Cuyuna","ftype":"Line New","kv":345,"cost":856900000,"status":"Approved","isd":"2033-06-01","iso":"MISO","state":"MN","from_sub":"ND/MN State Line","to_sub":"Cuyuna","from_lat":47.44217,"from_lng":-100.460816,"to_lat":46.516906,"to_lng":-93.923037},{"pid":50555,"name":"Line: Big Stone South - Brookings County - 765 kV","proj":"LRTP-22: Big Stone South - Brookings County - Lakefield Junction","ftype":"Line New","kv":765,"cost":310100000,"status":"Approved","isd":"2034-06-01","iso":"MISO","state":"SD","from_sub":"Big Stone South","to_sub":"Brookings County","from_lat":45.29163,"from_lng":-96.46283,"to_lat":44.376675,"to_lng":-96.797797},{"pid":50556,"name":"Line: Lakefield Junction - MN/IA State Line - 765 kV","proj":"LRTP-23: Lakefield Junction - East Adair","ftype":"Line New","kv":765,"cost":92200000,"status":"Approved","isd":"2034-06-01","iso":"MISO","state":"MN","from_sub":"Lakefield Junction","to_sub":"MN/IA State Line","from_lat":43.678125,"from_lng":-95.171548,"to_lat":47.532424,"to_lng":-92.107672},{"pid":50556,"name":"Line: MN/IA State Line - East Adair - 765 kV","proj":"LRTP-23: Lakefield Junction - East Adair","ftype":"Line New","kv":765,"cost":874100000,"status":"Approved","isd":"2034-06-01","iso":"MISO","state":"IA","from_sub":"MN/IA State Line","to_sub":"East Adair","from_lat":47.532424,"from_lng":-92.107672,"to_lat":41.439109,"to_lng":-94.633805},{"pid":50556,"name":"Line: Orient - Deadend East of York Avenue - 345 kV","proj":"LRTP-23: Lakefield Junction - East Adair","ftype":"Line Upgrade","kv":345,"cost":22200000,"status":"Approved","isd":"2032-06-01","iso":"MISO","state":"IA","from_sub":"Orient","to_sub":"Deadend East of York Avenue","from_lat":41.215096,"from_lng":-94.423224,"to_lat":42.070024,"to_lng":-93.493347},{"pid":50556,"name":"Line: Deadend East of York Avenue - East Adair - 345 kV","proj":"LRTP-23: Lakefield Junction - East Adair","ftype":"Line New","kv":345,"cost":36900000,"status":"Approved","isd":"2032-06-01","iso":"MISO","state":"IA","from_sub":"Deadend East of York Avenue","to_sub":"East Adair","from_lat":42.070024,"from_lng":-93.493347,"to_lat":41.439109,"to_lng":-94.633805},{"pid":50556,"name":"Line: East Adair - Arbor Hill - 345 kV","proj":"LRTP-23: Lakefield Junction - East Adair","ftype":"Line New","kv":345,"cost":73800000,"status":"Approved","isd":"2032-06-01","iso":"MISO","state":"IA","from_sub":"East Adair","to_sub":"Arbor Hill","from_lat":41.439109,"from_lng":-94.633805,"to_lat":43.192887,"to_lng":-96.180883},{"pid":50557,"name":"Line: Lakefield Junction - Pleasant Valley - 765 kV","proj":"LRTP-24: Lakefield Junction - Pleasant Valley - North Rochester","ftype":"Line New","kv":765,"cost":671600000,"status":"Approved","isd":"2034-06-01","iso":"MISO","state":"MN","from_sub":"Lakefield Junction","to_sub":"Pleasant Valley","from_lat":43.678125,"from_lng":-95.171548,"to_lat":45.49674,"to_lng":-94.27201},{"pid":50557,"name":"Line: Pleasant Valley - North Rochester - 765 kV","proj":"LRTP-24: Lakefield Junction - Pleasant Valley - North Rochester","ftype":"Line New","kv":765,"cost":160900000,"status":"Approved","isd":"2034-06-01","iso":"MISO","state":"MN","from_sub":"Pleasant Valley","to_sub":"North Rochester","from_lat":45.49674,"from_lng":-94.27201,"to_lat":44.075285,"to_lng":-92.516916},{"pid":50558,"name":"Line: Pleasant Valley - North Rochester - 345 kV","proj":"LRTP-25: Pleasant Valley - North Rochester - Hampton Corner","ftype":"Line Upgrade","kv":345,"cost":186300000,"status":"Approved","isd":"2032-06-01","iso":"MISO","state":"MN","from_sub":"Pleasant Valley","to_sub":"North Rochester","from_lat":45.49674,"from_lng":-94.27201,"to_lat":44.075285,"to_lng":-92.516916},{"pid":50559,"name":"Line: North Rochester - Existing 161kV Line Near Marion - 765 kV","proj":"LRTP-26: North Rochester - Columbia","ftype":"Line New","kv":765,"cost":175000000,"status":"Approved","isd":"2034-06-01","iso":"MISO","state":"MN","from_sub":"North Rochester","to_sub":"Existing 161kV Line Near Marion","from_lat":44.075285,"from_lng":-92.516916,"to_lat":43.943575,"to_lng":-92.348225},{"pid":50559,"name":"Line: Existing 161kV Line Near Marion - Existing 161kV Line Near Adams - 765 kV","proj":"LRTP-26: North Rochester - Columbia","ftype":"Line Upgrade","kv":765,"cost":195100000,"status":"Approved","isd":"2034-06-01","iso":"MISO","state":"MN","from_sub":"Existing 161kV Line Near Marion","to_sub":"Existing 161kV Line Near Adams","from_lat":43.943575,"from_lng":-92.348225,"to_lat":43.565168,"to_lng":-92.74389},{"pid":50559,"name":"Line: Existing 161kV Line Near Adams - MN/WI State Line (Existing Genoa River Crossing) - 765 kV","proj":"LRTP-26: North Rochester - Columbia","ftype":"Line Upgrade","kv":765,"cost":444900000,"status":"Approved","isd":"2034-06-01","iso":"MISO","state":"MN","from_sub":"Existing 161kV Line Near Adams","to_sub":"MN/WI State Line (Existing Genoa River Crossing)","from_lat":43.565168,"from_lng":-92.74389,"to_lat":44.10977,"to_lng":-92.60392},{"pid":50559,"name":"Line: MN/WI State Line (Existing Genoa River Crossing) - Existing 161kV Line Near Bell Center - 765 kV","proj":"LRTP-26: North Rochester - Columbia","ftype":"Line Upgrade","kv":765,"cost":238700000,"status":"Approved","isd":"2034-06-01","iso":"MISO","state":"WI","from_sub":"MN/WI State Line (Existing Genoa River Crossing)","to_sub":"Existing 161kV Line Near Bell Center","from_lat":44.10977,"from_lng":-92.60392,"to_lat":43.291646,"to_lng":-90.826794},{"pid":50559,"name":"Line: Existing 161kV Line Near Bell Center - Columbia - 765 kV","proj":"LRTP-26: North Rochester - Columbia","ftype":"Line New","kv":765,"cost":570600000,"status":"Approved","isd":"2034-06-01","iso":"MISO","state":"WI","from_sub":"Existing 161kV Line Near Bell Center","to_sub":"Columbia","from_lat":43.291646,"from_lng":-90.826794,"to_lat":43.471882,"to_lng":-89.330472},{"pid":50561,"name":"Line: Jefferson - Fort Atkinson - 345 kV","proj":"LRTP-28: South Fond du Lac - Rockdale - Big Bend - Sugar Creek  - Kitty Hawk","ftype":"Line Upgrade","kv":345,"cost":24900000,"status":"Approved","isd":"2033-06-01","iso":"MISO","state":"WI","from_sub":"Jefferson","to_sub":"Fort Atkinson","from_lat":42.993502,"from_lng":-88.759793,"to_lat":42.926467,"to_lng":-88.841626},{"pid":50562,"name":"Line: Granville - Deadend for Butler/Tosa/Tamarack Tap - 345 kV","proj":"LRTP-29: Bluemound - Arcadian - Waukesha - Muskego - Elm Road - Racine","ftype":"Line Upgrade","kv":345,"cost":0,"status":"Approved","isd":"2032-06-01","iso":"MISO","state":"WI","from_sub":"Granville","to_sub":"Deadend for Butler/Tosa/Tamarack Tap","from_lat":44.286983,"from_lng":-88.556406,"to_lat":44.174962,"to_lng":-91.44793},{"pid":50562,"name":"Line: Deadend for Butler/Tosa/Tamarack Tap - Butler - 345 kV","proj":"LRTP-29: Bluemound - Arcadian - Waukesha - Muskego - Elm Road - Racine","ftype":"Line Upgrade","kv":345,"cost":9800000,"status":"Approved","isd":"2032-06-01","iso":"MISO","state":"WI","from_sub":"Deadend for Butler/Tosa/Tamarack Tap","to_sub":"Butler","from_lat":44.174962,"from_lng":-91.44793,"to_lat":43.108459,"to_lng":-88.071489},{"pid":50562,"name":"Line: Line 5401 - Bluemound - 345 kV","proj":"LRTP-29: Bluemound - Arcadian - Waukesha - Muskego - Elm Road - Racine","ftype":"Line Upgrade","kv":345,"cost":10900000,"status":"Approved","isd":"2032-06-01","iso":"MISO","state":"WI","from_sub":"Line 5401","to_sub":"Bluemound","from_lat":44.630907,"from_lng":-89.709392,"to_lat":43.03822,"to_lng":-89.804576},{"pid":50562,"name":"Line: Bluemound - Deadend for Triple-Circuit South of Bluemound - 345 kV","proj":"LRTP-29: Bluemound - Arcadian - Waukesha - Muskego - Elm Road - Racine","ftype":"Line New","kv":345,"cost":13000000,"status":"Approved","isd":"2030-04-30","iso":"MISO","state":"WI","from_sub":"Bluemound","to_sub":"Deadend for Triple-Circuit South of Bluemound","from_lat":43.03822,"from_lng":-89.804576,"to_lat":42.886773,"to_lng":-89.729003},{"pid":50562,"name":"Line: Deadend for Triple-Circuit South of Bluemound - Elm Road - 345 kV","proj":"LRTP-29: Bluemound - Arcadian - Waukesha - Muskego - Elm Road - Racine","ftype":"Line Upgrade","kv":345,"cost":137900000,"status":"Approved","isd":"2030-04-30","iso":"MISO","state":"WI","from_sub":"Deadend for Triple-Circuit South of Bluemound","to_sub":"Elm Road","from_lat":42.886773,"from_lng":-89.729003,"to_lat":44.630907,"to_lng":-89.709392},{"pid":50562,"name":"Line: Deadend for Triple-Circuit South of Bluemound - Arcadian - 345 kV","proj":"LRTP-29: Bluemound - Arcadian - Waukesha - Muskego - Elm Road - Racine","ftype":"Line Upgrade","kv":345,"cost":34400000,"status":"Approved","isd":"2030-04-30","iso":"MISO","state":"WI","from_sub":"Deadend for Triple-Circuit South of Bluemound","to_sub":"Arcadian","from_lat":42.886773,"from_lng":-89.729003,"to_lat":44.251711,"to_lng":-91.387699},{"pid":50562,"name":"Line: Arcadian - Muskego Dam Road - 345 kV","proj":"LRTP-29: Bluemound - Arcadian - Waukesha - Muskego - Elm Road - Racine","ftype":"Line Upgrade","kv":345,"cost":81200000,"status":"Approved","isd":"2030-04-30","iso":"MISO","state":"WI","from_sub":"Arcadian","to_sub":"Muskego Dam Road","from_lat":44.251711,"from_lng":-91.387699,"to_lat":42.88799,"to_lng":-88.132708},{"pid":50562,"name":"Line: Muskego Dam Road - 3.3 Miles West of Elm Road - 345 kV","proj":"LRTP-29: Bluemound - Arcadian - Waukesha - Muskego - Elm Road - Racine","ftype":"Line Upgrade","kv":345,"cost":81200000,"status":"Approved","isd":"2030-04-30","iso":"MISO","state":"WI","from_sub":"Muskego Dam Road","to_sub":"3.3 Miles West of Elm Road","from_lat":42.88799,"from_lng":-88.132708,"to_lat":43.78213,"to_lng":-89.325877},{"pid":50562,"name":"Line: 3.3 Miles West of Elm Road - Elm Road - 345 kV","proj":"LRTP-29: Bluemound - Arcadian - Waukesha - Muskego - Elm Road - Racine","ftype":"Line New","kv":345,"cost":23000000,"status":"Approved","isd":"2030-04-30","iso":"MISO","state":"WI","from_sub":"3.3 Miles West of Elm Road","to_sub":"Elm Road","from_lat":43.78213,"from_lng":-89.325877,"to_lat":44.630907,"to_lng":-89.709392},{"pid":50562,"name":"Line: Elm Road - Deadend North of Existing 345/138kV - 345 kV","proj":"LRTP-29: Bluemound - Arcadian - Waukesha - Muskego - Elm Road - Racine","ftype":"Line New","kv":345,"cost":14000000,"status":"Approved","isd":"2028-01-31","iso":"MISO","state":"WI","from_sub":"Elm Road","to_sub":"Deadend North of Existing 345/138kV","from_lat":44.630907,"from_lng":-89.709392,"to_lat":44.630907,"to_lng":-89.709392},{"pid":50564,"name":"Line: IL/WI State Line - Collins (PJM) - 765 kV","proj":"LRTP-31: Sugar Creek - Collins","ftype":"Line New","kv":765,"cost":521600000,"status":"Approved","isd":"2034-06-01","iso":"MISO","state":"IL","from_sub":"IL/WI State Line","to_sub":"Collins (PJM)","from_lat":44.9511,"from_lng":-88.04677,"to_lat":40.102875,"to_lng":-89.152611},{"pid":50565,"name":"Line: Denver - Ludington - 345 kV","proj":"LRTP-32: Ludington - Denver - Tittabawassee & Nelson Road","ftype":"Line New","kv":345,"cost":912900000,"status":"Approved","isd":"2032-06-01","iso":"MISO","state":"MI","from_sub":"Denver","to_sub":"Ludington","from_lat":44.844176,"from_lng":-85.660493,"to_lat":43.998926,"to_lng":-86.349439},{"pid":50565,"name":"Line: Denver - Nelson Road - 345 kV","proj":"LRTP-32: Ludington - Denver - Tittabawassee & Nelson Road","ftype":"Line New","kv":345,"cost":0,"status":"Approved","isd":"2032-06-01","iso":"MISO","state":"MI","from_sub":"Denver","to_sub":"Nelson Road","from_lat":44.844176,"from_lng":-85.660493,"to_lat":43.334192,"to_lng":-84.229706},{"pid":50566,"name":"Line: IN/MI State Line - Lulu - 765 kV","proj":"LRTP-33: Greentown - Sorenson - Lulu","ftype":"Line New","kv":765,"cost":359800000,"status":"Approved","isd":"2033-06-01","iso":"MISO","state":"MI","from_sub":"IN/MI State Line","to_sub":"Lulu","from_lat":39.419731,"from_lng":-87.41155,"to_lat":41.879769,"to_lng":-83.61077},{"pid":50567,"name":"Line: Oneida - Existing 138kV Line Near Williamston - 345 kV","proj":"LRTP-34: Oneida - Sabine Lake - Blackfoot & Majestic ","ftype":"Line New","kv":345,"cost":172100000,"status":"Approved","isd":"2032-06-01","iso":"MISO","state":"MI","from_sub":"Oneida","to_sub":"Existing 138kV Line Near Williamston","from_lat":44.844176,"from_lng":-85.660493,"to_lat":42.680434,"to_lng":-84.271215},{"pid":50567,"name":"Line: I-96 - Madrid - 345 kV","proj":"LRTP-34: Oneida - Sabine Lake - Blackfoot & Majestic ","ftype":"Line Upgrade","kv":345,"cost":17000000,"status":"Approved","isd":"2032-06-01","iso":"MISO","state":"MI","from_sub":"I-96","to_sub":"Madrid","from_lat":44.844176,"from_lng":-85.660493,"to_lat":44.844176,"to_lng":-85.660493},{"pid":50567,"name":"Line: Madrid - Calla - 345 kV","proj":"LRTP-34: Oneida - Sabine Lake - Blackfoot & Majestic ","ftype":"Line Upgrade","kv":345,"cost":6100000,"status":"Approved","isd":"2032-06-01","iso":"MISO","state":"MI","from_sub":"Madrid","to_sub":"Calla","from_lat":44.844176,"from_lng":-85.660493,"to_lat":43.170497,"to_lng":-83.707374},{"pid":50567,"name":"Line: Madrid - Calla - 120 kV","proj":"LRTP-34: Oneida - Sabine Lake - Blackfoot & Majestic ","ftype":"Line Upgrade","kv":120,"cost":28600000,"status":"Approved","isd":"2032-06-01","iso":"MISO","state":"MI","from_sub":"Madrid","to_sub":"Calla","from_lat":44.844176,"from_lng":-85.660493,"to_lat":43.170497,"to_lng":-83.707374},{"pid":50567,"name":"Line: Calla - Majestic - 345 kV","proj":"LRTP-34: Oneida - Sabine Lake - Blackfoot & Majestic ","ftype":"Line Upgrade","kv":345,"cost":3100000,"status":"Approved","isd":"2032-06-01","iso":"MISO","state":"MI","from_sub":"Calla","to_sub":"Majestic","from_lat":43.170497,"from_lng":-83.707374,"to_lat":44.844176,"to_lng":-85.660493},{"pid":50567,"name":"Line: Calla - Majestic - 120 kV","proj":"LRTP-34: Oneida - Sabine Lake - Blackfoot & Majestic ","ftype":"Line Upgrade","kv":120,"cost":4300000,"status":"Approved","isd":"2032-06-01","iso":"MISO","state":"MI","from_sub":"Calla","to_sub":"Majestic","from_lat":43.170497,"from_lng":-83.707374,"to_lat":44.844176,"to_lng":-85.660493},{"pid":50567,"name":"Line: Crimson - Jewell - 345 kV","proj":"LRTP-34: Oneida - Sabine Lake - Blackfoot & Majestic ","ftype":"Line Upgrade","kv":345,"cost":4000000,"status":"Approved","isd":"2032-06-01","iso":"MISO","state":"MI","from_sub":"Crimson","to_sub":"Jewell","from_lat":44.844176,"from_lng":-85.660493,"to_lat":44.844176,"to_lng":-85.660493},{"pid":50567,"name":"Line: Pontiac  - Crimson #2 - 345 kV","proj":"LRTP-34: Oneida - Sabine Lake - Blackfoot & Majestic ","ftype":"Line Upgrade","kv":345,"cost":5500000,"status":"Approved","isd":"2032-06-01","iso":"MISO","state":"MI","from_sub":"Pontiac","to_sub":"Crimson #2","from_lat":42.670272,"from_lng":-83.289036,"to_lat":44.844176,"to_lng":-85.660493},{"pid":50568,"name":"Line: Pike County - Petersburg - 345 kV","proj":"LRTP-35: Southwest Indiana-Kentucky","ftype":"Line New","kv":345,"cost":15900000,"status":"Approved","isd":"2032-06-01","iso":"MISO","state":"IN","from_sub":"Pike County","to_sub":"Petersburg","from_lat":38.397961,"from_lng":-87.232547,"to_lat":38.459787,"to_lng":-87.298174},{"pid":50568,"name":"Line: Pike County - Duff - 345 kV","proj":"LRTP-35: Southwest Indiana-Kentucky","ftype":"Line New","kv":345,"cost":61500000,"status":"Approved","isd":"2030-10-01","iso":"MISO","state":"IN","from_sub":"Pike County","to_sub":"Duff","from_lat":38.397961,"from_lng":-87.232547,"to_lat":38.327274,"to_lng":-87.026389},{"pid":50568,"name":"Line: Duff - Culley 345kV - 345 kV","proj":"LRTP-35: Southwest Indiana-Kentucky","ftype":"Line New","kv":345,"cost":110700000,"status":"Approved","isd":"2029-12-31","iso":"MISO","state":"IN","from_sub":"Duff","to_sub":"Culley 345kV","from_lat":38.327274,"from_lng":-87.026389,"to_lat":39.138389,"to_lng":-84.988288},{"pid":50568,"name":"Line: Culley 345kV - IN/KY State Line - 345 kV","proj":"LRTP-35: Southwest Indiana-Kentucky","ftype":"Line New","kv":345,"cost":2800000,"status":"Approved","isd":"2029-07-01","iso":"MISO","state":"IN","from_sub":"Culley 345kV","to_sub":"IN/KY State Line","from_lat":39.138389,"from_lng":-84.988288,"to_lat":39.419731,"to_lng":-87.41155},{"pid":50568,"name":"Line: Culley 345kV - Darlington - 138 kV","proj":"LRTP-35: Southwest Indiana-Kentucky","ftype":"Line New","kv":138,"cost":0,"status":"Approved","isd":"2029-07-01","iso":"MISO","state":"IN","from_sub":"Culley 345kV","to_sub":"Darlington","from_lat":39.138389,"from_lng":-84.988288,"to_lat":40.107625,"to_lng":-86.777653},{"pid":50569,"name":"Line: Greensboro - Madison County - 345 kV","proj":"LRTP-36: Southeast Indiana","ftype":"Line New","kv":345,"cost":37400000,"status":"Approved","isd":"2032-06-01","iso":"MISO","state":"IN","from_sub":"Greensboro","to_sub":"Madison County","from_lat":39.878933,"from_lng":-85.464036,"to_lat":40.166203,"to_lng":-85.722454},{"pid":50569,"name":"Line: Decatur County - Greensburg - 138 kV","proj":"LRTP-36: Southeast Indiana","ftype":"Line Upgrade","kv":138,"cost":8700000,"status":"Approved","isd":"2032-06-01","iso":"MISO","state":"IN","from_sub":"Decatur County","to_sub":"Greensburg","from_lat":39.30598,"from_lng":-85.499831,"to_lat":39.299802,"to_lng":-85.491781},{"pid":50569,"name":"Line: Batesville - Hubbell - 138 kV","proj":"LRTP-36: Southeast Indiana","ftype":"Line Upgrade","kv":138,"cost":27900000,"status":"Approved","isd":"2032-06-01","iso":"MISO","state":"IN","from_sub":"Batesville","to_sub":"Hubbell","from_lat":39.30005,"from_lng":-85.22218,"to_lat":39.183099,"to_lng":-87.012232},{"pid":50569,"name":"Line: Hubbell - Greendale - 138 kV","proj":"LRTP-36: Southeast Indiana","ftype":"Line Upgrade","kv":138,"cost":49300000,"status":"Approved","isd":"2032-06-01","iso":"MISO","state":"IN","from_sub":"Hubbell","to_sub":"Greendale","from_lat":39.183099,"from_lng":-87.012232,"to_lat":41.113382,"to_lng":-85.088859},{"pid":50569,"name":"Line: Greendale - IN/OH State Line - 138 kV","proj":"LRTP-36: Southeast Indiana","ftype":"Line Upgrade","kv":138,"cost":9700000,"status":"Approved","isd":"2032-06-01","iso":"MISO","state":"IN","from_sub":"Greendale","to_sub":"IN/OH State Line","from_lat":41.113382,"from_lng":-85.088859,"to_lat":40.19674,"to_lng":-87.526532},{"pid":50569,"name":"Line: IN/OH State Line - Miami Fort (PJM) - 138 kV","proj":"LRTP-36: Southeast Indiana","ftype":"Line Upgrade","kv":138,"cost":3100000,"status":"Approved","isd":"2032-06-01","iso":"MISO","state":"OH","from_sub":"IN/OH State Line","to_sub":"Miami Fort (PJM)","from_lat":40.19674,"from_lng":-87.526532,"to_lat":40.053326,"to_lng":-84.228414},{"pid":50570,"name":"Line: Maywood - Palmyra - 345 kV","proj":"LRTP-37: Maywood - Belleau - MRPD - Sioux - Bugle","ftype":"Line New","kv":345,"cost":9700000,"status":"Approved","isd":"2032-06-01","iso":"MISO","state":"MO","from_sub":"Maywood","to_sub":"Palmyra","from_lat":39.954212,"from_lng":-91.603214,"to_lat":39.794531,"to_lng":-91.609424},{"pid":50570,"name":"Line: Finn Tap - Belleau - 345 kV","proj":"LRTP-37: Maywood - Belleau - MRPD - Sioux - Bugle","ftype":"Line Upgrade","kv":345,"cost":361300000,"status":"Approved","isd":"2032-06-01","iso":"MISO","state":"MO","from_sub":"Finn Tap","to_sub":"Belleau","from_lat":38.16992,"from_lng":-91.968002,"to_lat":38.204321,"to_lng":-91.756633},{"pid":50570,"name":"Line: Belleau - MRPD - 345 kV","proj":"LRTP-37: Maywood - Belleau - MRPD - Sioux - Bugle","ftype":"Line Upgrade","kv":345,"cost":79900000,"status":"Approved","isd":"2032-06-01","iso":"MISO","state":"MO","from_sub":"Belleau","to_sub":"MRPD","from_lat":38.204321,"from_lng":-91.756633,"to_lat":38.523631,"to_lng":-93.21576},{"pid":50570,"name":"Line: MRPD - 3-Way Junction - 345 kV","proj":"LRTP-37: Maywood - Belleau - MRPD - Sioux - Bugle","ftype":"Line New","kv":345,"cost":22100000,"status":"Approved","isd":"2032-06-01","iso":"MISO","state":"MO","from_sub":"MRPD","to_sub":"3-Way Junction","from_lat":38.523631,"from_lng":-93.21576,"to_lat":37.576442,"to_lng":-90.288174},{"pid":50570,"name":"Line: 3-Way Junction - Bugle - 345 kV","proj":"LRTP-37: Maywood - Belleau - MRPD - Sioux - Bugle","ftype":"Line New","kv":345,"cost":48700000,"status":"Approved","isd":"2032-06-01","iso":"MISO","state":"MO","from_sub":"3-Way Junction","to_sub":"Bugle","from_lat":37.576442,"from_lng":-90.288174,"to_lat":38.35075,"to_lng":-92.456783},{"pid":50570,"name":"Line: Bugle - IL/MO State Line - 345 kV","proj":"LRTP-37: Maywood - Belleau - MRPD - Sioux - Bugle","ftype":"Line Upgrade","kv":345,"cost":79700000,"status":"Approved","isd":"2032-06-01","iso":"MISO","state":"MO","from_sub":"Bugle","to_sub":"IL/MO State Line","from_lat":38.35075,"from_lng":-92.456783,"to_lat":38.497711,"to_lng":-91.787954},{"pid":50571,"name":"Line: East Adair - Marshalltown (Twinkle) - 765 kV","proj":"LRTP-38: East Adair - Marshalltown - Sub T","ftype":"Line New","kv":765,"cost":566200000,"status":"Approved","isd":"2034-06-01","iso":"MISO","state":"IA","from_sub":"East Adair","to_sub":"Marshalltown (Twinkle)","from_lat":41.439109,"from_lng":-94.633805,"to_lat":42.036096,"to_lng":-92.998867},{"pid":50572,"name":"Line: Lehigh - Marshalltown (Twinkle) - 345 kV","proj":"LRTP-39: Lehigh - Marshalltown - Franklin North & Montezuma","ftype":"Line New","kv":345,"cost":284200000,"status":"Approved","isd":"2032-06-01","iso":"MISO","state":"IA","from_sub":"Lehigh","to_sub":"Marshalltown (Twinkle)","from_lat":42.390452,"from_lng":-94.048108,"to_lat":42.036096,"to_lng":-92.998867},{"pid":50572,"name":"Line: Marshalltown (Twinkle) - Montezuma - 345 kV","proj":"LRTP-39: Lehigh - Marshalltown - Franklin North & Montezuma","ftype":"Line New","kv":345,"cost":208400000,"status":"Approved","isd":"2032-06-01","iso":"MISO","state":"IA","from_sub":"Marshalltown (Twinkle)","to_sub":"Montezuma","from_lat":42.036096,"from_lng":-92.998867,"to_lat":41.605693,"to_lng":-92.473857},{"pid":50573,"name":"Line: IA/IL State Line - Oak Grove - 345 kV","proj":"LRTP-40: Sub T - Woodford County - Collins & Reynolds","ftype":"Line Upgrade","kv":345,"cost":79700000,"status":"Approved","isd":"2034-06-01","iso":"MISO","state":"IL","from_sub":"IA/IL State Line","to_sub":"Oak Grove","from_lat":40.740697,"from_lng":-93.748889,"to_lat":41.410589,"to_lng":-90.570691},{"pid":50574,"name":"Line: Near Woodford County - Radbourn - 345 kV","proj":"LRTP-41: Woodford County - Fargo & Radbourn","ftype":"Line Upgrade","kv":345,"cost":185000000,"status":"Approved","isd":"2032-06-01","iso":"MISO","state":"IL","from_sub":"Near Woodford County","to_sub":"Radbourn","from_lat":40.789787,"from_lng":-89.210587,"to_lat":40.102875,"to_lng":-89.152611},{"pid":50148,"name":"Havana-Puro-1422 138 kV","proj":"Havana-Puro 138 kV1422 MPFCA","ftype":"Line Upgrade","kv":138,"cost":13200000,"status":"Approved","isd":"2027-12-01","iso":"MISO","state":"MO","from_sub":"Havana","to_sub":"Puro","from_lat":40.30004,"from_lng":-90.06095,"to_lat":38.182527,"to_lng":-94.291894},{"pid":50152,"name":"230 kV Transmission line","proj":"Ellendale load 3 addition","ftype":"Line New","kv":230,"cost":2265527,"status":"Approved","isd":"2027-12-31","iso":"MISO","state":"ND","from_sub":"Ellendale","to_sub":"Ellendale Data Center","from_lat":46.106141,"from_lng":-98.620707,"to_lat":47.145874,"to_lng":-101.159363},{"pid":50154,"name":"California-Overton-1 161 kV Line","proj":"Grain Belt Express AECI Facilities Construction Agreement (GI-083)","ftype":"Line Upgrade","kv":161,"cost":1000000,"status":"Approved","isd":"2027-12-01","iso":"MISO","state":"MO","from_sub":"California","to_sub":"Overton","from_lat":38.625055,"from_lng":-92.550973,"to_lat":38.947811,"to_lng":-92.576296,"matched_coords":[[-92.5814,38.6308],[-92.5814,38.6316],[-92.5813,38.6363],[-92.5811,38.6428],[-92.581,38.6448],[-92.5808,38.6499],[-92.5807,38.654],[-92.5805,38.6574],[-92.5806,38.662],[-92.5805,38.6625],[-92.5812,38.6682],[-92.581,38.6699],[-92.5809,38.6727],[-92.5806,38.6793],[-92.5804,38.6842],[-92.5805,38.687],[-92.5798,38.6978],[-92.5795,38.7082],[-92.5787,38.7201],[-92.5787,38.7241],[-92.5785,38.7307],[-92.5784,38.7349],[-92.5782,38.7375],[-92.5781,38.7425],[-92.578,38.7466],[-92.5779,38.7503],[-92.5777,38.7541],[-92.5776,38.7573],[-92.5776,38.7591],[-92.5776,38.7605],[-92.5774,38.7633],[-92.5771,38.7706],[-92.577,38.7742],[-92.5765,38.7814],[-92.5758,38.8083],[-92.5756,38.8149],[-92.5754,38.8208],[-92.575,38.8398],[-92.575,38.8446],[-92.5748,38.8513],[-92.5747,38.857],[-92.5741,38.8714],[-92.5734,38.8862],[-92.5733,38.8879],[-92.5732,38.8912],[-92.5731,38.8966],[-92.5727,38.9053],[-92.5725,38.916],[-92.5722,38.9227],[-92.5722,38.9227]]},{"pid":50154,"name":"Montgomery-Burns-5481 345 kV Line","proj":"Grain Belt Express AECI Facilities Construction Agreement (GI-083)","ftype":"Line Upgrade","kv":345,"cost":31000000,"status":"Approved","isd":"2027-12-01","iso":"MISO","state":"MO","from_sub":"Montgomery","to_sub":"Burns","from_lat":38.935184,"from_lng":-91.465427,"to_lat":37.636902,"to_lng":-93.396427},{"pid":50154,"name":"Rebuild Loy Martin-Katy-7429 161 kV Line","proj":"Grain Belt Express AECI Facilities Construction Agreement (GI-083)","ftype":"Line Upgrade","kv":161,"cost":5500000,"status":"Approved","isd":"2027-12-01","iso":"MISO","state":"MO","from_sub":"Loy Martin","to_sub":"Katy","from_lat":39.319458,"from_lng":-93.860774,"to_lat":36.720897,"to_lng":-93.680194},{"pid":50157,"name":"Big Cedar to Morgan Valley #2 345 kV line","proj":"Big Cedar Load Expansion","ftype":"Line Upgrade","kv":345,"cost":6997500,"status":"Approved","isd":"2027-09-30","iso":"MISO","state":"IA","from_sub":"Big Cedar","to_sub":"Morgan Valley","from_lat":41.219972,"from_lng":-92.506291,"to_lat":42.037189,"to_lng":-95.256476},{"pid":50157,"name":"Beverly to Hills 345 kV line","proj":"Big Cedar Load Expansion","ftype":"Line Upgrade","kv":345,"cost":159575000,"status":"Approved","isd":"2029-02-28","iso":"MISO","state":"IA","from_sub":"Beverly","to_sub":"Hills","from_lat":42.070024,"from_lng":-93.493347,"to_lat":41.555704,"to_lng":-91.530842},{"pid":50157,"name":"Big Cedar to Customer Line #1","proj":"Big Cedar Load Expansion","ftype":"Line New","kv":345,"cost":1767500,"status":"Approved","isd":"2027-09-30","iso":"MISO","state":"IA","from_sub":"Big Cedar","to_sub":"Customer Owned Substation","from_lat":41.219972,"from_lng":-92.506291,"to_lat":42.542767,"to_lng":-91.353475},{"pid":50157,"name":"Big Cedar to Customer Line #2","proj":"Big Cedar Load Expansion","ftype":"Line New","kv":345,"cost":1767500,"status":"Approved","isd":"2027-09-30","iso":"MISO","state":"IA","from_sub":"Big Cedar","to_sub":"Customer Owned Substation","from_lat":41.219972,"from_lng":-92.506291,"to_lat":42.542767,"to_lng":-91.353475},{"pid":50157,"name":"Big Cedar to Customer Line #3","proj":"Big Cedar Load Expansion","ftype":"Line New","kv":345,"cost":3433750,"status":"Approved","isd":"2028-09-30","iso":"MISO","state":"IA","from_sub":"Big Cedar","to_sub":"Customer Owned Substation","from_lat":41.219972,"from_lng":-92.506291,"to_lat":42.542767,"to_lng":-91.353475},{"pid":50157,"name":"Big Cedar to Customer Line #4","proj":"Big Cedar Load Expansion","ftype":"Line New","kv":345,"cost":3433750,"status":"Approved","isd":"2028-09-30","iso":"MISO","state":"IA","from_sub":"Big Cedar","to_sub":"Customer Owned Substation","from_lat":41.219972,"from_lng":-92.506291,"to_lat":42.542767,"to_lng":-91.353475},{"pid":50157,"name":"Hills - Johnson Line Relocation","proj":"Big Cedar Load Expansion","ftype":"Line Upgrade","kv":345,"cost":2161250,"status":"Approved","isd":"2027-09-30","iso":"MISO","state":"IA","from_sub":"Johnson","to_sub":"Hills","from_lat":41.670668,"from_lng":-91.590529,"to_lat":41.555704,"to_lng":-91.530842,"matched_coords":[[-91.6824,41.7071],[-91.6829,41.7064],[-91.6822,41.7045],[-91.6816,41.7026],[-91.6797,41.7],[-91.6779,41.6975],[-91.6759,41.6947],[-91.6742,41.6923],[-91.672,41.6892],[-91.6703,41.6869],[-91.6677,41.6848],[-91.6648,41.6823],[-91.662,41.68],[-91.659,41.6774],[-91.6564,41.6752],[-91.6545,41.6736],[-91.6517,41.6712],[-91.6492,41.6691],[-91.6474,41.6676],[-91.6446,41.6652],[-91.6421,41.6631],[-91.64,41.6613],[-91.6383,41.6589],[-91.6371,41.657],[-91.6356,41.6549],[-91.6336,41.6523],[-91.6315,41.6491],[-91.6297,41.6465],[-91.6274,41.6433],[-91.6256,41.6407],[-91.6237,41.638],[-91.6216,41.6349],[-91.6198,41.6324],[-91.6175,41.6292],[-91.6157,41.6267],[-91.614,41.6241],[-91.612,41.6212],[-91.6102,41.6187],[-91.608,41.6163],[-91.6053,41.6134],[-91.6028,41.6112],[-91.6,41.6086],[-91.5973,41.6062],[-91.5944,41.6035],[-91.5918,41.6011],[-91.5888,41.5985],[-91.5862,41.5961],[-91.5836,41.5937],[-91.5806,41.591],[-91.5782,41.5888],[-91.5754,41.5863],[-91.5727,41.5839],[-91.5699,41.5813],[-91.5673,41.579],[-91.5649,41.5767],[-91.5621,41.5742],[-91.5593,41.5717],[-91.5565,41.5717],[-91.5531,41.5717],[-91.5496,41.5718],[-91.5462,41.5718],[-91.5421,41.5718],[-91.5379,41.5719],[-91.5364,41.5717],[-91.536,41.5706],[-91.536,41.5706]]},{"pid":50160,"name":"2nd Andrus 230/115 Autotransformer","proj":"J1672 Network Upgrades: Gerald Andrus 230kV Auto","ftype":"Transformer","kv":230,"cost":19750000,"status":"Approved","isd":"2028-06-15","iso":"MISO","state":"MS","from_sub":"Andrus 230","to_sub":"Andrus 115","from_lat":32.686471,"from_lng":-89.656138,"to_lat":32.686471,"to_lng":-89.656138},{"pid":50161,"name":"Empire Mine \u2013 Huron 138 kV (X-119), OPGW Addition","proj":"Empire Mine \u2013 Huron 138 kV (X-119), OPGW Addition","ftype":"Misc.","kv":138,"cost":13000000,"status":"Approved","isd":"2028-04-15","iso":"MISO","state":"MI","from_sub":"Empire Mine","to_sub":"Huron","from_lat":44.81111,"from_lng":-86.06009,"to_lat":44.996329,"to_lng":-83.667641},{"pid":15449,"name":"23545-Ottumwa Generation-Ottumwa Heights","proj":"Ottumwa Heights 161kV Substation Interconnection","ftype":"Line New","kv":161,"cost":2916000,"status":"Approved","isd":"2029-06-26","iso":"MISO","state":"IA","from_sub":"Ottumwa Generation","to_sub":"Ottumwa Heights","from_lat":41.030933,"from_lng":-92.409827,"to_lat":41.030933,"to_lng":-92.409827},{"pid":15746,"name":"23759-Beulah-Mandan","proj":"Beulah-Mandan 115 Rebuild","ftype":"Line Upgrade","kv":115,"cost":25900000,"status":"Approved","isd":"2030-12-31","iso":"MISO","state":"ND","from_sub":"Beulah","to_sub":"Mandan","from_lat":47.277895,"from_lng":-101.853161,"to_lat":46.71312,"to_lng":-100.952585},{"pid":15754,"name":"23769-Mio Dam-Plywood Tap","proj":"Mio Dam - Plywood Tap 138 kV Sag Remediation","ftype":"Line Upgrade","kv":138,"cost":875000,"status":"Approved","isd":"2027-12-31","iso":"MISO","state":"MI","from_sub":"Mio Dam","to_sub":"Plywood Tap","from_lat":44.662952,"from_lng":-84.089518,"to_lat":44.844176,"to_lng":-85.660493},{"pid":15776,"name":"23801-Adams-Fitz","proj":"Juliet","ftype":"Line New","kv":120,"cost":734000,"status":"Approved","isd":"2030-12-31","iso":"MISO","state":"MI","from_sub":"Adams","to_sub":"Fitz","from_lat":44.844176,"from_lng":-85.660493,"to_lat":44.844176,"to_lng":-85.660493,"matched_coords":[[-85.6915,44.7786],[-85.6893,44.7786],[-85.6893,44.7791],[-85.6893,44.7818],[-85.6893,44.7847],[-85.6981,44.7847],[-85.6994,44.7847],[-85.7048,44.7892],[-85.7049,44.7975],[-85.7049,44.7989],[-85.7049,44.8021],[-85.7089,44.802],[-85.7089,44.8025],[-85.7089,44.8025]]},{"pid":15774,"name":"New Dempsey to Pleasant View 138 kV line","proj":"New Pleasant View 138/69 kV Substation and Lines","ftype":"Line New","kv":138,"cost":1200000,"status":"Approved","isd":"2026-12-01","iso":"MISO","state":"IL","from_sub":"Dempsey","to_sub":"Pleasant View","from_lat":40.102875,"from_lng":-89.152611,"to_lat":39.447008,"to_lng":-90.87168},{"pid":15793,"name":"23821-Gaylord-Livingston","proj":"Rebuild Gaylord - Livingston 138 kV","ftype":"Line Upgrade","kv":138,"cost":3500000,"status":"Approved","isd":"2027-05-14","iso":"MISO","state":"MI","from_sub":"Gaylord","to_sub":"Livingston","from_lat":45.028411,"from_lng":-84.612207,"to_lat":42.449438,"to_lng":-83.800018},{"pid":15803,"name":"23833-Gaines-Meadowbrooke","proj":"Gaines - Meadowbrooke 138 kV Rebuild","ftype":"Line Upgrade","kv":138,"cost":455000,"status":"Approved","isd":"2027-02-26","iso":"MISO","state":"MI","from_sub":"Gaines","to_sub":"Meadowbrooke","from_lat":42.872466,"from_lng":-83.858445,"to_lat":44.844176,"to_lng":-85.660493},{"pid":15806,"name":"23836-Chopin-Arthur Jct","proj":"Chopin-Arthur Jct. 138kV Sag Remediation","ftype":"Line Upgrade","kv":138,"cost":3230000,"status":"Approved","isd":"2027-06-01","iso":"MISO","state":"MI","from_sub":"Chopin","to_sub":"Arthur Jct","from_lat":44.844176,"from_lng":-85.660493,"to_lat":44.844176,"to_lng":-85.660493,"matched_coords":[[-85.6915,44.7786],[-85.6893,44.7786],[-85.6893,44.7791],[-85.6893,44.7818],[-85.6893,44.7847],[-85.6981,44.7847],[-85.6994,44.7847],[-85.7048,44.7892],[-85.7049,44.7975],[-85.7049,44.7989],[-85.7049,44.8021],[-85.7089,44.802],[-85.7089,44.8025],[-85.7089,44.8025]]},{"pid":15809,"name":"23841-Four Mile (Northridge)-North Belding","proj":"Four Mile (Northridge) - North Belding 138 kV Rebuild","ftype":"Line Upgrade","kv":138,"cost":11700000,"status":"Approved","isd":"2025-12-31","iso":"MISO","state":"MI","from_sub":"Four Mile (Northridge)","to_sub":"North Belding","from_lat":44.844176,"from_lng":-85.660493,"to_lat":43.09781,"to_lng":-85.22891},{"pid":15776,"name":"23873-Adams-Juliet","proj":"Juliet","ftype":"Misc.","kv":120,"cost":1,"status":"Approved","isd":"2030-12-31","iso":"MISO","state":"MI","from_sub":"Adams","to_sub":"Juliet","from_lat":44.844176,"from_lng":-85.660493,"to_lat":44.844176,"to_lng":-85.660493,"matched_coords":[[-85.6915,44.7786],[-85.6893,44.7786],[-85.6893,44.7791],[-85.6893,44.7818],[-85.6893,44.7847],[-85.6981,44.7847],[-85.6994,44.7847],[-85.7048,44.7892],[-85.7049,44.7975],[-85.7049,44.7989],[-85.7049,44.8021],[-85.7089,44.802],[-85.7089,44.8025],[-85.7089,44.8025]]},{"pid":15833,"name":"23882-Bagley Tap-Gaylord","proj":"Rebuild Bagley Tap - Gaylord 138 kV","ftype":"Line Upgrade","kv":138,"cost":3950000,"status":"Approved","isd":"2028-06-01","iso":"MISO","state":"MI","from_sub":"Bagley Tap","to_sub":"Gaylord","from_lat":44.465123,"from_lng":-85.681485,"to_lat":45.028411,"to_lng":-84.612207},{"pid":16686,"name":"24378-Garner Galls Creek-Line Taps","proj":"Garner Galls Creek 161kV Interconnection","ftype":"Line New","kv":161,"cost":376800,"status":"Approved","isd":"2030-02-27","iso":"MISO","state":"IA","from_sub":"Garner Galls Creek","to_sub":"Line Taps","from_lat":43.10357,"from_lng":-93.60243,"to_lat":40.740697,"to_lng":-93.748889},{"pid":16686,"name":"24380-Hancock-Garner Galls Creek","proj":"Garner Galls Creek 161kV Interconnection","ftype":"Line Upgrade","kv":161,"cost":2483933,"status":"Approved","isd":"2024-08-30","iso":"MISO","state":"IA","from_sub":"Hancock","to_sub":"Garner Galls Creek","from_lat":41.389941,"from_lng":-95.372891,"to_lat":43.10357,"to_lng":-93.60243},{"pid":18178,"name":"25003-Hancock-Lily","proj":"Rebuild of Hancock \u2013 Lily 120 kV","ftype":"Line Upgrade","kv":120,"cost":4400000,"status":"Approved","isd":"2026-12-31","iso":"MISO","state":"MI","from_sub":"Hancock","to_sub":"Lily","from_lat":41.389941,"from_lng":-95.372891,"to_lat":43.770848,"to_lng":-85.850615},{"pid":18179,"name":"25005-Hood-Lily","proj":"Rebuild of Hood \u2013 Lily 120 kV","ftype":"Line Upgrade","kv":120,"cost":5730000,"status":"Approved","isd":"2027-06-01","iso":"MISO","state":"MI","from_sub":"Hood","to_sub":"Lily","from_lat":44.844176,"from_lng":-85.660493,"to_lat":43.770848,"to_lng":-85.850615},{"pid":18192,"name":"HINES-LEVAN_ Rebuild","proj":"Rebuild Hines - Levan 120 kV Line","ftype":"Line Upgrade","kv":120,"cost":1645000,"status":"Approved","isd":"2028-03-15","iso":"MISO","state":"MI","from_sub":"Hines","to_sub":"Levan","from_lat":44.844176,"from_lng":-85.660493,"to_lat":42.369351,"to_lng":-83.371753},{"pid":23026,"name":"27376-Kays-Hamilton","proj":"New South Central Illinois Transmission Expansion","ftype":"Line New","kv":138,"cost":51000000,"status":"Approved","isd":"2027-12-01","iso":"MISO","state":"IL","from_sub":"Kays","to_sub":"Hamilton","from_lat":39.45809,"from_lng":-88.49394,"to_lat":40.475714,"to_lng":-91.271002},{"pid":23026,"name":"27377-Benton NW-Franklin","proj":"New South Central Illinois Transmission Expansion","ftype":"Line New","kv":138,"cost":22100000,"status":"Approved","isd":"2028-12-01","iso":"MISO","state":"IL","from_sub":"Benton NW","to_sub":"Franklin","from_lat":37.994423,"from_lng":-88.907464,"to_lat":39.622203,"to_lng":-90.088945},{"pid":23596,"name":"27382-Glenham-Bowdle East","proj":"Glenham rebuild","ftype":"Line New","kv":115,"cost":600000,"status":"Approved","isd":"2028-12-31","iso":"MISO","state":"SD","from_sub":"Glenham","to_sub":"Bowdle East","from_lat":45.504288,"from_lng":-100.311701,"to_lat":45.469377,"to_lng":-99.595667,"matched_coords":[[-100.2256,45.5346],[-100.2249,45.5346],[-100.2236,45.5346],[-100.2233,45.5252],[-100.2233,45.5212],[-100.2233,45.5194],[-100.2127,45.5126],[-100.2127,45.5126],[-100.2051,45.5077],[-100.2009,45.505],[-100.1959,45.5019],[-100.1937,45.5004],[-100.1827,45.4934],[-100.1808,45.4921],[-100.1789,45.4907],[-100.1669,45.4823],[-100.1493,45.4698],[-100.1464,45.4677],[-100.1442,45.4661],[-100.1416,45.4642],[-100.1411,45.4639],[-100.141,45.4638],[-100.1255,45.4637],[-100.1233,45.4638],[-100.1206,45.4637],[-100.119,45.4637],[-100.1,45.4638],[-100.0782,45.4636],[-100.0588,45.4637],[-100.0406,45.4637],[-100.0388,45.4637],[-100.0023,45.4638],[-99.9819,45.4638],[-99.9668,45.4639],[-99.9465,45.4638],[-99.9345,45.4638],[-99.9092,45.4637],[-99.8907,45.4638],[-99.8605,45.4637],[-99.8532,45.4637],[-99.8508,45.4641],[-99.8393,45.464],[-99.8164,45.4639],[-99.8047,45.4638],[-99.7339,45.4634],[-99.7207,45.4633],[-99.7015,45.4633],[-99.6747,45.4633],[-99.6624,45.4633],[-99.6563,45.4636],[-99.6496,45.4639],[-99.6486,45.4639],[-99.6475,45.4636],[-99.6475,45.4636]]},{"pid":23596,"name":"27383-Glenham-Mobridge","proj":"Glenham rebuild","ftype":"Line New","kv":115,"cost":600000,"status":"Approved","isd":"2028-12-31","iso":"MISO","state":"SD","from_sub":"Glenham","to_sub":"Mobridge","from_lat":45.504288,"from_lng":-100.311701,"to_lat":45.53333,"to_lng":-100.43333,"matched_coords":[[-100.2256,45.5346],[-100.2234,45.5347],[-100.2234,45.5365],[-100.2234,45.5511],[-100.2417,45.5512],[-100.295,45.5514],[-100.3154,45.5614],[-100.3255,45.5664],[-100.356,45.5662],[-100.359,45.5662],[-100.4251,45.5665],[-100.4387,45.5592],[-100.4433,45.5592],[-100.4435,45.559],[-100.4435,45.559]]},{"pid":23596,"name":"27385-Glenham-Bismarck WAPA","proj":"Glenham rebuild","ftype":"Line New","kv":230,"cost":750000,"status":"Approved","isd":"2028-12-31","iso":"MISO","state":"SD","from_sub":"Glenham","to_sub":"Bismarck WAPA","from_lat":45.504288,"from_lng":-100.311701,"to_lat":44.446796,"to_lng":-100.238176},{"pid":23699,"name":"27410-CBEC-Gifford Road","proj":"Gifford Road 161-13.2 kV Substation and 161 kV Line Taps","ftype":"Line New","kv":161,"cost":1250000,"status":"Approved","isd":"2028-12-01","iso":"MISO","state":"IA","from_sub":"CBEC","to_sub":"Gifford Road","from_lat":42.070024,"from_lng":-93.493347,"to_lat":42.383133,"to_lng":-93.250567},{"pid":23699,"name":"27411-Indian Creek East-Gifford Road","proj":"Gifford Road 161-13.2 kV Substation and 161 kV Line Taps","ftype":"Line New","kv":161,"cost":1250000,"status":"Approved","isd":"2028-12-01","iso":"MISO","state":"IA","from_sub":"Indian Creek East","to_sub":"Gifford Road","from_lat":42.896225,"from_lng":-96.309509,"to_lat":42.383133,"to_lng":-93.250567},{"pid":23686,"name":"27421-Obrien County-Hospers","proj":"Obrien County-Hospers 161 kV Line, Obrien County 345-161 kV Transformer Addition & Hospers 161-69 kV Transformer Addition","ftype":"Line New","kv":161,"cost":30000000,"status":"Approved","isd":"2028-12-01","iso":"MISO","state":"IA","from_sub":"Obrien County","to_sub":"Hospers","from_lat":43.083746,"from_lng":-95.625624,"to_lat":43.07719,"to_lng":-95.938839},{"pid":23703,"name":"27445-Clay County-Palo Alto","proj":"J982 POI New 345 kV Interconnection Substation and 345 kV Line Taps","ftype":"Line New","kv":345,"cost":4000000,"status":"Approved","isd":"2028-06-01","iso":"MISO","state":"IA","from_sub":"Clay County","to_sub":"Palo Alto","from_lat":43.081224,"from_lng":-95.149875,"to_lat":42.67359,"to_lng":-95.29055},{"pid":23704,"name":"27456-Mio Dam-Abbe","proj":"Abbe Jct - Mio 138kV Sag Remediation","ftype":"Line Upgrade","kv":138,"cost":1700000,"status":"Approved","isd":"2026-07-23","iso":"MISO","state":"MI","from_sub":"Mio Dam","to_sub":"Abbe","from_lat":44.662952,"from_lng":-84.089518,"to_lat":44.844176,"to_lng":-85.660493},{"pid":24449,"name":"27984-Ames-Prairieview","proj":"Nevada Area Load Interconnections","ftype":"Line New","kv":161,"cost":10091622,"status":"Approved","isd":"2026-07-31","iso":"MISO","state":"IA","from_sub":"Ames","to_sub":"Prairieview","from_lat":42.037879,"from_lng":-93.600254,"to_lat":42.070024,"to_lng":-93.493347,"matched_coords":[[-93.4456,42.0856],[-93.4461,42.0853],[-93.4473,42.0853],[-93.4498,42.0853],[-93.4523,42.0853],[-93.4549,42.0853],[-93.4571,42.0853],[-93.46,42.0852],[-93.4625,42.0852],[-93.4652,42.0852],[-93.4677,42.0852],[-93.4701,42.0852],[-93.4725,42.0852],[-93.4749,42.0852],[-93.4773,42.0852],[-93.4799,42.0852],[-93.4823,42.0852],[-93.4849,42.0852],[-93.4872,42.0852],[-93.4897,42.0853],[-93.492,42.0853],[-93.4945,42.0853],[-93.4968,42.0853],[-93.4992,42.0854],[-93.5016,42.0854],[-93.5034,42.0854],[-93.5062,42.0854],[-93.5092,42.0854],[-93.5117,42.0854],[-93.5141,42.0854],[-93.5165,42.0854],[-93.5189,42.0854],[-93.5216,42.0854],[-93.524,42.0854],[-93.5261,42.0854],[-93.5287,42.0853],[-93.5312,42.0853],[-93.5334,42.0853],[-93.5356,42.0852],[-93.5387,42.0852],[-93.5412,42.0852],[-93.5436,42.0851],[-93.5458,42.0851],[-93.5485,42.0851],[-93.5509,42.0851],[-93.5529,42.0851],[-93.555,42.0851],[-93.5575,42.085],[-93.5608,42.0847],[-93.5613,42.0847],[-93.5613,42.0847]]},{"pid":24516,"name":"27994-Beecher-Pixley","proj":"J1571 Generator Interconnection Network Upgrades","ftype":"Substation","kv":138,"cost":7887399,"status":"Approved","isd":"2028-04-03","iso":"MISO","state":"MI","from_sub":"Beecher","to_sub":"Pixley","from_lat":44.844176,"from_lng":-85.660493,"to_lat":44.844176,"to_lng":-85.660493,"matched_coords":[[-85.6915,44.7786],[-85.6893,44.7786],[-85.6893,44.7791],[-85.6893,44.7818],[-85.6893,44.7847],[-85.6981,44.7847],[-85.6994,44.7847],[-85.7048,44.7892],[-85.7049,44.7975],[-85.7049,44.7989],[-85.7049,44.8021],[-85.7089,44.802],[-85.7089,44.8025],[-85.7089,44.8025]]},{"pid":24516,"name":"27995-Beecher-Pixley","proj":"J1571 Generator Interconnection Network Upgrades","ftype":"Line Upgrade","kv":138,"cost":687500,"status":"Approved","isd":"2028-02-01","iso":"MISO","state":"MI","from_sub":"Beecher","to_sub":"Pixley","from_lat":44.844176,"from_lng":-85.660493,"to_lat":44.844176,"to_lng":-85.660493,"matched_coords":[[-85.6915,44.7786],[-85.6893,44.7786],[-85.6893,44.7791],[-85.6893,44.7818],[-85.6893,44.7847],[-85.6981,44.7847],[-85.6994,44.7847],[-85.7048,44.7892],[-85.7049,44.7975],[-85.7049,44.7989],[-85.7049,44.8021],[-85.7089,44.802],[-85.7089,44.8025],[-85.7089,44.8025]]},