[{"pid": 51087, "name": "Manawa-Indian Creek East 161 kV Line Taps", "proj": "Indian Creek West 161 kV Substation & Associated Upgrades", "ftype": "Line New", "kv": 161, "cost": 1500000, "status": "Approved", "isd": "2028-07-01", "iso": "MISO", "state": "IA", "from_sub": "Manawa", "to_sub": "Indian Creek East", "from_lat": 42.070024, "from_lng": -93.493347, "to_lat": 42.896225, "to_lng": -96.309509}, {"pid": 51087, "name": "Indian Creek West-Fox Run 161 kV Line", "proj": "Indian Creek West 161 kV Substation & Associated Upgrades", "ftype": "Line New", "kv": 161, "cost": 8500000, "status": "Approved", "isd": "2029-07-01", "iso": "MISO", "state": "IA", "from_sub": "Indian Creek West", "to_sub": "Fox Run", "from_lat": 42.896225, "from_lng": -96.309509, "to_lat": 42.070024, "to_lng": -93.493347}, {"pid": 51093, "name": "345kV Line from Merom to Gill", "proj": "New Gill 345 kV Station and 345 kV Lines", "ftype": "Line New", "kv": 345, "cost": 3500000, "status": "Approved", "isd": "2028-01-01", "iso": "MISO", "state": "IN", "from_sub": "Merom", "to_sub": "Gill", "from_lat": 39.057641, "from_lng": -87.566595, "to_lat": 39.903026, "to_lng": -86.28395}, {"pid": 51114, "name": "Pike-Peno Creek 161 kV", "proj": "Apply Pike \u2013 Peno Creek 161 kV E3X", "ftype": "Line Upgrade", "kv": 161, "cost": 800000, "status": "Approved", "isd": "2029-12-01", "iso": "MISO", "state": "MO", "from_sub": "Pike", "to_sub": "Peno Creek", "from_lat": 36.545988, "from_lng": -94.455884, "to_lat": 40.126706, "to_lng": -95.329064}, {"pid": 50737, "name": "New Lumberjack-Odyssey and Lumberjack-Montgomery 345 kV lines", "proj": "New Load Addition at New Elkhorn 345 kV substation (Elkhorn Phase 2)", "ftype": "Line New", "kv": 345, "cost": 15000000, "status": "Approved", "isd": "2028-12-01", "iso": "MISO", "state": "MO", "from_sub": "Lumberjack", "to_sub": "Montgomery/Odyssey", "from_lat": 38.35075, "from_lng": -92.456783, "to_lat": 39.004044, "to_lng": -93.95561}, {"pid": 50628, "name": "LEAP Phase 2", "proj": "Upgrade LEAP Transmission Network Phase 2", "ftype": "Transformer", "kv": 345, "cost": 345000000, "status": "Approved", "isd": "2029-06-30", "iso": "MISO", "state": "IN", "from_sub": "Fayette/Wolf Creek", "to_sub": "Edwards", "from_lat": 39.433103, "from_lng": -86.395272, "to_lat": 38.81199, "to_lng": -87.25224}, {"pid": 50514, "name": "W-13 345kV Transmission Line Modifications", "proj": "J1502 Emerson Rd SS Network Upgrades and Interconnection Facilities", "ftype": "Line New", "kv": 345, "cost": 2426000, "status": "Approved", "isd": "2028-06-30", "iso": "MISO", "state": "WI", "from_sub": "Briggs Road", "to_sub": "North Madison", "from_lat": 43.825254, "from_lng": -89.644568, "to_lat": 43.100586, "to_lng": -89.348988}, {"pid": 50518, "name": "X-127 138 kV Transmission Line Reconductor", "proj": "J1773 J1781 MPFCA Network Upgrades", "ftype": "Line Upgrade", "kv": 138, "cost": 1625089, "status": "Approved", "isd": "2027-10-10", "iso": "MISO", "state": "WI", "from_sub": "Hill Valley", "to_sub": "Eden", "from_lat": 43.741615, "from_lng": -90.774206, "to_lat": 43.6936, "to_lng": -88.36094}, {"pid": 50518, "name": "X-147 138 kV Transmission Line Reconductor", "proj": "J1773 J1781 MPFCA Network Upgrades", "ftype": "Line Upgrade", "kv": 138, "cost": 5998000, "status": "Approved", "isd": "2027-10-10", "iso": "MISO", "state": "WI", "from_sub": "Eden", "to_sub": "Highland", "from_lat": 43.6936, "from_lng": -88.36094, "to_lat": 43.04666, "to_lng": -90.37985}, {"pid": 50519, "name": "Reactor Relocation", "proj": "Reactor Relocation from North Madison SS to J1502 POI SS", "ftype": "Voltage Device", "kv": 345, "cost": 5165000, "status": "Approved", "isd": "2028-06-30", "iso": "MISO", "state": "WI", "from_sub": "North Madison", "to_sub": "J1502 POI", "from_lat": 43.100586, "from_lng": -89.348988, "to_lat": 44.630907, "to_lng": -89.709392}, {"pid": 50520, "name": "Donaldson - Donaldson South Line", "proj": "OTP Donaldson - Donaldson South J1575 Network Upgrades", "ftype": "Line Upgrade", "kv": 115, "cost": 83341, "status": "Approved", "isd": "2028-12-31", "iso": "MISO", "state": "MN", "from_sub": "Donaldson 115 kV", "to_sub": "Donaldson South 115 kV", "from_lat": 46.108569, "from_lng": -93.618577, "to_lat": 46.108569, "to_lng": -93.618577}, {"pid": 50521, "name": "Donaldson South - J1575 Tie Line", "proj": "OTP Donaldson South J1575 Interconnection", "ftype": "Line New", "kv": 115, "cost": 2091244, "status": "Approved", "isd": "2028-08-03", "iso": "MISO", "state": "MN", "from_sub": "Donaldson South 115 kV", "to_sub": "J1575 115 kV", "from_lat": 46.108569, "from_lng": -93.618577, "to_lat": 46.108569, "to_lng": -93.618577}, {"pid": 50528, "name": "Benoit 230 kV Station", "proj": "Benoit 230 kV Station", "ftype": "Substation", "kv": 230, "cost": 61200000, "status": "Approved", "isd": "2027-07-01", "iso": "MISO", "state": "LA", "from_sub": "Mud Lake", "to_sub": "Big  Lake", "from_lat": 30.299917, "from_lng": -90.852875, "to_lat": 30.299917, "to_lng": -90.852875}, {"pid": 50529, "name": "Appleton Area Reliability Project", "proj": "Appleton Area Reliability Project", "ftype": "Line New", "kv": 138, "cost": 35700000, "status": "Approved", "isd": "2029-05-01", "iso": "MISO", "state": "WI", "from_sub": "City Limits", "to_sub": "Northside", "from_lat": 44.216648, "from_lng": -88.786223, "to_lat": 39.903026, "to_lng": -86.28395}, {"pid": 50530, "name": "X-119 138kV Transmission Line Modifications", "proj": "J1750 Grace Lake SS Network Upgrades and Interconnection Facilities", "ftype": "Line New", "kv": 138, "cost": 1581000, "status": "Approved", "isd": "2029-03-13", "iso": "MISO", "state": "MI", "from_sub": "Grace Lake", "to_sub": "Empire", "from_lat": 43.85197, "from_lng": -85.00531, "to_lat": 44.81111, "to_lng": -86.06009}, {"pid": 50026, "name": "Kaukauna Central Tap - Melissa 138 kV (971K11), Rerate", "proj": "Kaukauna Central Tap - Melissa 138 kV (971K11), Rerate", "ftype": "Line Upgrade", "kv": 138, "cost": 2700000, "status": "Construction", "isd": "2026-04-30", "iso": "MISO", "state": "WI", "from_sub": "Kaukauna Central Tap", "to_sub": "Melissa", "from_lat": 44.27804, "from_lng": -88.27205, "to_lat": 44.630907, "to_lng": -89.709392}, {"pid": 50044, "name": "Hull-Marion-7324 Rebuild", "proj": "Hull-Marion-7324 Rebuild", "ftype": "Line Upgrade", "kv": 138, "cost": 9400000, "status": "Approved", "isd": "2030-12-01", "iso": "MISO", "state": "IL", "from_sub": "Hull", "to_sub": "Marion", "from_lat": 39.70699, "from_lng": -91.20681, "to_lat": 37.729571, "to_lng": -88.912852}, {"pid": 50048, "name": "Champagne \u2013 East Opelousas \u2013 Colton 138kV line upgrades", "proj": "MPFCA J1644, J1686, J1832: Upgrade of Champagne \u2013 East Opelousas \u2013 Colton 138 kV line", "ftype": "Line Upgrade", "kv": 138, "cost": 9105556, "status": "Construction", "isd": "2025-12-31", "iso": "MISO", "state": "LA", "from_sub": "Champagne", "to_sub": "Colton", "from_lat": 30.863437, "from_lng": -91.798717, "to_lat": 31.715764, "to_lng": -91.516323}, {"pid": 50121, "name": "ETAWS-QUARY_Relocate w OPGW", "proj": "Iosco - Karn 138 kV Relocation (#50064 Alternative)", "ftype": "Line Upgrade", "kv": 138, "cost": 4700000, "status": "Approved", "isd": "2028-09-29", "iso": "MISO", "state": "MI", "from_sub": "East Tawas", "to_sub": "Quary", "from_lat": 44.27946, "from_lng": -83.49025, "to_lat": 43.815182, "to_lng": -83.341775}, {"pid": 50121, "name": "COTGR-QUARY_Relocate w OPGW", "proj": "Iosco - Karn 138 kV Relocation (#50064 Alternative)", "ftype": "Line Upgrade", "kv": 138, "cost": 26750000, "status": "Approved", "isd": "2028-09-29", "iso": "MISO", "state": "MI", "from_sub": "Quary", "to_sub": "Cottage Grove", "from_lat": 43.815182, "from_lng": -83.341775, "to_lat": 44.844176, "to_lng": -85.660493}, {"pid": 50121, "name": "COTGR-KARN_Relocate w OPGW", "proj": "Iosco - Karn 138 kV Relocation (#50064 Alternative)", "ftype": "Line Upgrade", "kv": 138, "cost": 6650000, "status": "Approved", "isd": "2028-09-29", "iso": "MISO", "state": "MI", "from_sub": "Cottage Grove", "to_sub": "Karn", "from_lat": 44.844176, "from_lng": -85.660493, "to_lat": 44.634126, "to_lng": -85.703494}, {"pid": 50545, "name": "O-119 138kV Transmission Line Modifications", "proj": "J1752 Shady Dr SS Network Upgrades and Interconnection Facilities", "ftype": "Line New", "kv": 138, "cost": 2370000, "status": "Approved", "isd": "2028-05-15", "iso": "MISO", "state": "WI", "from_sub": "Arnott", "to_sub": "Hartman Creek", "from_lat": 44.630907, "from_lng": -89.709392, "to_lat": 44.428885, "to_lng": -87.633143}, {"pid": 50356, "name": "Port Acres Bulk to Legend 230 kV line Ckt 1", "proj": "Port Acres Bulk to Legend 230 kV Rebuild", "ftype": "Line Upgrade", "kv": 230, "cost": 21900000, "status": "Approved", "isd": "2028-12-01", "iso": "MISO", "state": "TX", "from_sub": "Port Acres", "to_sub": "Legend", "from_lat": 29.901882, "from_lng": -94.032119, "to_lat": 31.434703, "to_lng": -99.281824}, {"pid": 50356, "name": "Port Acres to Legend 230 kV Ckt 2", "proj": "Port Acres Bulk to Legend 230 kV Rebuild", "ftype": "Line Upgrade", "kv": 230, "cost": 1, "status": "Approved", "isd": "2028-12-01", "iso": "MISO", "state": "TX", "from_sub": "Port Acres", "to_sub": "Legend", "from_lat": 29.901882, "from_lng": -94.032119, "to_lat": 31.434703, "to_lng": -99.281824}, {"pid": 50588, "name": "Forest Junction \u2013 Branch River 345 kV (W-15), Line Uprate", "proj": "Forest Junction \u2013 Branch River 345 kV (W-15), Line Uprate", "ftype": "Line Upgrade", "kv": 345, "cost": 7754000, "status": "Approved", "isd": "2029-01-01", "iso": "MISO", "state": "WI", "from_sub": "Forest Junction", "to_sub": "Branch River", "from_lat": 44.21249, "from_lng": -88.14427, "to_lat": 44.109853, "to_lng": -87.483874}, {"pid": 50212, "name": "Avery-Midtown_Install Underground Fiber", "proj": "Avery - New DTE Interconnection", "ftype": "Misc.", "kv": 120, "cost": 1721000, "status": "Approved", "isd": "2028-09-29", "iso": "MISO", "state": "MI", "from_sub": "Avery", "to_sub": "Midtown", "from_lat": 44.844176, "from_lng": -85.660493, "to_lat": 44.844176, "to_lng": -85.660493}, {"pid": 50597, "name": "Cody-Proud_New Hudson Cut-In", "proj": "DTE New Hudson Interconnection", "ftype": "Line New", "kv": 120, "cost": 1793000, "status": "Approved", "isd": "2028-03-31", "iso": "MISO", "state": "MI", "from_sub": "Cody", "to_sub": "Proud", "from_lat": 44.844176, "from_lng": -85.660493, "to_lat": 44.844176, "to_lng": -85.660493}, {"pid": 50602, "name": "County Line 230kV", "proj": "Green Acres 500/230 kV New Substation", "ftype": "Substation", "kv": 230, "cost": 72000000, "status": "Approved", "isd": "2029-12-01", "iso": "MISO", "state": "MS", "from_sub": "County Line", "to_sub": "Green Acres", "from_lat": 33.64279, "from_lng": -90.537368, "to_lat": 41.483926, "to_lng": -87.297258}, {"pid": 50602, "name": "Green Acres - County line", "proj": "Green Acres 500/230 kV New Substation", "ftype": "Line New", "kv": 230, "cost": 1, "status": "Approved", "isd": "2029-12-01", "iso": "MISO", "state": "MS", "from_sub": "Green Acres", "to_sub": "County Line", "from_lat": 41.483926, "from_lng": -87.297258, "to_lat": 33.64279, "to_lng": -90.537368}, {"pid": 50608, "name": "Riparian 115 kV Station", "proj": "Riparian 115 kV Station", "ftype": "Substation", "kv": 115, "cost": 38200000, "status": "Approved", "isd": "2026-12-30", "iso": "MISO", "state": "LA", "from_sub": "Alliance", "to_sub": "Happy Jack", "from_lat": 30.863437, "from_lng": -91.798717, "to_lat": 29.521883, "to_lng": -89.733676}, {"pid": 50614, "name": "Two 345kV Lines from Marble Hill Station to Customer", "proj": "New Marble Hill 345 kV Station and Load", "ftype": "Line New", "kv": 345, "cost": 4500000, "status": "Approved", "isd": "2028-06-01", "iso": "MISO", "state": "IN", "from_sub": "Marble Hill Station", "to_sub": "Marble Hill Customer", "from_lat": 39.550047, "from_lng": -86.535832, "to_lat": 39.550047, "to_lng": -86.535832}, {"pid": 50617, "name": "New Montgomery to Lumberjack 345 kV double circuit line", "proj": "New 345 kV Lumberjack substation for Load Connection", "ftype": "Line Upgrade", "kv": 345, "cost": 14000000, "status": "Approved", "isd": "2027-12-01", "iso": "MISO", "state": "MO", "from_sub": "Montgomery", "to_sub": "Lumberjack", "from_lat": 38.935184, "from_lng": -91.465427, "to_lat": 38.35075, "to_lng": -92.456783}, {"pid": 50106, "name": "Line Taps for Big Cedar Switching Station", "proj": "Big Cedar Interconnection", "ftype": "Line New", "kv": 345, "cost": 5736250, "status": "Approved", "isd": "2026-03-31", "iso": "MISO", "state": "IA", "from_sub": "Big Cedar", "to_sub": "Morgan Valley", "from_lat": 41.219972, "from_lng": -92.506291, "to_lat": 42.037189, "to_lng": -95.256476}, {"pid": 50106, "name": "Beverly - Big Cedar #2 345 kV Line", "proj": "Big Cedar Interconnection", "ftype": "Line New", "kv": 345, "cost": 2652500, "status": "Approved", "isd": "2026-03-31", "iso": "MISO", "state": "IA", "from_sub": "Beverly", "to_sub": "Big Cedar", "from_lat": 42.070024, "from_lng": -93.493347, "to_lat": 41.219972, "to_lng": -92.506291}, {"pid": 50552, "name": "Line: MN/ND State Line - Bison - 345 kV", "proj": "LRTP-19: Bison - Alexandria", "ftype": "Line Upgrade", "kv": 345, "cost": 19600000, "status": "Approved", "isd": "2032-06-01", "iso": "MISO", "state": "ND", "from_sub": "MN/ND State Line", "to_sub": "Bison", "from_lat": 47.44217, "from_lng": -100.460816, "to_lat": 47.44217, "to_lng": -100.460816}, {"pid": 20020, "name": "Gaylord-Lewiston Jct_Rebuild with OPGW", "proj": "Rebuild Gaylord - Mio Dam 138kV line", "ftype": "Line Upgrade", "kv": 138, "cost": 0, "status": "Approved", "isd": "2029-12-31", "iso": "MISO", "state": "MI", "from_sub": "Gaylord", "to_sub": "Lewiston Jct.", "from_lat": 45.028411, "from_lng": -84.612207, "to_lat": 44.91306, "to_lng": -84.21857}, {"pid": 51152, "name": "Merom - Gill 345 kV Line", "proj": "New Merom to Gill 345 kV Line addition", "ftype": "Line New", "kv": 345, "cost": 2000000, "status": "Approved", "isd": "2028-01-01", "iso": "MISO", "state": "IN", "from_sub": "Merom", "to_sub": "Gill", "from_lat": 39.057641, "from_lng": -87.566595, "to_lat": 39.903026, "to_lng": -86.28395}, {"pid": 15598, "name": "23630-Badoura 230-Badoura 115", "proj": "Badoura Transformer Replacement", "ftype": "Transformer", "kv": 230, "cost": 400000, "status": "Approved", "isd": "2026-12-31", "iso": "MISO", "state": "MN", "from_sub": "Badoura 230", "to_sub": "Badoura 115", "from_lat": 46.316134, "from_lng": -94.19948, "to_lat": 46.316134, "to_lng": -94.19948}, {"pid": 15652, "name": "23663-Atlanta-Gaylord OCB", "proj": "Rebuild Atlanta to Gaylord 138kV", "ftype": "Line Upgrade", "kv": 138, "cost": 16500000, "status": "Approved", "isd": "2026-12-31", "iso": "MISO", "state": "MI", "from_sub": "Atlanta", "to_sub": "Gaylord OCB", "from_lat": 45.030626, "from_lng": -84.173067, "to_lat": 45.028411, "to_lng": -84.612207}, {"pid": 16023, "name": "24493-Northeast-Northwest", "proj": "Lincoln-Northeast-Northwest 120 kV Rebuild", "ftype": "Line Upgrade", "kv": 120, "cost": 49642000, "status": "Construction", "isd": "2026-05-15", "iso": "MISO", "state": "MI", "from_sub": "Northeast", "to_sub": "Northwest", "from_lat": 43.356518, "from_lng": -84.497138, "to_lat": 44.844176, "to_lng": -85.660493}, {"pid": 18058, "name": "24925-Arrowhead-Center (Block 1)", "proj": "Square Butte - Arrowhead HVDC Line Hardening", "ftype": "Misc.", "kv": 250, "cost": 3000000, "status": "Approved", "isd": "2023-12-31", "iso": "MISO", "state": "ND", "from_sub": "Arrowhead", "to_sub": "Center (Block 1)", "from_lat": 47.44217, "from_lng": -100.460816, "to_lat": 47.44217, "to_lng": -100.460816}, {"pid": 18058, "name": "24926-Arrowhead-Center (Block 2)", "proj": "Square Butte - Arrowhead HVDC Line Hardening", "ftype": "Misc.", "kv": 250, "cost": 3000000, "status": "Approved", "isd": "2024-12-31", "iso": "MISO", "state": "ND", "from_sub": "Arrowhead", "to_sub": "Center (Block 2)", "from_lat": 47.44217, "from_lng": -100.460816, "to_lat": 47.44217, "to_lng": -100.460816}, {"pid": 18889, "name": "25339-Hickok-North LaSalle", "proj": "Rebuild Hickok-North LaSalle 138 kV line (1659)", "ftype": "Line Upgrade", "kv": 138, "cost": 6500000, "status": "Approved", "isd": "2029-06-01", "iso": "MISO", "state": "IL", "from_sub": "Hickok", "to_sub": "North LaSalle", "from_lat": 40.102875, "from_lng": -89.152611, "to_lat": 41.365092, "to_lng": -89.0866}, {"pid": 17868, "name": "25390-Hilltop-Haines Road", "proj": "Duluth Loop 115 kV Project", "ftype": "Line New", "kv": 115, "cost": 19000000, "status": "Approved", "isd": "2026-12-31", "iso": "MISO", "state": "MN", "from_sub": "Hilltop", "to_sub": "Haines Road", "from_lat": 45.053299, "from_lng": -93.247448, "to_lat": 47.68607, "to_lng": -94.63275}, {"pid": 21766, "name": "26356-Little Fork-International Falls", "proj": "126 Line Asset Renewal", "ftype": "Line Upgrade", "kv": 115, "cost": 750000, "status": "Construction", "isd": "2025-12-31", "iso": "MISO", "state": "MN", "from_sub": "Little Fork", "to_sub": "International Falls", "from_lat": 48.357144, "from_lng": -93.612836, "to_lat": 48.60278, "to_lng": -93.40194}, {"pid": 21976, "name": "26606-Jasper-Laurel", "proj": "Jasper to Laurel 161kV Line Rebuild", "ftype": "Line Upgrade", "kv": 161, "cost": 18420000, "status": "Approved", "isd": "2028-12-30", "iso": "MISO", "state": "IA", "from_sub": "Jasper", "to_sub": "Laurel", "from_lat": 41.51941, "from_lng": -93.105517, "to_lat": 41.88416, "to_lng": -92.92214}, {"pid": 21926, "name": "26648-Norwich SS-Harbor SS", "proj": "Harbor \u2013 Russell Terminal 138 kV (893K11), Rebuild", "ftype": "Line Upgrade", "kv": 138, "cost": 61200000, "status": "Approved", "isd": "2029-11-01", "iso": "MISO", "state": "WI", "from_sub": "Norwich SS", "to_sub": "Harbor SS", "from_lat": 44.630907, "from_lng": -89.709392, "to_lat": 44.630907, "to_lng": -89.709392}, {"pid": 22015, "name": "26664-Blackstone-Leoni #1", "proj": "Blackstone \u2013 Leoni #1 138 kV Rebuild", "ftype": "Line Upgrade", "kv": 138, "cost": 9232000, "status": "Approved", "isd": "2028-06-01", "iso": "MISO", "state": "MI", "from_sub": "Blackstone", "to_sub": "Leoni", "from_lat": 44.844176, "from_lng": -85.660493, "to_lat": 42.243925, "to_lng": -84.269121}, {"pid": 22018, "name": "Blackstone_Leoni #3 & #2 138kV Rebuild", "proj": "Blackstone \u2013 Leoni #3 and #2 138 kV Rebuild", "ftype": "Line Upgrade", "kv": 138, "cost": 7972000, "status": "Approved", "isd": "2028-06-01", "iso": "MISO", "state": "MI", "from_sub": "Blackstone", "to_sub": "Leoni", "from_lat": 44.844176, "from_lng": -85.660493, "to_lat": 42.243925, "to_lng": -84.269121}, {"pid": 22020, "name": "26668-Leoni-Parr Road", "proj": "Leoni \u2013 Parr Rd 138kV Rebuild", "ftype": "Line Upgrade", "kv": 138, "cost": 41842000, "status": "In Service", "isd": "2025-12-01", "iso": "MISO", "state": "MI", "from_sub": "Leoni", "to_sub": "Parr Road", "from_lat": 42.243925, "from_lng": -84.269121, "to_lat": 42.823317, "to_lng": -84.211149}, {"pid": 22021, "name": "26673-Cobb-Dupont", "proj": "Chopin \u2013 Dupont \u2013 White Lake 138kV Rebuild", "ftype": "Line Upgrade", "kv": 138, "cost": 2310000, "status": "Approved", "isd": "2027-05-03", "iso": "MISO", "state": "MI", "from_sub": "Cobb", "to_sub": "Dupont", "from_lat": 42.41892, "from_lng": -86.187529, "to_lat": 44.844176, "to_lng": -85.660493}, {"pid": 21999, "name": "26677-Elk-Magnolia", "proj": "J1164 Generator Interconnection Network Upgrades", "ftype": "Line New", "kv": 161, "cost": 775200, "status": "Approved", "isd": "2026-08-14", "iso": "MISO", "state": "MN", "from_sub": "Elk", "to_sub": "Magnolia", "from_lat": 44.588963, "from_lng": -93.369473, "to_lat": 43.644047, "to_lng": -96.07695}, {"pid": 21751, "name": "New Ameren Pana-PPI Paragon 138 kV Line", "proj": "New Paragon 138/69 kV Substation", "ftype": "Line New", "kv": 138, "cost": 1320000, "status": "Approved", "isd": "2028-03-01", "iso": "MISO", "state": "IL", "from_sub": "Ameren Pana N", "to_sub": "PPI Paragon", "from_lat": 39.38893, "from_lng": -89.08008, "to_lat": 40.102875, "to_lng": -89.152611}, {"pid": 23706, "name": "27486-Cromwell-Portage Lake", "proj": "158 Line Rebuild", "ftype": "Line Upgrade", "kv": 115, "cost": 25000000, "status": "Approved", "isd": "2029-03-31", "iso": "MISO", "state": "MN", "from_sub": "Cromwell", "to_sub": "Portage Lake", "from_lat": 46.654061, "from_lng": -92.836499, "to_lat": 46.774041, "to_lng": -92.171636}, {"pid": 23709, "name": "27489-Campbell-Blendon", "proj": "Campbell \u2013 Blendon 138kV Loop Into Tyler", "ftype": "Line Upgrade", "kv": 138, "cost": 1245000, "status": "Construction", "isd": "2028-01-27", "iso": "MISO", "state": "MI", "from_sub": "Campbell", "to_sub": "Blendon", "from_lat": 46.017181, "from_lng": -87.131251, "to_lat": 44.844176, "to_lng": -85.660493}, {"pid": 23709, "name": "27492-Campbell-Port Sheldon", "proj": "Campbell \u2013 Blendon 138kV Loop Into Tyler", "ftype": "Line Upgrade", "kv": 138, "cost": 730000, "status": "Construction", "isd": "2028-01-27", "iso": "MISO", "state": "MI", "from_sub": "Campbell", "to_sub": "Port Sheldon", "from_lat": 46.017181, "from_lng": -87.131251, "to_lat": 42.899465, "to_lng": -86.199769}, {"pid": 23765, "name": "27521-Joppa-Grahamville", "proj": "Rebuild Joppa-Joppa TS-Grahamville 161 line (854)", "ftype": "Line Upgrade", "kv": 161, "cost": 21900000, "status": "Approved", "isd": "2031-12-31", "iso": "MISO", "state": "KY", "from_sub": "Joppa", "to_sub": "Grahamville", "from_lat": 37.051731, "from_lng": -85.242182, "to_lat": 37.107554, "to_lng": -88.780056}, {"pid": 23826, "name": "27522-Joppa-Grahamville", "proj": "Rebuild Joppa - Grahamville 161 line (804)", "ftype": "Line Upgrade", "kv": 161, "cost": 21900000, "status": "Approved", "isd": "2031-12-31", "iso": "MISO", "state": "KY", "from_sub": "Joppa", "to_sub": "Grahamville", "from_lat": 37.051731, "from_lng": -85.242182, "to_lat": 37.107554, "to_lng": -88.780056}, {"pid": 23827, "name": "27528-Joppa-Joppa TS", "proj": "New 3-breaker ring bus substation", "ftype": "Line New", "kv": 161, "cost": 1, "status": "Approved", "isd": "2026-12-31", "iso": "MISO", "state": "IL", "from_sub": "Joppa", "to_sub": "Joppa TS", "from_lat": 37.051731, "from_lng": -85.242182, "to_lat": 37.209231, "to_lng": -88.844181}, {"pid": 23763, "name": "27548-Laketown-Laketown Tap", "proj": "Laketown Substation Tap", "ftype": "Substation", "kv": 115, "cost": 13904910, "status": "Approved", "isd": "2028-09-26", "iso": "MISO", "state": "MN", "from_sub": "Laketown", "to_sub": "Laketown Tap", "from_lat": 46.316134, "from_lng": -94.19948, "to_lat": 43.55802, "to_lng": -92.64268}, {"pid": 24738, "name": "28070-Hull-Herleman", "proj": "Rebuild Hull-Herleman-1682 138 kV Transmission Line", "ftype": "Line Upgrade", "kv": 138, "cost": 24000000, "status": "Approved", "isd": "2027-12-01", "iso": "MISO", "state": "IL", "from_sub": "Hull", "to_sub": "Herleman", "from_lat": 39.70699, "from_lng": -91.20681, "to_lat": 41.689533, "to_lng": -89.545604}, {"pid": 24758, "name": "28078-Columbia-North Madison", "proj": "J1410 J1411 North Arlington Swt St MPFCA & Network Upgrades", "ftype": "Line Upgrade", "kv": 345, "cost": 4680062, "status": "Construction", "isd": "2026-06-03", "iso": "MISO", "state": "WI", "from_sub": "Columbia", "to_sub": "North Madison", "from_lat": 43.471882, "from_lng": -89.330472, "to_lat": 43.100586, "to_lng": -89.348988}, {"pid": 24838, "name": "28116-North Appleton-Fox River", "proj": "J1316 Paris SS Network Upgrades", "ftype": "Line Upgrade", "kv": 345, "cost": 22347091, "status": "Approved", "isd": "2028-12-29", "iso": "MISO", "state": "WI", "from_sub": "North Appleton", "to_sub": "Fox River", "from_lat": 44.275702, "from_lng": -88.370856, "to_lat": 42.556963, "to_lng": -88.184533}, {"pid": 24861, "name": "28123-Evergreen-Donaldsonville", "proj": "J1583 Interconnection on Evergreen to Donaldsonville 230 kV", "ftype": "Substation", "kv": 230, "cost": 5000000, "status": "Approved", "isd": "2027-06-01", "iso": "MISO", "state": "LA", "from_sub": "Evergreen", "to_sub": "Donaldsonville", "from_lat": 30.91614, "from_lng": -92.067027, "to_lat": 30.10103, "to_lng": -90.99288}, {"pid": 24862, "name": "28125-Champagne-Plaisance", "proj": "J1644 Generator Interconnection on Champagne to Plaisance 138 kV", "ftype": "Substation", "kv": 138, "cost": 4329000, "status": "Approved", "isd": "2026-06-01", "iso": "MISO", "state": "LA", "from_sub": "Champagne", "to_sub": "Plaisance", "from_lat": 30.863437, "from_lng": -91.798717, "to_lat": 30.612419, "to_lng": -92.126232}, {"pid": 14344, "name": "23317-Airport-Hillman Tap", "proj": "Airport - Hillman Tap 138 kV Sag Remediation", "ftype": "Line Upgrade", "kv": 138, "cost": 1061250, "status": "Approved", "isd": "2028-06-01", "iso": "MISO", "state": "MI", "from_sub": "Airport", "to_sub": "Hillman Tap", "from_lat": 44.844176, "from_lng": -85.660493, "to_lat": 45.05958, "to_lng": -84.022691}, {"pid": 14001, "name": "23390-Burnips Junction-Burnips", "proj": "Blendon Area Upgrade", "ftype": "Line Upgrade", "kv": 138, "cost": 900000, "status": "In Service", "isd": "2020-06-01", "iso": "MISO", "state": "MI", "from_sub": "Burnips Junction", "to_sub": "Burnips", "from_lat": 42.731193, "from_lng": -85.840372, "to_lat": 42.731193, "to_lng": -85.840372}, {"pid": 15939, "name": "24052-Leoni-Beecher", "proj": "Leoni - Beecher 138 kV Sixed Wire", "ftype": "Line Upgrade", "kv": 138, "cost": 8300000, "status": "Approved", "isd": "2027-04-30", "iso": "MISO", "state": "MI", "from_sub": "Leoni", "to_sub": "Beecher", "from_lat": 42.243925, "from_lng": -84.269121, "to_lat": 44.844176, "to_lng": -85.660493}, {"pid": 16023, "name": "24170-Northeast-Northwest", "proj": "Lincoln-Northeast-Northwest 120 kV Rebuild", "ftype": "Line Upgrade", "kv": 120, "cost": 27090000, "status": "Construction", "isd": "2026-08-31", "iso": "MISO", "state": "MI", "from_sub": "Northeast", "to_sub": "Northwest", "from_lat": 43.356518, "from_lng": -84.497138, "to_lat": 44.844176, "to_lng": -85.660493}, {"pid": 20148, "name": "25853-Appleton-Benson", "proj": "Appleton - Benson (AG-AB) 115 kV Line", "ftype": "Line New", "kv": 115, "cost": 32574591, "status": "Approved", "isd": "2029-12-31", "iso": "MISO", "state": "MN", "from_sub": "Appleton", "to_sub": "Benson", "from_lat": 45.282008, "from_lng": -95.95757, "to_lat": 45.281669, "to_lng": -95.672102}, {"pid": 20148, "name": "25854-Benson-Benson Muni", "proj": "Appleton - Benson (AG-AB) 115 kV Line", "ftype": "Line New", "kv": 115, "cost": 9284688, "status": "Approved", "isd": "2029-12-31", "iso": "MISO", "state": "MN", "from_sub": "Benson", "to_sub": "Benson Muni", "from_lat": 45.281669, "from_lng": -95.672102, "to_lat": 45.281669, "to_lng": -95.672102}, {"pid": 20162, "name": "25886-Grey Iron-Claremont", "proj": "Claremont 138 kV Station Rebuild", "ftype": "Line New", "kv": 138, "cost": 530000, "status": "Approved", "isd": "2028-12-29", "iso": "MISO", "state": "MI", "from_sub": "Grey Iron", "to_sub": "Claremont", "from_lat": 43.489001, "from_lng": -83.385078, "to_lat": 44.844176, "to_lng": -85.660493}, {"pid": 20162, "name": "25887-Holland Road-Claremont", "proj": "Claremont 138 kV Station Rebuild", "ftype": "Line New", "kv": 138, "cost": 530000, "status": "Approved", "isd": "2028-12-29", "iso": "MISO", "state": "MI", "from_sub": "Holland Road", "to_sub": "Claremont", "from_lat": 42.743806, "from_lng": -86.083703, "to_lat": 44.844176, "to_lng": -85.660493}, {"pid": 20162, "name": "25888-Manning #1-Claremont", "proj": "Claremont 138 kV Station Rebuild", "ftype": "Line New", "kv": 138, "cost": 530000, "status": "Approved", "isd": "2028-12-29", "iso": "MISO", "state": "MI", "from_sub": "Manning #1", "to_sub": "Claremont", "from_lat": 44.844176, "from_lng": -85.660493, "to_lat": 44.844176, "to_lng": -85.660493}, {"pid": 20162, "name": "25889-Manning #2-Claremont", "proj": "Claremont 138 kV Station Rebuild", "ftype": "Line New", "kv": 138, "cost": 535000, "status": "Approved", "isd": "2028-12-29", "iso": "MISO", "state": "MI", "from_sub": "Manning #2", "to_sub": "Claremont", "from_lat": 44.844176, "from_lng": -85.660493, "to_lat": 44.844176, "to_lng": -85.660493}, {"pid": 20162, "name": "25890-Cornell #1-Claremont", "proj": "Claremont 138 kV Station Rebuild", "ftype": "Line New", "kv": 138, "cost": 440000, "status": "Approved", "isd": "2028-12-29", "iso": "MISO", "state": "MI", "from_sub": "Cornell #1", "to_sub": "Claremont", "from_lat": 44.844176, "from_lng": -85.660493, "to_lat": 44.844176, "to_lng": -85.660493}, {"pid": 20162, "name": "25891-Cornell #2-Claremont", "proj": "Claremont 138 kV Station Rebuild", "ftype": "Line New", "kv": 138, "cost": 444000, "status": "Approved", "isd": "2028-12-29", "iso": "MISO", "state": "MI", "from_sub": "Cornell #2", "to_sub": "Claremont", "from_lat": 44.844176, "from_lng": -85.660493, "to_lat": 44.844176, "to_lng": -85.660493}, {"pid": 20162, "name": "25892-Lawndale-Claremont", "proj": "Claremont 138 kV Station Rebuild", "ftype": "Line New", "kv": 138, "cost": 448000, "status": "Approved", "isd": "2028-12-29", "iso": "MISO", "state": "MI", "from_sub": "Lawndale", "to_sub": "Claremont", "from_lat": 42.264543, "from_lng": -85.561545, "to_lat": 44.844176, "to_lng": -85.660493}, {"pid": 20167, "name": "25898-Cato-Corktown", "proj": "Cato \u2013 Corktown 120 kV", "ftype": "Line New", "kv": 120, "cost": 17000000, "status": "Approved", "isd": "2027-10-01", "iso": "MISO", "state": "MI", "from_sub": "Cato", "to_sub": "Corktown", "from_lat": 44.844176, "from_lng": -85.660493, "to_lat": 44.844176, "to_lng": -85.660493}, {"pid": 15942, "name": "26024-Chopin-Cobb (CE TB#7)", "proj": "Rebuild Station Cobb 138 kV", "ftype": "Line New", "kv": 138, "cost": 441500, "status": "Approved", "isd": "2028-01-14", "iso": "MISO", "state": "MI", "from_sub": "Chopin", "to_sub": "Cobb (CE TB#7)", "from_lat": 44.844176, "from_lng": -85.660493, "to_lat": 44.844176, "to_lng": -85.660493}, {"pid": 15942, "name": "26025-Chopin-Cobb (CE TB#8)", "proj": "Rebuild Station Cobb 138 kV", "ftype": "Line New", "kv": 138, "cost": 1300000, "status": "Approved", "isd": "2028-01-14", "iso": "MISO", "state": "MI", "from_sub": "Chopin", "to_sub": "Cobb (CE TB#8)", "from_lat": 44.844176, "from_lng": -85.660493, "to_lat": 44.844176, "to_lng": -85.660493}, {"pid": 15942, "name": "26026-Chopin-Muskegon Heights 1 (CE TB#4)", "proj": "Rebuild Station Cobb 138 kV", "ftype": "Line New", "kv": 138, "cost": 343000, "status": "Approved", "isd": "2028-01-14", "iso": "MISO", "state": "MI", "from_sub": "Chopin", "to_sub": "Muskegon Heights 1 (CE TB#4)", "from_lat": 44.844176, "from_lng": -85.660493, "to_lat": 42.325592, "to_lng": -83.839388}, {"pid": 15942, "name": "26027-Chopin-Muskegon Heights 2 (CE TB#7)", "proj": "Rebuild Station Cobb 138 kV", "ftype": "Line New", "kv": 138, "cost": 158400, "status": "Approved", "isd": "2028-01-14", "iso": "MISO", "state": "MI", "from_sub": "Chopin", "to_sub": "Muskegon Heights 2 (CE TB#7)", "from_lat": 44.844176, "from_lng": -85.660493, "to_lat": 42.325592, "to_lng": -83.839388}, {"pid": 19546, "name": "26037-Raisin Tap-Raisin", "proj": "J875 Generator Interconnection", "ftype": "Misc.", "kv": 138, "cost": 1445000, "status": "In Service", "isd": "2023-05-19", "iso": "MISO", "state": "MI", "from_sub": "Raisin Tap", "to_sub": "Raisin", "from_lat": 44.844176, "from_lng": -85.660493, "to_lat": 44.844176, "to_lng": -85.660493}, {"pid": 18066, "name": "26107-Badoura-Dog Lake", "proj": "Badoura 115kV Substation Modernization", "ftype": "Misc.", "kv": 115, "cost": 580000, "status": "Approved", "isd": "2025-12-31", "iso": "MISO", "state": "MN", "from_sub": "Badoura", "to_sub": "Dog Lake", "from_lat": 46.973708, "from_lng": -94.697017, "to_lat": 47.821318, "to_lng": -93.156013}, {"pid": 18066, "name": "26108-Badoura-Hubbard", "proj": "Badoura 115kV Substation Modernization", "ftype": "Misc.", "kv": 115, "cost": 490000, "status": "Approved", "isd": "2025-12-31", "iso": "MISO", "state": "MN", "from_sub": "Badoura", "to_sub": "Hubbard", "from_lat": 46.973708, "from_lng": -94.697017, "to_lat": 46.836626, "to_lng": -95.010298}, {"pid": 22586, "name": "26804-Buck Creek-Hazelwood", "proj": "Buskirk - New CE Interconnection", "ftype": "Line New", "kv": 138, "cost": 2770000, "status": "Construction", "isd": "2026-04-06", "iso": "MISO", "state": "MI", "from_sub": "Buck Creek", "to_sub": "Hazelwood", "from_lat": 44.844176, "from_lng": -85.660493, "to_lat": 44.844176, "to_lng": -85.660493}, {"pid": 22667, "name": "26823-Havana-Cincinnati", "proj": "New PPI - Forest City 138 kV Interconnection", "ftype": "Substation", "kv": 138, "cost": 8500000, "status": "Approved", "isd": "2028-06-01", "iso": "MISO", "state": "IL", "from_sub": "Havana", "to_sub": "Cincinnati", "from_lat": 40.30004, "from_lng": -90.06095, "to_lat": 40.102875, "to_lng": -89.152611}, {"pid": 22847, "name": "26846-Boyne-Golf", "proj": "Kings Point - New DTE 120kV Interconnection", "ftype": "Misc.", "kv": 120, "cost": 12800000, "status": "Approved", "isd": "2029-11-16", "iso": "MISO", "state": "MI", "from_sub": "Boyne", "to_sub": "Golf", "from_lat": 44.28806, "from_lng": -85.6, "to_lat": 44.844176, "to_lng": -85.660493}, {"pid": 22908, "name": "26922-Joppa-Marion South", "proj": "Rebuild Joppa - Marion South 161kV line", "ftype": "Line Upgrade", "kv": 161, "cost": 46500000, "status": "Approved", "isd": "2030-12-01", "iso": "MISO", "state": "IL", "from_sub": "Joppa", "to_sub": "Marion South", "from_lat": 37.051731, "from_lng": -85.242182, "to_lat": 37.729571, "to_lng": -88.912852}, {"pid": 15866, "name": "26943-Newburgh-Peru", "proj": "Newburgh \u2013 Peru 120 kV Rebuild", "ftype": "Line Upgrade", "kv": 120, "cost": 40000, "status": "Approved", "isd": "2027-12-31", "iso": "MISO", "state": "MI", "from_sub": "Newburgh", "to_sub": "Peru", "from_lat": 46.460159, "from_lng": -85.515605, "to_lat": 42.823317, "to_lng": -84.211149}, {"pid": 22020, "name": "26947-Lark-Leoni", "proj": "Leoni \u2013 Parr Rd 138kV Rebuild", "ftype": "Line Upgrade", "kv": 138, "cost": 9726000, "status": "In Service", "isd": "2025-12-01", "iso": "MISO", "state": "MI", "from_sub": "Lark", "to_sub": "Leoni", "from_lat": 44.844176, "from_lng": -85.660493, "to_lat": 42.243925, "to_lng": -84.269121}, {"pid": 23147, "name": "26971-Amite-Chicken Farm", "proj": "J1219/J1257 115 kV station(Hickory)", "ftype": "Substation", "kv": 115, "cost": 14390000, "status": "Approved", "isd": "2027-06-01", "iso": "MISO", "state": "LA", "from_sub": "Amite", "to_sub": "Chicken Farm", "from_lat": 30.74483, "from_lng": -90.41058, "to_lat": 30.863437, "to_lng": -91.798717}, {"pid": 25424, "name": "28622-NE 6th Street-NE Ankeny", "proj": "NE 6th St Substation and 161 kV line taps", "ftype": "Line New", "kv": 161, "cost": 1250000, "status": "Approved", "isd": "2027-06-01", "iso": "MISO", "state": "IA", "from_sub": "NE 6th Street", "to_sub": "NE Ankeny", "from_lat": 41.509732, "from_lng": -94.31796, "to_lat": 41.672687, "to_lng": -93.572173}, {"pid": 25424, "name": "28623-NE 6th Street-Big Creek", "proj": "NE 6th St Substation and 161 kV line taps", "ftype": "Line New", "kv": 161, "cost": 1250000, "status": "Approved", "isd": "2027-06-01", "iso": "MISO", "state": "IA", "from_sub": "NE 6th Street", "to_sub": "Big Creek", "from_lat": 41.509732, "from_lng": -94.31796, "to_lat": 42.896225, "to_lng": -96.309509}, {"pid": 25461, "name": "28630-Johnson Creek-Maffitt Lake", "proj": "Johnson Creek - Maffitt Lake 161 kV line", "ftype": "Line New", "kv": 161, "cost": 8500000, "status": "Approved", "isd": "2027-08-01", "iso": "MISO", "state": "IA", "from_sub": "Johnson Creek", "to_sub": "Maffitt Lake", "from_lat": 42.896225, "from_lng": -96.309509, "to_lat": 42.070024, "to_lng": -93.493347}, {"pid": 25399, "name": "28638-Inman-Miltona", "proj": "Congestion Mitigation Projects", "ftype": "Line Upgrade", "kv": 115, "cost": 1190849, "status": "Approved", "isd": "2024-10-31", "iso": "MISO", "state": "MN", "from_sub": "Inman", "to_sub": "Miltona", "from_lat": 46.316134, "from_lng": -94.19948, "to_lat": 46.06187, "to_lng": -95.295146}, {"pid": 25430, "name": "28665-Fairview-Madiosnville", "proj": "Fairview to Madisonville 230 kV Upgrades", "ftype": "Line Upgrade", "kv": 230, "cost": 700000, "status": "Approved", "isd": "2027-12-01", "iso": "MISO", "state": "LA", "from_sub": "Fairview", "to_sub": "Madiosnville", "from_lat": 31.325171, "from_lng": -91.532341, "to_lat": 30.40436, "to_lng": -90.15702}, {"pid": 25433, "name": "28669-Graettinger Marsh-Palo Alto", "proj": "J1270 POI New 345 kV Interconnection Substation and 345 kV Line Taps", "ftype": "Line New", "kv": 345, "cost": 2500000, "status": "Approved", "isd": "2027-09-15", "iso": "MISO", "state": "IA", "from_sub": "Graettinger Marsh", "to_sub": "Palo Alto", "from_lat": 43.19802, "from_lng": -94.736878, "to_lat": 42.67359, "to_lng": -95.29055}, {"pid": 25432, "name": "28672-Cypress-Legend", "proj": "Cypress to Legend 500 kV line", "ftype": "Line New", "kv": 500, "cost": 420000000, "status": "Approved", "isd": "2028-12-01", "iso": "MISO", "state": "TX", "from_sub": "Cypress", "to_sub": "Legend", "from_lat": 29.997775, "from_lng": -95.669444, "to_lat": 31.434703, "to_lng": -99.281824}, {"pid": 3439, "name": "6342-Ensor 161 kV-Ensor 69 kV", "proj": "New Ensor 161/69 kV Substation", "ftype": "Substation", "kv": 161, "cost": 5400000, "status": "Approved", "isd": "2029-12-31", "iso": "MISO", "state": "KY", "from_sub": "Ensor 161 kV", "to_sub": "Ensor 69 kV", "from_lat": 36.997587, "from_lng": -84.129021, "to_lat": 36.997587, "to_lng": -84.129021}, {"pid": 16104, "name": "24210-Altona-Pierson", "proj": "Altona to Pierson Rebuild", "ftype": "Line Upgrade", "kv": 138, "cost": 13200000, "status": "Approved", "isd": "2026-12-31", "iso": "MISO", "state": "MI", "from_sub": "Altona", "to_sub": "Pierson", "from_lat": 44.900641, "from_lng": -85.232932, "to_lat": 43.31975, "to_lng": -85.49781}, {"pid": 15942, "name": "24252-Cobb-Four Mile", "proj": "Rebuild Station Cobb 138 kV", "ftype": "Line Upgrade", "kv": 138, "cost": 306000, "status": "Approved", "isd": "2028-01-14", "iso": "MISO", "state": "MI", "from_sub": "Cobb", "to_sub": "Four Mile", "from_lat": 42.41892, "from_lng": -86.187529, "to_lat": 44.844176, "to_lng": -85.660493}, {"pid": 15942, "name": "24255-Cobb-Felch Road (N-14)", "proj": "Rebuild Station Cobb 138 kV", "ftype": "Line Upgrade", "kv": 138, "cost": 304000, "status": "Approved", "isd": "2028-01-14", "iso": "MISO", "state": "MI", "from_sub": "Cobb", "to_sub": "Felch Road (N-14)", "from_lat": 42.41892, "from_lng": -86.187529, "to_lat": 44.844176, "to_lng": -85.660493}, {"pid": 15942, "name": "24258-Dupont-Chopin", "proj": "Rebuild Station Cobb 138 kV", "ftype": "Line Upgrade", "kv": 138, "cost": 317000, "status": "Approved", "isd": "2028-01-14", "iso": "MISO", "state": "MI", "from_sub": "Dupont", "to_sub": "Pine Creek", "from_lat": 44.844176, "from_lng": -85.660493, "to_lat": 42.165601, "to_lng": -85.256099}, {"pid": 19587, "name": "25516-Petenwell-Council Creek", "proj": "Petenwell \u2013 Council Creek, (X-40) 138kV, Partial Structure and OPGW Replacement", "ftype": "Misc.", "kv": 138, "cost": 4000000, "status": "Construction", "isd": "2026-01-31", "iso": "MISO", "state": "WI", "from_sub": "Petenwell", "to_sub": "Council Creek", "from_lat": 44.630907, "from_lng": -89.709392, "to_lat": 44.428885, "to_lng": -87.633143}, {"pid": 19665, "name": "25527-Deer-Indian (or to the new switching station)", "proj": "Deer to Indian 138 kV line", "ftype": "Line New", "kv": 138, "cost": 28860000, "status": "Approved", "isd": "2027-12-31", "iso": "MISO", "state": "TX", "from_sub": "Deer", "to_sub": "Indian (or to the new switching station)", "from_lat": 33.3265, "from_lng": -95.574678, "to_lat": 30.762967, "to_lng": -97.597231}, {"pid": 19546, "name": "25536-Leoni-Parr Road, Tangent, and Whiting", "proj": "J875 Generator Interconnection", "ftype": "Misc.", "kv": 138, "cost": 3865459, "status": "In Service", "isd": "2023-12-21", "iso": "MISO", "state": "MI", "from_sub": "Leoni", "to_sub": "Parr Road, Tangent, and Whiting", "from_lat": 42.243925, "from_lng": -84.269121, "to_lat": 42.823317, "to_lng": -84.211149}, {"pid": 19928, "name": "25615-Marion-Old Settlers", "proj": "Marion-Old Settlers 115kV Ckt#2", "ftype": "Line New", "kv": 115, "cost": 1890000, "status": "Approved", "isd": "2027-12-31", "iso": "MISO", "state": "IA", "from_sub": "Marion", "to_sub": "Old Settlers", "from_lat": 37.729571, "from_lng": -88.912852, "to_lat": 42.070024, "to_lng": -93.493347}, {"pid": 19928, "name": "25616-Dry Creek-Old Settlers", "proj": "Marion-Old Settlers 115kV Ckt#2", "ftype": "Line New", "kv": 115, "cost": 336000, "status": "Approved", "isd": "2027-12-31", "iso": "MISO", "state": "IA", "from_sub": "Dry Creek", "to_sub": "Old Settlers", "from_lat": 42.896225, "from_lng": -96.309509, "to_lat": 42.070024, "to_lng": -93.493347}, {"pid": 23546, "name": "27273-Henry County-Jefferson County", "proj": "Jefferson County 161kV Substation Rebuild", "ftype": "Line New", "kv": 161, "cost": 742800, "status": "Approved", "isd": "2026-07-30", "iso": "MISO", "state": "IA", "from_sub": "Henry County", "to_sub": "Jefferson County", "from_lat": 40.984803, "from_lng": -91.547259, "to_lat": 41.006376, "to_lng": -91.966628}, {"pid": 23513, "name": "27284-Emerald-Pine Lake", "proj": "Emerald Substation", "ftype": "Line Upgrade", "kv": 161, "cost": 2000000, "status": "Approved", "isd": "2025-06-15", "iso": "MISO", "state": "WI", "from_sub": "Emerald", "to_sub": "Pine Lake", "from_lat": 45.11453, "from_lng": -92.276235, "to_lat": 46.25606, "to_lng": -90.140726}, {"pid": 21929, "name": "27301-Dickinson Coutny-Lakefireld", "proj": "Forks Switching Station & Forks-Rost 161kV Circuit", "ftype": "Line New", "kv": 161, "cost": 0, "status": "Approved", "isd": "2026-12-31", "iso": "MISO", "state": "MN", "from_sub": "Dickinson Coutny", "to_sub": "Lakefireld", "from_lat": 47.152067, "from_lng": -92.435223, "to_lat": 46.316134, "to_lng": -94.19948}, {"pid": 23485, "name": "27311-Bison-Colby", "proj": "J1174 & J1175 MPFCA - Network Upgrades", "ftype": "Line New", "kv": 345, "cost": 2400000, "status": "Approved", "isd": "2026-06-01", "iso": "MISO", "state": "IA", "from_sub": "Bison", "to_sub": "Colby", "from_lat": 47.44217, "from_lng": -100.460816, "to_lat": 42.070024, "to_lng": -93.493347}, {"pid": 24232, "name": "27765-ALEXNOKO-ALEXAND7", "proj": "ALP SE Substation", "ftype": "Substation", "kv": 115, "cost": 1842000, "status": "Approved", "isd": "2028-12-31", "iso": "MISO", "state": "MN", "from_sub": "ALEXNOKO", "to_sub": "ALEXAND7", "from_lat": 46.316134, "from_lng": -94.19948, "to_lat": 45.902017, "to_lng": -95.420589}, {"pid": 24272, "name": "27772-Moler-Coly", "proj": "J1421 230 kV Interconnection Project", "ftype": "Line Upgrade", "kv": 230, "cost": 1, "status": "Construction", "isd": "2026-09-01", "iso": "MISO", "state": "LA", "from_sub": "Moler", "to_sub": "Coly", "from_lat": 30.863437, "from_lng": -91.798717, "to_lat": 32.43293, "to_lng": -92.677095}, {"pid": 24294, "name": "27782-Iosco-Karn", "proj": "Mio Dam - Twining - J1210 GIA (Quarry) - NU", "ftype": "Line New", "kv": 138, "cost": 1357200, "status": "Approved", "isd": "2027-05-03", "iso": "MISO", "state": "MI", "from_sub": "Iosco", "to_sub": "Karn", "from_lat": 44.466341, "from_lng": -83.885375, "to_lat": 44.634126, "to_lng": -85.703494}, {"pid": 24333, "name": "27785-Majestic-Milan", "proj": "Majestic-Milan - J1224 & J1329 GIA (Neblo) NU", "ftype": "Line New", "kv": 345, "cost": 1678800, "status": "Approved", "isd": "2028-05-09", "iso": "MISO", "state": "MI", "from_sub": "Majestic", "to_sub": "Milan", "from_lat": 44.844176, "from_lng": -85.660493, "to_lat": 42.08532, "to_lng": -83.68244}, {"pid": 24295, "name": "27790-Marshall-Blackstone", "proj": "Marshall - Blackstone (Stable) - J1248 GIA (Bearcat) NU", "ftype": "Line New", "kv": 138, "cost": 3170400, "status": "Approved", "isd": "2026-04-30", "iso": "MISO", "state": "MI", "from_sub": "Marshall", "to_sub": "Blackstone", "from_lat": 42.265016, "from_lng": -84.948946, "to_lat": 44.844176, "to_lng": -85.660493}, {"pid": 24279, "name": "27799-Cornell-Goss", "proj": "Claremont - Cornell #2 - J1297 GIA (Hathon) NU", "ftype": "Line New", "kv": 138, "cost": 3981600, "status": "Approved", "isd": "2029-12-28", "iso": "MISO", "state": "MI", "from_sub": "Cornell", "to_sub": "Goss", "from_lat": 45.910352, "from_lng": -87.20714, "to_lat": 44.844176, "to_lng": -85.660493}, {"pid": 24279, "name": "27801-Claremont-Cornell", "proj": "Claremont - Cornell #2 - J1297 GIA (Hathon) NU", "ftype": "Line New", "kv": 138, "cost": 5350800, "status": "Approved", "isd": "2028-12-29", "iso": "MISO", "state": "MI", "from_sub": "Claremont", "to_sub": "Cornell", "from_lat": 44.844176, "from_lng": -85.660493, "to_lat": 45.910352, "to_lng": -87.20714}, {"pid": 24317, "name": "27806-Dupont-Cobb", "proj": "DuPont - Cobb - J1375 GIA (Lamos) NU", "ftype": "Line New", "kv": 138, "cost": 652800, "status": "Approved", "isd": "2028-05-01", "iso": "MISO", "state": "MI", "from_sub": "Dupont", "to_sub": "Cobb", "from_lat": 44.844176, "from_lng": -85.660493, "to_lat": 42.41892, "to_lng": -86.187529}, {"pid": 24317, "name": "27809-Dupont-Cobb", "proj": "DuPont - Cobb - J1375 GIA (Lamos) NU", "ftype": "Line New", "kv": 138, "cost": 543600, "status": "Approved", "isd": "2026-06-01", "iso": "MISO", "state": "MI", "from_sub": "Dupont", "to_sub": "Cobb", "from_lat": 44.844176, "from_lng": -85.660493, "to_lat": 42.41892, "to_lng": -86.187529}, {"pid": 24318, "name": "27814-Deja-Derby", "proj": "Eureka - Vestaburg - J1379 GIA NU", "ftype": "Line New", "kv": 138, "cost": 12793200, "status": "Approved", "isd": "2027-04-06", "iso": "MISO", "state": "MI", "from_sub": "Deja", "to_sub": "Derby", "from_lat": 44.844176, "from_lng": -85.660493, "to_lat": 44.844176, "to_lng": -85.660493}, {"pid": 24318, "name": "27815-Derby-Eureka", "proj": "Eureka - Vestaburg - J1379 GIA NU", "ftype": "Line Upgrade", "kv": 138, "cost": 13827600, "status": "Approved", "isd": "2026-05-05", "iso": "MISO", "state": "MI", "from_sub": "Derby", "to_sub": "Eureka", "from_lat": 44.844176, "from_lng": -85.660493, "to_lat": 42.944209, "to_lng": -84.600723}, {"pid": 24318, "name": "27816-Eureka-North Belding", "proj": "Eureka - Vestaburg - J1379 GIA NU", "ftype": "Line Upgrade", "kv": 138, "cost": 10574400, "status": "Approved", "isd": "2026-02-17", "iso": "MISO", "state": "MI", "from_sub": "Eureka", "to_sub": "North Belding", "from_lat": 42.944209, "from_lng": -84.600723, "to_lat": 43.09781, "to_lng": -85.22891}, {"pid": 24282, "name": "27821-Leoni-Parr Road", "proj": "Leoni - Parr Road - J1472 GIA(Vargo) NU", "ftype": "Line New", "kv": 138, "cost": 3019000, "status": "Approved", "isd": "2027-12-01", "iso": "MISO", "state": "MI", "from_sub": "Leoni", "to_sub": "Parr Road", "from_lat": 42.243925, "from_lng": -84.269121, "to_lat": 42.823317, "to_lng": -84.211149}, {"pid": 23887, "name": "27722-J1378 Crosroads Solar-Gen Sub", "proj": "J1378 Crossroads Solar", "ftype": "Misc.", "kv": 230, "cost": 1, "status": "Construction", "isd": "2026-02-15", "iso": "MISO", "state": "IN", "from_sub": "J1378 Crosroads Solar", "to_sub": "Gen Sub", "from_lat": 39.279496, "from_lng": -85.241629, "to_lat": 39.903026, "to_lng": -86.28395}, {"pid": 23886, "name": "27726-J1234-1235 IN Solar 1-Gen and POI Subs", "proj": "New J1234 - J1235 IN Solar 1", "ftype": "Misc.", "kv": 138, "cost": 11181000, "status": "Construction", "isd": "2026-02-28", "iso": "MISO", "state": "IN", "from_sub": "J1234-1235 IN Solar 1", "to_sub": "Gen and POI Subs", "from_lat": 38.548659, "from_lng": -87.471687, "to_lat": 41.094004, "to_lng": -85.024649}, {"pid": 24072, "name": "27732-Alfred-Frisbie", "proj": "Resource Equipment Removal and Bypass", "ftype": "Line New", "kv": 120, "cost": 3070000, "status": "Approved", "isd": "2025-12-31", "iso": "MISO", "state": "MI", "from_sub": "Alfred", "to_sub": "Frisbie", "from_lat": 44.844176, "from_lng": -85.660493, "to_lat": 44.844176, "to_lng": -85.660493}, {"pid": 24413, "name": "27842-Moranville-Lund", "proj": "Richer-Littlefork 230 kV Line Rebuild", "ftype": "Line Upgrade", "kv": 230, "cost": 360000, "status": "Approved", "isd": "2025-02-28", "iso": "MISO", "state": "MN", "from_sub": "Moranville", "to_sub": "Lund", "from_lat": 46.316134, "from_lng": -94.19948, "to_lat": 44.399913, "to_lng": -95.937984}, {"pid": 24113, "name": "27742-Cole-Penton", "proj": "J1424 Singer Substation", "ftype": "Misc.", "kv": 230, "cost": 2967565, "status": "Approved", "isd": "2026-10-15", "iso": "MISO", "state": "LA", "from_sub": "Cole", "to_sub": "Penton", "from_lat": 32.43293, "from_lng": -92.677095, "to_lat": 30.863437, "to_lng": -91.798717}, {"pid": 24413, "name": "27843-Lund-Littlefork", "proj": "Richer-Littlefork 230 kV Line Rebuild", "ftype": "Line Upgrade", "kv": 230, "cost": 540000, "status": "Approved", "isd": "2026-02-28", "iso": "MISO", "state": "MN", "from_sub": "Lund", "to_sub": "Littlefork", "from_lat": 44.399913, "from_lng": -95.937984, "to_lat": 48.357144, "to_lng": -93.612836}, {"pid": 24375, "name": "27844-Center-Jamestown", "proj": "Center-Maple River 345 kV Foundation Restoration", "ftype": "Line Upgrade", "kv": 345, "cost": 4400000, "status": "Approved", "isd": "2028-12-31", "iso": "MISO", "state": "ND", "from_sub": "Center", "to_sub": "Jamestown", "from_lat": 47.145874, "from_lng": -101.159363, "to_lat": 46.921005, "to_lng": -98.745485}, {"pid": 24375, "name": "27845-Jamestown-Buffalo", "proj": "Center-Maple River 345 kV Foundation Restoration", "ftype": "Line Upgrade", "kv": 345, "cost": 2000000, "status": "Approved", "isd": "2028-12-31", "iso": "MISO", "state": "ND", "from_sub": "Jamestown", "to_sub": "Buffalo", "from_lat": 46.921005, "from_lng": -98.745485, "to_lat": 46.920016, "to_lng": -97.557491}, {"pid": 24375, "name": "27846-Buffalo-Bison", "proj": "Center-Maple River 345 kV Foundation Restoration", "ftype": "Line Upgrade", "kv": 345, "cost": 750000, "status": "Approved", "isd": "2028-12-31", "iso": "MISO", "state": "ND", "from_sub": "Buffalo", "to_sub": "Bison", "from_lat": 46.920016, "from_lng": -97.557491, "to_lat": 47.44217, "to_lng": -100.460816}, {"pid": 9994, "name": "27749-Custer-Monroe", "proj": "Custer - Monroe 120 kV Line Rebuild", "ftype": "Line Upgrade", "kv": 120, "cost": 18100000, "status": "Construction", "isd": "2026-12-31", "iso": "MISO", "state": "MI", "from_sub": "Custer", "to_sub": "Monroe", "from_lat": 43.932434, "from_lng": -86.177683, "to_lat": 41.907196, "to_lng": -83.472457}, {"pid": 9994, "name": "27750-Custer-Monroe", "proj": "Custer - Monroe 120 kV Line Rebuild", "ftype": "Line New", "kv": 120, "cost": 15100000, "status": "In Service", "isd": "2025-04-30", "iso": "MISO", "state": "MI", "from_sub": "Custer", "to_sub": "Monroe", "from_lat": 43.932434, "from_lng": -86.177683, "to_lat": 41.907196, "to_lng": -83.472457}, {"pid": 50552, "name": "Line: Forman - Hankinson - 230 kV", "proj": "LRTP-19: Bison - Alexandria", "ftype": "Line Upgrade", "kv": 230, "cost": 66500000, "status": "Approved", "isd": "2032-06-01", "iso": "MISO", "state": "ND", "from_sub": "Forman", "to_sub": "Hankinson", "from_lat": 46.058634, "from_lng": -97.633282, "to_lat": 46.073423, "to_lng": -96.92473}, {"pid": 50553, "name": "Line: Maple River - ND/MN State Line - 345 kV", "proj": "LRTP-20: Maple River - Cuyuna", "ftype": "Line New", "kv": 345, "cost": 29700000, "status": "Approved", "isd": "2033-06-01", "iso": "MISO", "state": "ND", "from_sub": "Maple River", "to_sub": "ND/MN State Line", "from_lat": 47.44217, "from_lng": -100.460816, "to_lat": 47.44217, "to_lng": -100.460816}, {"pid": 50553, "name": "Line: ND/MN State Line - Cuyuna - 345 kV", "proj": "LRTP-20: Maple River - Cuyuna", "ftype": "Line New", "kv": 345, "cost": 856900000, "status": "Approved", "isd": "2033-06-01", "iso": "MISO", "state": "MN", "from_sub": "ND/MN State Line", "to_sub": "Cuyuna", "from_lat": 47.44217, "from_lng": -100.460816, "to_lat": 46.516906, "to_lng": -93.923037}, {"pid": 50555, "name": "Line: Big Stone South - Brookings County - 765 kV", "proj": "LRTP-22: Big Stone South - Brookings County - Lakefield Junction", "ftype": "Line New", "kv": 765, "cost": 310100000, "status": "Approved", "isd": "2034-06-01", "iso": "MISO", "state": "SD", "from_sub": "Big Stone South", "to_sub": "Brookings County", "from_lat": 45.29163, "from_lng": -96.46283, "to_lat": 44.376675, "to_lng": -96.797797}, {"pid": 50556, "name": "Line: Lakefield Junction - MN/IA State Line - 765 kV", "proj": "LRTP-23: Lakefield Junction - East Adair", "ftype": "Line New", "kv": 765, "cost": 92200000, "status": "Approved", "isd": "2034-06-01", "iso": "MISO", "state": "MN", "from_sub": "Lakefield Junction", "to_sub": "MN/IA State Line", "from_lat": 43.678125, "from_lng": -95.171548, "to_lat": 47.532424, "to_lng": -92.107672}, {"pid": 50556, "name": "Line: MN/IA State Line - East Adair - 765 kV", "proj": "LRTP-23: Lakefield Junction - East Adair", "ftype": "Line New", "kv": 765, "cost": 874100000, "status": "Approved", "isd": "2034-06-01", "iso": "MISO", "state": "IA", "from_sub": "MN/IA State Line", "to_sub": "East Adair", "from_lat": 47.532424, "from_lng": -92.107672, "to_lat": 41.439109, "to_lng": -94.633805}, {"pid": 50556, "name": "Line: Orient - Deadend East of York Avenue - 345 kV", "proj": "LRTP-23: Lakefield Junction - East Adair", "ftype": "Line Upgrade", "kv": 345, "cost": 22200000, "status": "Approved", "isd": "2032-06-01", "iso": "MISO", "state": "IA", "from_sub": "Orient", "to_sub": "Deadend East of York Avenue", "from_lat": 41.215096, "from_lng": -94.423224, "to_lat": 42.070024, "to_lng": -93.493347}, {"pid": 50556, "name": "Line: Deadend East of York Avenue - East Adair - 345 kV", "proj": "LRTP-23: Lakefield Junction - East Adair", "ftype": "Line New", "kv": 345, "cost": 36900000, "status": "Approved", "isd": "2032-06-01", "iso": "MISO", "state": "IA", "from_sub": "Deadend East of York Avenue", "to_sub": "East Adair", "from_lat": 42.070024, "from_lng": -93.493347, "to_lat": 41.439109, "to_lng": -94.633805}, {"pid": 50556, "name": "Line: East Adair - Arbor Hill - 345 kV", "proj": "LRTP-23: Lakefield Junction - East Adair", "ftype": "Line New", "kv": 345, "cost": 73800000, "status": "Approved", "isd": "2032-06-01", "iso": "MISO", "state": "IA", "from_sub": "East Adair", "to_sub": "Arbor Hill", "from_lat": 41.439109, "from_lng": -94.633805, "to_lat": 43.192887, "to_lng": -96.180883}, {"pid": 50557, "name": "Line: Lakefield Junction - Pleasant Valley - 765 kV", "proj": "LRTP-24: Lakefield Junction - Pleasant Valley - North Rochester", "ftype": "Line New", "kv": 765, "cost": 671600000, "status": "Approved", "isd": "2034-06-01", "iso": "MISO", "state": "MN", "from_sub": "Lakefield Junction", "to_sub": "Pleasant Valley", "from_lat": 43.678125, "from_lng": -95.171548, "to_lat": 45.49674, "to_lng": -94.27201}, {"pid": 50557, "name": "Line: Pleasant Valley - North Rochester - 765 kV", "proj": "LRTP-24: Lakefield Junction - Pleasant Valley - North Rochester", "ftype": "Line New", "kv": 765, "cost": 160900000, "status": "Approved", "isd": "2034-06-01", "iso": "MISO", "state": "MN", "from_sub": "Pleasant Valley", "to_sub": "North Rochester", "from_lat": 45.49674, "from_lng": -94.27201, "to_lat": 44.075285, "to_lng": -92.516916}, {"pid": 50558, "name": "Line: Pleasant Valley - North Rochester - 345 kV", "proj": "LRTP-25: Pleasant Valley - North Rochester - Hampton Corner", "ftype": "Line Upgrade", "kv": 345, "cost": 186300000, "status": "Approved", "isd": "2032-06-01", "iso": "MISO", "state": "MN", "from_sub": "Pleasant Valley", "to_sub": "North Rochester", "from_lat": 45.49674, "from_lng": -94.27201, "to_lat": 44.075285, "to_lng": -92.516916}, {"pid": 50559, "name": "Line: North Rochester - Existing 161kV Line Near Marion - 765 kV", "proj": "LRTP-26: North Rochester - Columbia", "ftype": "Line New", "kv": 765, "cost": 175000000, "status": "Approved", "isd": "2034-06-01", "iso": "MISO", "state": "MN", "from_sub": "North Rochester", "to_sub": "Existing 161kV Line Near Marion", "from_lat": 44.075285, "from_lng": -92.516916, "to_lat": 43.943575, "to_lng": -92.348225}, {"pid": 50559, "name": "Line: Existing 161kV Line Near Marion - Existing 161kV Line Near Adams - 765 kV", "proj": "LRTP-26: North Rochester - Columbia", "ftype": "Line Upgrade", "kv": 765, "cost": 195100000, "status": "Approved", "isd": "2034-06-01", "iso": "MISO", "state": "MN", "from_sub": "Existing 161kV Line Near Marion", "to_sub": "Existing 161kV Line Near Adams", "from_lat": 43.943575, "from_lng": -92.348225, "to_lat": 43.565168, "to_lng": -92.74389}, {"pid": 50559, "name": "Line: Existing 161kV Line Near Adams - MN/WI State Line (Existing Genoa River Crossing) - 765 kV", "proj": "LRTP-26: North Rochester - Columbia", "ftype": "Line Upgrade", "kv": 765, "cost": 444900000, "status": "Approved", "isd": "2034-06-01", "iso": "MISO", "state": "MN", "from_sub": "Existing 161kV Line Near Adams", "to_sub": "MN/WI State Line (Existing Genoa River Crossing)", "from_lat": 43.565168, "from_lng": -92.74389, "to_lat": 44.10977, "to_lng": -92.60392}, {"pid": 50559, "name": "Line: MN/WI State Line (Existing Genoa River Crossing) - Existing 161kV Line Near Bell Center - 765 kV", "proj": "LRTP-26: North Rochester - Columbia", "ftype": "Line Upgrade", "kv": 765, "cost": 238700000, "status": "Approved", "isd": "2034-06-01", "iso": "MISO", "state": "WI", "from_sub": "MN/WI State Line (Existing Genoa River Crossing)", "to_sub": "Existing 161kV Line Near Bell Center", "from_lat": 44.10977, "from_lng": -92.60392, "to_lat": 43.291646, "to_lng": -90.826794}, {"pid": 50559, "name": "Line: Existing 161kV Line Near Bell Center - Columbia - 765 kV", "proj": "LRTP-26: North Rochester - Columbia", "ftype": "Line New", "kv": 765, "cost": 570600000, "status": "Approved", "isd": "2034-06-01", "iso": "MISO", "state": "WI", "from_sub": "Existing 161kV Line Near Bell Center", "to_sub": "Columbia", "from_lat": 43.291646, "from_lng": -90.826794, "to_lat": 43.471882, "to_lng": -89.330472}, {"pid": 50561, "name": "Line: Jefferson - Fort Atkinson - 345 kV", "proj": "LRTP-28: South Fond du Lac - Rockdale - Big Bend - Sugar Creek  - Kitty Hawk", "ftype": "Line Upgrade", "kv": 345, "cost": 24900000, "status": "Approved", "isd": "2033-06-01", "iso": "MISO", "state": "WI", "from_sub": "Jefferson", "to_sub": "Fort Atkinson", "from_lat": 42.993502, "from_lng": -88.759793, "to_lat": 42.926467, "to_lng": -88.841626}, {"pid": 50562, "name": "Line: Granville - Deadend for Butler/Tosa/Tamarack Tap - 345 kV", "proj": "LRTP-29: Bluemound - Arcadian - Waukesha - Muskego - Elm Road - Racine", "ftype": "Line Upgrade", "kv": 345, "cost": 0, "status": "Approved", "isd": "2032-06-01", "iso": "MISO", "state": "WI", "from_sub": "Granville", "to_sub": "Deadend for Butler/Tosa/Tamarack Tap", "from_lat": 44.286983, "from_lng": -88.556406, "to_lat": 44.174962, "to_lng": -91.44793}, {"pid": 50562, "name": "Line: Deadend for Butler/Tosa/Tamarack Tap - Butler - 345 kV", "proj": "LRTP-29: Bluemound - Arcadian - Waukesha - Muskego - Elm Road - Racine", "ftype": "Line Upgrade", "kv": 345, "cost": 9800000, "status": "Approved", "isd": "2032-06-01", "iso": "MISO", "state": "WI", "from_sub": "Deadend for Butler/Tosa/Tamarack Tap", "to_sub": "Butler", "from_lat": 44.174962, "from_lng": -91.44793, "to_lat": 43.108459, "to_lng": -88.071489}, {"pid": 50562, "name": "Line: Line 5401 - Bluemound - 345 kV", "proj": "LRTP-29: Bluemound - Arcadian - Waukesha - Muskego - Elm Road - Racine", "ftype": "Line Upgrade", "kv": 345, "cost": 10900000, "status": "Approved", "isd": "2032-06-01", "iso": "MISO", "state": "WI", "from_sub": "Line 5401", "to_sub": "Bluemound", "from_lat": 44.630907, "from_lng": -89.709392, "to_lat": 43.03822, "to_lng": -89.804576}, {"pid": 50562, "name": "Line: Bluemound - Deadend for Triple-Circuit South of Bluemound - 345 kV", "proj": "LRTP-29: Bluemound - Arcadian - Waukesha - Muskego - Elm Road - Racine", "ftype": "Line New", "kv": 345, "cost": 13000000, "status": "Approved", "isd": "2030-04-30", "iso": "MISO", "state": "WI", "from_sub": "Bluemound", "to_sub": "Deadend for Triple-Circuit South of Bluemound", "from_lat": 43.03822, "from_lng": -89.804576, "to_lat": 42.886773, "to_lng": -89.729003}, {"pid": 50562, "name": "Line: Deadend for Triple-Circuit South of Bluemound - Elm Road - 345 kV", "proj": "LRTP-29: Bluemound - Arcadian - Waukesha - Muskego - Elm Road - Racine", "ftype": "Line Upgrade", "kv": 345, "cost": 137900000, "status": "Approved", "isd": "2030-04-30", "iso": "MISO", "state": "WI", "from_sub": "Deadend for Triple-Circuit South of Bluemound", "to_sub": "Elm Road", "from_lat": 42.886773, "from_lng": -89.729003, "to_lat": 44.630907, "to_lng": -89.709392}, {"pid": 50562, "name": "Line: Deadend for Triple-Circuit South of Bluemound - Arcadian - 345 kV", "proj": "LRTP-29: Bluemound - Arcadian - Waukesha - Muskego - Elm Road - Racine", "ftype": "Line Upgrade", "kv": 345, "cost": 34400000, "status": "Approved", "isd": "2030-04-30", "iso": "MISO", "state": "WI", "from_sub": "Deadend for Triple-Circuit South of Bluemound", "to_sub": "Arcadian", "from_lat": 42.886773, "from_lng": -89.729003, "to_lat": 44.251711, "to_lng": -91.387699}, {"pid": 50562, "name": "Line: Arcadian - Muskego Dam Road - 345 kV", "proj": "LRTP-29: Bluemound - Arcadian - Waukesha - Muskego - Elm Road - Racine", "ftype": "Line Upgrade", "kv": 345, "cost": 81200000, "status": "Approved", "isd": "2030-04-30", "iso": "MISO", "state": "WI", "from_sub": "Arcadian", "to_sub": "Muskego Dam Road", "from_lat": 44.251711, "from_lng": -91.387699, "to_lat": 42.88799, "to_lng": -88.132708}, {"pid": 50562, "name": "Line: Muskego Dam Road - 3.3 Miles West of Elm Road - 345 kV", "proj": "LRTP-29: Bluemound - Arcadian - Waukesha - Muskego - Elm Road - Racine", "ftype": "Line Upgrade", "kv": 345, "cost": 81200000, "status": "Approved", "isd": "2030-04-30", "iso": "MISO", "state": "WI", "from_sub": "Muskego Dam Road", "to_sub": "3.3 Miles West of Elm Road", "from_lat": 42.88799, "from_lng": -88.132708, "to_lat": 43.78213, "to_lng": -89.325877}, {"pid": 50562, "name": "Line: 3.3 Miles West of Elm Road - Elm Road - 345 kV", "proj": "LRTP-29: Bluemound - Arcadian - Waukesha - Muskego - Elm Road - Racine", "ftype": "Line New", "kv": 345, "cost": 23000000, "status": "Approved", "isd": "2030-04-30", "iso": "MISO", "state": "WI", "from_sub": "3.3 Miles West of Elm Road", "to_sub": "Elm Road", "from_lat": 43.78213, "from_lng": -89.325877, "to_lat": 44.630907, "to_lng": -89.709392}, {"pid": 50562, "name": "Line: Elm Road - Deadend North of Existing 345/138kV - 345 kV", "proj": "LRTP-29: Bluemound - Arcadian - Waukesha - Muskego - Elm Road - Racine", "ftype": "Line New", "kv": 345, "cost": 14000000, "status": "Approved", "isd": "2028-01-31", "iso": "MISO", "state": "WI", "from_sub": "Elm Road", "to_sub": "Deadend North of Existing 345/138kV", "from_lat": 44.630907, "from_lng": -89.709392, "to_lat": 44.630907, "to_lng": -89.709392}, {"pid": 50564, "name": "Line: IL/WI State Line - Collins (PJM) - 765 kV", "proj": "LRTP-31: Sugar Creek - Collins", "ftype": "Line New", "kv": 765, "cost": 521600000, "status": "Approved", "isd": "2034-06-01", "iso": "MISO", "state": "IL", "from_sub": "IL/WI State Line", "to_sub": "Collins (PJM)", "from_lat": 44.9511, "from_lng": -88.04677, "to_lat": 40.102875, "to_lng": -89.152611}, {"pid": 50565, "name": "Line: Denver - Ludington - 345 kV", "proj": "LRTP-32: Ludington - Denver - Tittabawassee & Nelson Road", "ftype": "Line New", "kv": 345, "cost": 912900000, "status": "Approved", "isd": "2032-06-01", "iso": "MISO", "state": "MI", "from_sub": "Denver", "to_sub": "Ludington", "from_lat": 44.844176, "from_lng": -85.660493, "to_lat": 43.998926, "to_lng": -86.349439}, {"pid": 50565, "name": "Line: Denver - Nelson Road - 345 kV", "proj": "LRTP-32: Ludington - Denver - Tittabawassee & Nelson Road", "ftype": "Line New", "kv": 345, "cost": 0, "status": "Approved", "isd": "2032-06-01", "iso": "MISO", "state": "MI", "from_sub": "Denver", "to_sub": "Nelson Road", "from_lat": 44.844176, "from_lng": -85.660493, "to_lat": 43.334192, "to_lng": -84.229706}, {"pid": 50566, "name": "Line: IN/MI State Line - Lulu - 765 kV", "proj": "LRTP-33: Greentown - Sorenson - Lulu", "ftype": "Line New", "kv": 765, "cost": 359800000, "status": "Approved", "isd": "2033-06-01", "iso": "MISO", "state": "MI", "from_sub": "IN/MI State Line", "to_sub": "Lulu", "from_lat": 39.419731, "from_lng": -87.41155, "to_lat": 41.879769, "to_lng": -83.61077}, {"pid": 50567, "name": "Line: Oneida - Existing 138kV Line Near Williamston - 345 kV", "proj": "LRTP-34: Oneida - Sabine Lake - Blackfoot & Majestic ", "ftype": "Line New", "kv": 345, "cost": 172100000, "status": "Approved", "isd": "2032-06-01", "iso": "MISO", "state": "MI", "from_sub": "Oneida", "to_sub": "Existing 138kV Line Near Williamston", "from_lat": 44.844176, "from_lng": -85.660493, "to_lat": 42.680434, "to_lng": -84.271215}, {"pid": 50567, "name": "Line: I-96 - Madrid - 345 kV", "proj": "LRTP-34: Oneida - Sabine Lake - Blackfoot & Majestic ", "ftype": "Line Upgrade", "kv": 345, "cost": 17000000, "status": "Approved", "isd": "2032-06-01", "iso": "MISO", "state": "MI", "from_sub": "I-96", "to_sub": "Madrid", "from_lat": 44.844176, "from_lng": -85.660493, "to_lat": 44.844176, "to_lng": -85.660493}, {"pid": 50567, "name": "Line: Madrid - Calla - 345 kV", "proj": "LRTP-34: Oneida - Sabine Lake - Blackfoot & Majestic ", "ftype": "Line Upgrade", "kv": 345, "cost": 6100000, "status": "Approved", "isd": "2032-06-01", "iso": "MISO", "state": "MI", "from_sub": "Madrid", "to_sub": "Calla", "from_lat": 44.844176, "from_lng": -85.660493, "to_lat": 43.170497, "to_lng": -83.707374}, {"pid": 50567, "name": "Line: Madrid - Calla - 120 kV", "proj": "LRTP-34: Oneida - Sabine Lake - Blackfoot & Majestic ", "ftype": "Line Upgrade", "kv": 120, "cost": 28600000, "status": "Approved", "isd": "2032-06-01", "iso": "MISO", "state": "MI", "from_sub": "Madrid", "to_sub": "Calla", "from_lat": 44.844176, "from_lng": -85.660493, "to_lat": 43.170497, "to_lng": -83.707374}, {"pid": 50567, "name": "Line: Calla - Majestic - 345 kV", "proj": "LRTP-34: Oneida - Sabine Lake - Blackfoot & Majestic ", "ftype": "Line Upgrade", "kv": 345, "cost": 3100000, "status": "Approved", "isd": "2032-06-01", "iso": "MISO", "state": "MI", "from_sub": "Calla", "to_sub": "Majestic", "from_lat": 43.170497, "from_lng": -83.707374, "to_lat": 44.844176, "to_lng": -85.660493}, {"pid": 50567, "name": "Line: Calla - Majestic - 120 kV", "proj": "LRTP-34: Oneida - Sabine Lake - Blackfoot & Majestic ", "ftype": "Line Upgrade", "kv": 120, "cost": 4300000, "status": "Approved", "isd": "2032-06-01", "iso": "MISO", "state": "MI", "from_sub": "Calla", "to_sub": "Majestic", "from_lat": 43.170497, "from_lng": -83.707374, "to_lat": 44.844176, "to_lng": -85.660493}, {"pid": 50567, "name": "Line: Crimson - Jewell - 345 kV", "proj": "LRTP-34: Oneida - Sabine Lake - Blackfoot & Majestic ", "ftype": "Line Upgrade", "kv": 345, "cost": 4000000, "status": "Approved", "isd": "2032-06-01", "iso": "MISO", "state": "MI", "from_sub": "Crimson", "to_sub": "Jewell", "from_lat": 44.844176, "from_lng": -85.660493, "to_lat": 44.844176, "to_lng": -85.660493}, {"pid": 50567, "name": "Line: Pontiac  - Crimson #2 - 345 kV", "proj": "LRTP-34: Oneida - Sabine Lake - Blackfoot & Majestic ", "ftype": "Line Upgrade", "kv": 345, "cost": 5500000, "status": "Approved", "isd": "2032-06-01", "iso": "MISO", "state": "MI", "from_sub": "Pontiac", "to_sub": "Crimson #2", "from_lat": 42.670272, "from_lng": -83.289036, "to_lat": 44.844176, "to_lng": -85.660493}, {"pid": 50568, "name": "Line: Pike County - Petersburg - 345 kV", "proj": "LRTP-35: Southwest Indiana-Kentucky", "ftype": "Line New", "kv": 345, "cost": 15900000, "status": "Approved", "isd": "2032-06-01", "iso": "MISO", "state": "IN", "from_sub": "Pike County", "to_sub": "Petersburg", "from_lat": 38.397961, "from_lng": -87.232547, "to_lat": 38.459787, "to_lng": -87.298174}, {"pid": 50568, "name": "Line: Pike County - Duff - 345 kV", "proj": "LRTP-35: Southwest Indiana-Kentucky", "ftype": "Line New", "kv": 345, "cost": 61500000, "status": "Approved", "isd": "2030-10-01", "iso": "MISO", "state": "IN", "from_sub": "Pike County", "to_sub": "Duff", "from_lat": 38.397961, "from_lng": -87.232547, "to_lat": 38.327274, "to_lng": -87.026389}, {"pid": 50568, "name": "Line: Duff - Culley 345kV - 345 kV", "proj": "LRTP-35: Southwest Indiana-Kentucky", "ftype": "Line New", "kv": 345, "cost": 110700000, "status": "Approved", "isd": "2029-12-31", "iso": "MISO", "state": "IN", "from_sub": "Duff", "to_sub": "Culley 345kV", "from_lat": 38.327274, "from_lng": -87.026389, "to_lat": 39.138389, "to_lng": -84.988288}, {"pid": 50568, "name": "Line: Culley 345kV - IN/KY State Line - 345 kV", "proj": "LRTP-35: Southwest Indiana-Kentucky", "ftype": "Line New", "kv": 345, "cost": 2800000, "status": "Approved", "isd": "2029-07-01", "iso": "MISO", "state": "IN", "from_sub": "Culley 345kV", "to_sub": "IN/KY State Line", "from_lat": 39.138389, "from_lng": -84.988288, "to_lat": 39.419731, "to_lng": -87.41155}, {"pid": 50568, "name": "Line: Culley 345kV - Darlington - 138 kV", "proj": "LRTP-35: Southwest Indiana-Kentucky", "ftype": "Line New", "kv": 138, "cost": 0, "status": "Approved", "isd": "2029-07-01", "iso": "MISO", "state": "IN", "from_sub": "Culley 345kV", "to_sub": "Darlington", "from_lat": 39.138389, "from_lng": -84.988288, "to_lat": 40.107625, "to_lng": -86.777653}, {"pid": 50569, "name": "Line: Greensboro - Madison County - 345 kV", "proj": "LRTP-36: Southeast Indiana", "ftype": "Line New", "kv": 345, "cost": 37400000, "status": "Approved", "isd": "2032-06-01", "iso": "MISO", "state": "IN", "from_sub": "Greensboro", "to_sub": "Madison County", "from_lat": 39.878933, "from_lng": -85.464036, "to_lat": 40.166203, "to_lng": -85.722454}, {"pid": 50569, "name": "Line: Decatur County - Greensburg - 138 kV", "proj": "LRTP-36: Southeast Indiana", "ftype": "Line Upgrade", "kv": 138, "cost": 8700000, "status": "Approved", "isd": "2032-06-01", "iso": "MISO", "state": "IN", "from_sub": "Decatur County", "to_sub": "Greensburg", "from_lat": 39.30598, "from_lng": -85.499831, "to_lat": 39.299802, "to_lng": -85.491781}, {"pid": 50569, "name": "Line: Batesville - Hubbell - 138 kV", "proj": "LRTP-36: Southeast Indiana", "ftype": "Line Upgrade", "kv": 138, "cost": 27900000, "status": "Approved", "isd": "2032-06-01", "iso": "MISO", "state": "IN", "from_sub": "Batesville", "to_sub": "Hubbell", "from_lat": 39.30005, "from_lng": -85.22218, "to_lat": 39.183099, "to_lng": -87.012232}, {"pid": 50569, "name": "Line: Hubbell - Greendale - 138 kV", "proj": "LRTP-36: Southeast Indiana", "ftype": "Line Upgrade", "kv": 138, "cost": 49300000, "status": "Approved", "isd": "2032-06-01", "iso": "MISO", "state": "IN", "from_sub": "Hubbell", "to_sub": "Greendale", "from_lat": 39.183099, "from_lng": -87.012232, "to_lat": 41.113382, "to_lng": -85.088859}, {"pid": 50569, "name": "Line: Greendale - IN/OH State Line - 138 kV", "proj": "LRTP-36: Southeast Indiana", "ftype": "Line Upgrade", "kv": 138, "cost": 9700000, "status": "Approved", "isd": "2032-06-01", "iso": "MISO", "state": "IN", "from_sub": "Greendale", "to_sub": "IN/OH State Line", "from_lat": 41.113382, "from_lng": -85.088859, "to_lat": 40.19674, "to_lng": -87.526532}, {"pid": 50569, "name": "Line: IN/OH State Line - Miami Fort (PJM) - 138 kV", "proj": "LRTP-36: Southeast Indiana", "ftype": "Line Upgrade", "kv": 138, "cost": 3100000, "status": "Approved", "isd": "2032-06-01", "iso": "MISO", "state": "OH", "from_sub": "IN/OH State Line", "to_sub": "Miami Fort (PJM)", "from_lat": 40.19674, "from_lng": -87.526532, "to_lat": 40.053326, "to_lng": -84.228414}, {"pid": 50570, "name": "Line: Maywood - Palmyra - 345 kV", "proj": "LRTP-37: Maywood - Belleau - MRPD - Sioux - Bugle", "ftype": "Line New", "kv": 345, "cost": 9700000, "status": "Approved", "isd": "2032-06-01", "iso": "MISO", "state": "MO", "from_sub": "Maywood", "to_sub": "Palmyra", "from_lat": 39.954212, "from_lng": -91.603214, "to_lat": 39.794531, "to_lng": -91.609424}, {"pid": 50570, "name": "Line: Finn Tap - Belleau - 345 kV", "proj": "LRTP-37: Maywood - Belleau - MRPD - Sioux - Bugle", "ftype": "Line Upgrade", "kv": 345, "cost": 361300000, "status": "Approved", "isd": "2032-06-01", "iso": "MISO", "state": "MO", "from_sub": "Finn Tap", "to_sub": "Belleau", "from_lat": 38.16992, "from_lng": -91.968002, "to_lat": 38.204321, "to_lng": -91.756633}, {"pid": 50570, "name": "Line: Belleau - MRPD - 345 kV", "proj": "LRTP-37: Maywood - Belleau - MRPD - Sioux - Bugle", "ftype": "Line Upgrade", "kv": 345, "cost": 79900000, "status": "Approved", "isd": "2032-06-01", "iso": "MISO", "state": "MO", "from_sub": "Belleau", "to_sub": "MRPD", "from_lat": 38.204321, "from_lng": -91.756633, "to_lat": 38.523631, "to_lng": -93.21576}, {"pid": 50570, "name": "Line: MRPD - 3-Way Junction - 345 kV", "proj": "LRTP-37: Maywood - Belleau - MRPD - Sioux - Bugle", "ftype": "Line New", "kv": 345, "cost": 22100000, "status": "Approved", "isd": "2032-06-01", "iso": "MISO", "state": "MO", "from_sub": "MRPD", "to_sub": "3-Way Junction", "from_lat": 38.523631, "from_lng": -93.21576, "to_lat": 37.576442, "to_lng": -90.288174}, {"pid": 50570, "name": "Line: 3-Way Junction - Bugle - 345 kV", "proj": "LRTP-37: Maywood - Belleau - MRPD - Sioux - Bugle", "ftype": "Line New", "kv": 345, "cost": 48700000, "status": "Approved", "isd": "2032-06-01", "iso": "MISO", "state": "MO", "from_sub": "3-Way Junction", "to_sub": "Bugle", "from_lat": 37.576442, "from_lng": -90.288174, "to_lat": 38.35075, "to_lng": -92.456783}, {"pid": 50570, "name": "Line: Bugle - IL/MO State Line - 345 kV", "proj": "LRTP-37: Maywood - Belleau - MRPD - Sioux - Bugle", "ftype": "Line Upgrade", "kv": 345, "cost": 79700000, "status": "Approved", "isd": "2032-06-01", "iso": "MISO", "state": "MO", "from_sub": "Bugle", "to_sub": "IL/MO State Line", "from_lat": 38.35075, "from_lng": -92.456783, "to_lat": 38.497711, "to_lng": -91.787954}, {"pid": 50571, "name": "Line: East Adair - Marshalltown (Twinkle) - 765 kV", "proj": "LRTP-38: East Adair - Marshalltown - Sub T", "ftype": "Line New", "kv": 765, "cost": 566200000, "status": "Approved", "isd": "2034-06-01", "iso": "MISO", "state": "IA", "from_sub": "East Adair", "to_sub": "Marshalltown (Twinkle)", "from_lat": 41.439109, "from_lng": -94.633805, "to_lat": 42.036096, "to_lng": -92.998867}, {"pid": 50572, "name": "Line: Lehigh - Marshalltown (Twinkle) - 345 kV", "proj": "LRTP-39: Lehigh - Marshalltown - Franklin North & Montezuma", "ftype": "Line New", "kv": 345, "cost": 284200000, "status": "Approved", "isd": "2032-06-01", "iso": "MISO", "state": "IA", "from_sub": "Lehigh", "to_sub": "Marshalltown (Twinkle)", "from_lat": 42.390452, "from_lng": -94.048108, "to_lat": 42.036096, "to_lng": -92.998867}, {"pid": 50572, "name": "Line: Marshalltown (Twinkle) - Montezuma - 345 kV", "proj": "LRTP-39: Lehigh - Marshalltown - Franklin North & Montezuma", "ftype": "Line New", "kv": 345, "cost": 208400000, "status": "Approved", "isd": "2032-06-01", "iso": "MISO", "state": "IA", "from_sub": "Marshalltown (Twinkle)", "to_sub": "Montezuma", "from_lat": 42.036096, "from_lng": -92.998867, "to_lat": 41.605693, "to_lng": -92.473857}, {"pid": 50573, "name": "Line: IA/IL State Line - Oak Grove - 345 kV", "proj": "LRTP-40: Sub T - Woodford County - Collins & Reynolds", "ftype": "Line Upgrade", "kv": 345, "cost": 79700000, "status": "Approved", "isd": "2034-06-01", "iso": "MISO", "state": "IL", "from_sub": "IA/IL State Line", "to_sub": "Oak Grove", "from_lat": 40.740697, "from_lng": -93.748889, "to_lat": 41.410589, "to_lng": -90.570691}, {"pid": 50574, "name": "Line: Near Woodford County - Radbourn - 345 kV", "proj": "LRTP-41: Woodford County - Fargo & Radbourn", "ftype": "Line Upgrade", "kv": 345, "cost": 185000000, "status": "Approved", "isd": "2032-06-01", "iso": "MISO", "state": "IL", "from_sub": "Near Woodford County", "to_sub": "Radbourn", "from_lat": 40.789787, "from_lng": -89.210587, "to_lat": 40.102875, "to_lng": -89.152611}, {"pid": 50148, "name": "Havana-Puro-1422 138 kV", "proj": "Havana-Puro 138 kV1422 MPFCA", "ftype": "Line Upgrade", "kv": 138, "cost": 13200000, "status": "Approved", "isd": "2027-12-01", "iso": "MISO", "state": "MO", "from_sub": "Havana", "to_sub": "Puro", "from_lat": 40.30004, "from_lng": -90.06095, "to_lat": 38.182527, "to_lng": -94.291894}, {"pid": 50152, "name": "230 kV Transmission line", "proj": "Ellendale load 3 addition", "ftype": "Line New", "kv": 230, "cost": 2265527, "status": "Approved", "isd": "2027-12-31", "iso": "MISO", "state": "ND", "from_sub": "Ellendale", "to_sub": "Ellendale Data Center", "from_lat": 46.106141, "from_lng": -98.620707, "to_lat": 47.145874, "to_lng": -101.159363}, {"pid": 50154, "name": "California-Overton-1 161 kV Line", "proj": "Grain Belt Express AECI Facilities Construction Agreement (GI-083)", "ftype": "Line Upgrade", "kv": 161, "cost": 1000000, "status": "Approved", "isd": "2027-12-01", "iso": "MISO", "state": "MO", "from_sub": "California", "to_sub": "Overton", "from_lat": 38.625055, "from_lng": -92.550973, "to_lat": 38.947811, "to_lng": -92.576296}, {"pid": 50154, "name": "Montgomery-Burns-5481 345 kV Line", "proj": "Grain Belt Express AECI Facilities Construction Agreement (GI-083)", "ftype": "Line Upgrade", "kv": 345, "cost": 31000000, "status": "Approved", "isd": "2027-12-01", "iso": "MISO", "state": "MO", "from_sub": "Montgomery", "to_sub": "Burns", "from_lat": 38.935184, "from_lng": -91.465427, "to_lat": 37.636902, "to_lng": -93.396427}, {"pid": 50154, "name": "Rebuild Loy Martin-Katy-7429 161 kV Line", "proj": "Grain Belt Express AECI Facilities Construction Agreement (GI-083)", "ftype": "Line Upgrade", "kv": 161, "cost": 5500000, "status": "Approved", "isd": "2027-12-01", "iso": "MISO", "state": "MO", "from_sub": "Loy Martin", "to_sub": "Katy", "from_lat": 39.319458, "from_lng": -93.860774, "to_lat": 36.720897, "to_lng": -93.680194}, {"pid": 50157, "name": "Big Cedar to Morgan Valley #2 345 kV line", "proj": "Big Cedar Load Expansion", "ftype": "Line Upgrade", "kv": 345, "cost": 6997500, "status": "Approved", "isd": "2027-09-30", "iso": "MISO", "state": "IA", "from_sub": "Big Cedar", "to_sub": "Morgan Valley", "from_lat": 41.219972, "from_lng": -92.506291, "to_lat": 42.037189, "to_lng": -95.256476}, {"pid": 50157, "name": "Beverly to Hills 345 kV line", "proj": "Big Cedar Load Expansion", "ftype": "Line Upgrade", "kv": 345, "cost": 159575000, "status": "Approved", "isd": "2029-02-28", "iso": "MISO", "state": "IA", "from_sub": "Beverly", "to_sub": "Hills", "from_lat": 42.070024, "from_lng": -93.493347, "to_lat": 41.555704, "to_lng": -91.530842}, {"pid": 50157, "name": "Big Cedar to Customer Line #1", "proj": "Big Cedar Load Expansion", "ftype": "Line New", "kv": 345, "cost": 1767500, "status": "Approved", "isd": "2027-09-30", "iso": "MISO", "state": "IA", "from_sub": "Big Cedar", "to_sub": "Customer Owned Substation", "from_lat": 41.219972, "from_lng": -92.506291, "to_lat": 42.542767, "to_lng": -91.353475}, {"pid": 50157, "name": "Big Cedar to Customer Line #2", "proj": "Big Cedar Load Expansion", "ftype": "Line New", "kv": 345, "cost": 1767500, "status": "Approved", "isd": "2027-09-30", "iso": "MISO", "state": "IA", "from_sub": "Big Cedar", "to_sub": "Customer Owned Substation", "from_lat": 41.219972, "from_lng": -92.506291, "to_lat": 42.542767, "to_lng": -91.353475}, {"pid": 50157, "name": "Big Cedar to Customer Line #3", "proj": "Big Cedar Load Expansion", "ftype": "Line New", "kv": 345, "cost": 3433750, "status": "Approved", "isd": "2028-09-30", "iso": "MISO", "state": "IA", "from_sub": "Big Cedar", "to_sub": "Customer Owned Substation", "from_lat": 41.219972, "from_lng": -92.506291, "to_lat": 42.542767, "to_lng": -91.353475}, {"pid": 50157, "name": "Big Cedar to Customer Line #4", "proj": "Big Cedar Load Expansion", "ftype": "Line New", "kv": 345, "cost": 3433750, "status": "Approved", "isd": "2028-09-30", "iso": "MISO", "state": "IA", "from_sub": "Big Cedar", "to_sub": "Customer Owned Substation", "from_lat": 41.219972, "from_lng": -92.506291, "to_lat": 42.542767, "to_lng": -91.353475}, {"pid": 50157, "name": "Hills - Johnson Line Relocation", "proj": "Big Cedar Load Expansion", "ftype": "Line Upgrade", "kv": 345, "cost": 2161250, "status": "Approved", "isd": "2027-09-30", "iso": "MISO", "state": "IA", "from_sub": "Johnson", "to_sub": "Hills", "from_lat": 41.670668, "from_lng": -91.590529, "to_lat": 41.555704, "to_lng": -91.530842}, {"pid": 50160, "name": "2nd Andrus 230/115 Autotransformer", "proj": "J1672 Network Upgrades: Gerald Andrus 230kV Auto", "ftype": "Transformer", "kv": 230, "cost": 19750000, "status": "Approved", "isd": "2028-06-15", "iso": "MISO", "state": "MS", "from_sub": "Andrus 230", "to_sub": "Andrus 115", "from_lat": 32.686471, "from_lng": -89.656138, "to_lat": 32.686471, "to_lng": -89.656138}, {"pid": 50161, "name": "Empire Mine \u2013 Huron 138 kV (X-119), OPGW Addition", "proj": "Empire Mine \u2013 Huron 138 kV (X-119), OPGW Addition", "ftype": "Misc.", "kv": 138, "cost": 13000000, "status": "Approved", "isd": "2028-04-15", "iso": "MISO", "state": "MI", "from_sub": "Empire Mine", "to_sub": "Huron", "from_lat": 44.81111, "from_lng": -86.06009, "to_lat": 44.996329, "to_lng": -83.667641}, {"pid": 15449, "name": "23545-Ottumwa Generation-Ottumwa Heights", "proj": "Ottumwa Heights 161kV Substation Interconnection", "ftype": "Line New", "kv": 161, "cost": 2916000, "status": "Approved", "isd": "2029-06-26", "iso": "MISO", "state": "IA", "from_sub": "Ottumwa Generation", "to_sub": "Ottumwa Heights", "from_lat": 41.030933, "from_lng": -92.409827, "to_lat": 41.030933, "to_lng": -92.409827}, {"pid": 15746, "name": "23759-Beulah-Mandan", "proj": "Beulah-Mandan 115 Rebuild", "ftype": "Line Upgrade", "kv": 115, "cost": 25900000, "status": "Approved", "isd": "2030-12-31", "iso": "MISO", "state": "ND", "from_sub": "Beulah", "to_sub": "Mandan", "from_lat": 47.277895, "from_lng": -101.853161, "to_lat": 46.71312, "to_lng": -100.952585}, {"pid": 15754, "name": "23769-Mio Dam-Plywood Tap", "proj": "Mio Dam - Plywood Tap 138 kV Sag Remediation", "ftype": "Line Upgrade", "kv": 138, "cost": 875000, "status": "Approved", "isd": "2027-12-31", "iso": "MISO", "state": "MI", "from_sub": "Mio Dam", "to_sub": "Plywood Tap", "from_lat": 44.662952, "from_lng": -84.089518, "to_lat": 44.844176, "to_lng": -85.660493}, {"pid": 15776, "name": "23801-Adams-Fitz", "proj": "Juliet", "ftype": "Line New", "kv": 120, "cost": 734000, "status": "Approved", "isd": "2030-12-31", "iso": "MISO", "state": "MI", "from_sub": "Adams", "to_sub": "Fitz", "from_lat": 44.844176, "from_lng": -85.660493, "to_lat": 44.844176, "to_lng": -85.660493}, {"pid": 15774, "name": "New Dempsey to Pleasant View 138 kV line", "proj": "New Pleasant View 138/69 kV Substation and Lines", "ftype": "Line New", "kv": 138, "cost": 1200000, "status": "Approved", "isd": "2026-12-01", "iso": "MISO", "state": "IL", "from_sub": "Dempsey", "to_sub": "Pleasant View", "from_lat": 40.102875, "from_lng": -89.152611, "to_lat": 39.447008, "to_lng": -90.87168}, {"pid": 15793, "name": "23821-Gaylord-Livingston", "proj": "Rebuild Gaylord - Livingston 138 kV", "ftype": "Line Upgrade", "kv": 138, "cost": 3500000, "status": "Approved", "isd": "2027-05-14", "iso": "MISO", "state": "MI", "from_sub": "Gaylord", "to_sub": "Livingston", "from_lat": 45.028411, "from_lng": -84.612207, "to_lat": 42.449438, "to_lng": -83.800018}, {"pid": 15803, "name": "23833-Gaines-Meadowbrooke", "proj": "Gaines - Meadowbrooke 138 kV Rebuild", "ftype": "Line Upgrade", "kv": 138, "cost": 455000, "status": "Approved", "isd": "2027-02-26", "iso": "MISO", "state": "MI", "from_sub": "Gaines", "to_sub": "Meadowbrooke", "from_lat": 42.872466, "from_lng": -83.858445, "to_lat": 44.844176, "to_lng": -85.660493}, {"pid": 15806, "name": "23836-Chopin-Arthur Jct", "proj": "Chopin-Arthur Jct. 138kV Sag Remediation", "ftype": "Line Upgrade", "kv": 138, "cost": 3230000, "status": "Approved", "isd": "2027-06-01", "iso": "MISO", "state": "MI", "from_sub": "Chopin", "to_sub": "Arthur Jct", "from_lat": 44.844176, "from_lng": -85.660493, "to_lat": 44.844176, "to_lng": -85.660493}, {"pid": 15809, "name": "23841-Four Mile (Northridge)-North Belding", "proj": "Four Mile (Northridge) - North Belding 138 kV Rebuild", "ftype": "Line Upgrade", "kv": 138, "cost": 11700000, "status": "Approved", "isd": "2025-12-31", "iso": "MISO", "state": "MI", "from_sub": "Four Mile (Northridge)", "to_sub": "North Belding", "from_lat": 44.844176, "from_lng": -85.660493, "to_lat": 43.09781, "to_lng": -85.22891}, {"pid": 15776, "name": "23873-Adams-Juliet", "proj": "Juliet", "ftype": "Misc.", "kv": 120, "cost": 1, "status": "Approved", "isd": "2030-12-31", "iso": "MISO", "state": "MI", "from_sub": "Adams", "to_sub": "Juliet", "from_lat": 44.844176, "from_lng": -85.660493, "to_lat": 44.844176, "to_lng": -85.660493}, {"pid": 15833, "name": "23882-Bagley Tap-Gaylord", "proj": "Rebuild Bagley Tap - Gaylord 138 kV", "ftype": "Line Upgrade", "kv": 138, "cost": 3950000, "status": "Approved", "isd": "2028-06-01", "iso": "MISO", "state": "MI", "from_sub": "Bagley Tap", "to_sub": "Gaylord", "from_lat": 44.465123, "from_lng": -85.681485, "to_lat": 45.028411, "to_lng": -84.612207}, {"pid": 16686, "name": "24378-Garner Galls Creek-Line Taps", "proj": "Garner Galls Creek 161kV Interconnection", "ftype": "Line New", "kv": 161, "cost": 376800, "status": "Approved", "isd": "2030-02-27", "iso": "MISO", "state": "IA", "from_sub": "Garner Galls Creek", "to_sub": "Line Taps", "from_lat": 43.10357, "from_lng": -93.60243, "to_lat": 40.740697, "to_lng": -93.748889}, {"pid": 16686, "name": "24380-Hancock-Garner Galls Creek", "proj": "Garner Galls Creek 161kV Interconnection", "ftype": "Line Upgrade", "kv": 161, "cost": 2483933, "status": "Approved", "isd": "2024-08-30", "iso": "MISO", "state": "IA", "from_sub": "Hancock", "to_sub": "Garner Galls Creek", "from_lat": 41.389941, "from_lng": -95.372891, "to_lat": 43.10357, "to_lng": -93.60243}, {"pid": 18178, "name": "25003-Hancock-Lily", "proj": "Rebuild of Hancock \u2013 Lily 120 kV", "ftype": "Line Upgrade", "kv": 120, "cost": 4400000, "status": "Approved", "isd": "2026-12-31", "iso": "MISO", "state": "MI", "from_sub": "Hancock", "to_sub": "Lily", "from_lat": 41.389941, "from_lng": -95.372891, "to_lat": 43.770848, "to_lng": -85.850615}, {"pid": 18179, "name": "25005-Hood-Lily", "proj": "Rebuild of Hood \u2013 Lily 120 kV", "ftype": "Line Upgrade", "kv": 120, "cost": 5730000, "status": "Approved", "isd": "2027-06-01", "iso": "MISO", "state": "MI", "from_sub": "Hood", "to_sub": "Lily", "from_lat": 44.844176, "from_lng": -85.660493, "to_lat": 43.770848, "to_lng": -85.850615}, {"pid": 18192, "name": "HINES-LEVAN_ Rebuild", "proj": "Rebuild Hines - Levan 120 kV Line", "ftype": "Line Upgrade", "kv": 120, "cost": 1645000, "status": "Approved", "isd": "2028-03-15", "iso": "MISO", "state": "MI", "from_sub": "Hines", "to_sub": "Levan", "from_lat": 44.844176, "from_lng": -85.660493, "to_lat": 42.369351, "to_lng": -83.371753}, {"pid": 23026, "name": "27376-Kays-Hamilton", "proj": "New South Central Illinois Transmission Expansion", "ftype": "Line New", "kv": 138, "cost": 51000000, "status": "Approved", "isd": "2027-12-01", "iso": "MISO", "state": "IL", "from_sub": "Kays", "to_sub": "Hamilton", "from_lat": 39.45809, "from_lng": -88.49394, "to_lat": 40.475714, "to_lng": -91.271002}, {"pid": 23026, "name": "27377-Benton NW-Franklin", "proj": "New South Central Illinois Transmission Expansion", "ftype": "Line New", "kv": 138, "cost": 22100000, "status": "Approved", "isd": "2028-12-01", "iso": "MISO", "state": "IL", "from_sub": "Benton NW", "to_sub": "Franklin", "from_lat": 37.994423, "from_lng": -88.907464, "to_lat": 39.622203, "to_lng": -90.088945}, {"pid": 23596, "name": "27382-Glenham-Bowdle East", "proj": "Glenham rebuild", "ftype": "Line New", "kv": 115, "cost": 600000, "status": "Approved", "isd": "2028-12-31", "iso": "MISO", "state": "SD", "from_sub": "Glenham", "to_sub": "Bowdle East", "from_lat": 45.504288, "from_lng": -100.311701, "to_lat": 45.469377, "to_lng": -99.595667}, {"pid": 23596, "name": "27383-Glenham-Mobridge", "proj": "Glenham rebuild", "ftype": "Line New", "kv": 115, "cost": 600000, "status": "Approved", "isd": "2028-12-31", "iso": "MISO", "state": "SD", "from_sub": "Glenham", "to_sub": "Mobridge", "from_lat": 45.504288, "from_lng": -100.311701, "to_lat": 45.53333, "to_lng": -100.43333}, {"pid": 23596, "name": "27385-Glenham-Bismarck WAPA", "proj": "Glenham rebuild", "ftype": "Line New", "kv": 230, "cost": 750000, "status": "Approved", "isd": "2028-12-31", "iso": "MISO", "state": "SD", "from_sub": "Glenham", "to_sub": "Bismarck WAPA", "from_lat": 45.504288, "from_lng": -100.311701, "to_lat": 44.446796, "to_lng": -100.238176}, {"pid": 23699, "name": "27410-CBEC-Gifford Road", "proj": "Gifford Road 161-13.2 kV Substation and 161 kV Line Taps", "ftype": "Line New", "kv": 161, "cost": 1250000, "status": "Approved", "isd": "2028-12-01", "iso": "MISO", "state": "IA", "from_sub": "CBEC", "to_sub": "Gifford Road", "from_lat": 42.070024, "from_lng": -93.493347, "to_lat": 42.383133, "to_lng": -93.250567}, {"pid": 23699, "name": "27411-Indian Creek East-Gifford Road", "proj": "Gifford Road 161-13.2 kV Substation and 161 kV Line Taps", "ftype": "Line New", "kv": 161, "cost": 1250000, "status": "Approved", "isd": "2028-12-01", "iso": "MISO", "state": "IA", "from_sub": "Indian Creek East", "to_sub": "Gifford Road", "from_lat": 42.896225, "from_lng": -96.309509, "to_lat": 42.383133, "to_lng": -93.250567}, {"pid": 23686, "name": "27421-Obrien County-Hospers", "proj": "Obrien County-Hospers 161 kV Line, Obrien County 345-161 kV Transformer Addition & Hospers 161-69 kV Transformer Addition", "ftype": "Line New", "kv": 161, "cost": 30000000, "status": "Approved", "isd": "2028-12-01", "iso": "MISO", "state": "IA", "from_sub": "Obrien County", "to_sub": "Hospers", "from_lat": 43.083746, "from_lng": -95.625624, "to_lat": 43.07719, "to_lng": -95.938839}, {"pid": 23703, "name": "27445-Clay County-Palo Alto", "proj": "J982 POI New 345 kV Interconnection Substation and 345 kV Line Taps", "ftype": "Line New", "kv": 345, "cost": 4000000, "status": "Approved", "isd": "2028-06-01", "iso": "MISO", "state": "IA", "from_sub": "Clay County", "to_sub": "Palo Alto", "from_lat": 43.081224, "from_lng": -95.149875, "to_lat": 42.67359, "to_lng": -95.29055}, {"pid": 23704, "name": "27456-Mio Dam-Abbe", "proj": "Abbe Jct - Mio 138kV Sag Remediation", "ftype": "Line Upgrade", "kv": 138, "cost": 1700000, "status": "Approved", "isd": "2026-07-23", "iso": "MISO", "state": "MI", "from_sub": "Mio Dam", "to_sub": "Abbe", "from_lat": 44.662952, "from_lng": -84.089518, "to_lat": 44.844176, "to_lng": -85.660493}, {"pid": 24449, "name": "27984-Ames-Prairieview", "proj": "Nevada Area Load Interconnections", "ftype": "Line New", "kv": 161, "cost": 10091622, "status": "Approved", "isd": "2026-07-31", "iso": "MISO", "state": "IA", "from_sub": "Ames", "to_sub": "Prairieview", "from_lat": 42.037879, "from_lng": -93.600254, "to_lat": 42.070024, "to_lng": -93.493347}, {"pid": 24516, "name": "27994-Beecher-Pixley", "proj": "J1571 Generator Interconnection Network Upgrades", "ftype": "Substation", "kv": 138, "cost": 7887399, "status": "Approved", "isd": "2028-04-03", "iso": "MISO", "state": "MI", "from_sub": "Beecher", "to_sub": "Pixley", "from_lat": 44.844176, "from_lng": -85.660493, "to_lat": 44.844176, "to_lng": -85.660493}, {"pid": 24516, "name": "27995-Beecher-Pixley", "proj": "J1571 Generator Interconnection Network Upgrades", "ftype": "Line Upgrade", "kv": 138, "cost": 687500, "status": "Approved", "isd": "2028-02-01", "iso": "MISO", "state": "MI", "from_sub": "Beecher", "to_sub": "Pixley", "from_lat": 44.844176, "from_lng": -85.660493, "to_lat": 44.844176, "to_lng": -85.660493}, {"pid": 24536, "name": "27996-Beecher-Pixley", "proj": "J1571 Generator Interconnection TOIF", "ftype": "Substation", "kv": 138, "cost": 0, "status": "Approved", "isd": "2028-04-03", "iso": "MISO", "state": "MI", "from_sub": "Beecher", "to_sub": "Pixley", "from_lat": 44.844176, "from_lng": -85.660493, "to_lat": 44.844176, "to_lng": -85.660493}, {"pid": 24558, "name": "28023-Coldwater-Moore Road", "proj": "J1658 Generator Interconnection Network Upgrades", "ftype": "Line Upgrade", "kv": 138, "cost": 12137500, "status": "In Service", "isd": "2025-11-13", "iso": "MISO", "state": "MI", "from_sub": "Coldwater", "to_sub": "Moore Road", "from_lat": 41.905358, "from_lng": -85.058716, "to_lat": 43.046851, "to_lng": -84.900482}, {"pid": 23415, "name": "28037-IA/IL State Border -Mississippi River-Ipava", "proj": "LRTP-13: Coddington \u2013 Ipava", "ftype": "Line Upgrade", "kv": 345, "cost": 298200000, "status": "Approved", "isd": "2028-06-01", "iso": "MISO", "state": "IL", "from_sub": "IA/IL State Border -Mississippi River", "to_sub": "Ipava", "from_lat": 38.757302, "from_lng": -88.473594, "to_lat": 40.333536, "to_lng": -90.307389}, {"pid": 23415, "name": "28038-IA/IL State Border -Mississippi River-Ipava", "proj": "LRTP-13: Coddington \u2013 Ipava", "ftype": "Line Upgrade", "kv": 345, "cost": 19814315, "status": "Approved", "isd": "2028-06-01", "iso": "MISO", "state": "IL", "from_sub": "IA/IL State Border -Mississippi River", "to_sub": "Ipava", "from_lat": 38.757302, "from_lng": -88.473594, "to_lat": 40.333536, "to_lng": -90.307389}, {"pid": 25295, "name": "28456-North Rochester-Prairie Island", "proj": "2023 Line Clearance Mitigations", "ftype": "Line Upgrade", "kv": 345, "cost": 1111422, "status": "Construction", "isd": "2026-05-29", "iso": "MISO", "state": "MN", "from_sub": "North Rochester", "to_sub": "Prairie Island", "from_lat": 44.075285, "from_lng": -92.516916, "to_lat": 48.595203, "to_lng": -93.166811}, {"pid": 25295, "name": "28457-Monticello-Oakwood", "proj": "2023 Line Clearance Mitigations", "ftype": "Line Upgrade", "kv": 115, "cost": 150000, "status": "In Service", "isd": "2023-09-30", "iso": "MISO", "state": "MN", "from_sub": "Monticello", "to_sub": "Oakwood", "from_lat": 45.292082, "from_lng": -93.838711, "to_lat": 46.316134, "to_lng": -94.19948}, {"pid": 4295, "name": "28489-Nelson Lake-345-230kV Sub Expansion", "proj": "HVDC Modernization Project", "ftype": "Substation", "kv": 345, "cost": 30000000, "status": "Approved", "isd": "2028-12-31", "iso": "MISO", "state": "ND", "from_sub": "Nelson Lake", "to_sub": "345-230kV Sub Expansion", "from_lat": 47.918667, "from_lng": -98.204428, "to_lat": 47.44217, "to_lng": -100.460816}, {"pid": 4295, "name": "28492-East Oliver-Nelson Lake 345kV", "proj": "HVDC Modernization Project", "ftype": "Line New", "kv": 345, "cost": 10000000, "status": "Approved", "isd": "2028-12-31", "iso": "MISO", "state": "ND", "from_sub": "East Oliver", "to_sub": "Nelson Lake 345kV", "from_lat": 47.118079, "from_lng": -101.33142, "to_lat": 47.918667, "to_lng": -98.204428}, {"pid": 25334, "name": "28510-Kokomo Webster St-230 CBs", "proj": "Kokomo Webster St Ckt Brkr Replacements", "ftype": "Substation", "kv": 230, "cost": 2800000, "status": "Approved", "isd": "2027-12-16", "iso": "MISO", "state": "IN", "from_sub": "Kokomo Webster St", "to_sub": "230 CBs", "from_lat": 39.911895, "from_lng": -84.935057, "to_lat": 39.903026, "to_lng": -86.28395}, {"pid": 25350, "name": "28523-08BEDFRD-08COLMBU", "proj": "New Waynesville 345kV Station", "ftype": "Substation", "kv": 345, "cost": 33000000, "status": "Approved", "isd": "2028-05-31", "iso": "MISO", "state": "IN", "from_sub": "08BEDFRD", "to_sub": "08COLMBU", "from_lat": 38.86116, "from_lng": -86.48721, "to_lat": 39.788373, "to_lng": -87.291959}, {"pid": 50741, "name": "Project Elkhorn Temporary Tap", "proj": "New Montgomery 345 kV Temporary Tap (Elkhorn Phase 1)", "ftype": "Line New", "kv": 345, "cost": 250000, "status": "Approved", "isd": "2027-12-01", "iso": "MISO", "state": "MO", "from_sub": "Montgomery", "to_sub": "Lumberjack", "from_lat": 38.935184, "from_lng": -91.465427, "to_lat": 38.35075, "to_lng": -92.456783}, {"pid": 17904, "name": "24705-Highland Area-Aviston", "proj": "New Highland-Aviston 138 kV line", "ftype": "Line New", "kv": 138, "cost": 32200000, "status": "Approved", "isd": "2027-12-01", "iso": "MISO", "state": "IL", "from_sub": "Highland Area", "to_sub": "Aviston", "from_lat": 38.758429, "from_lng": -89.741694, "to_lat": 38.608924, "to_lng": -89.603386}, {"pid": 15850, "name": "24604-Magee Road SS-Olive Oil", "proj": "Olive Oil Loop Project", "ftype": "Misc.", "kv": 115, "cost": 301000, "status": "Approved", "isd": "2027-03-01", "iso": "MISO", "state": "MS", "from_sub": "Magee Road SS", "to_sub": "Olive Oil", "from_lat": 31.87377, "from_lng": -89.73369, "to_lat": 31.11478, "to_lng": -90.1356}, {"pid": 17908, "name": "24717-Bland-Franks", "proj": "Rebuild Bland-Franks 345 kV line", "ftype": "Line Upgrade", "kv": 345, "cost": 74000000, "status": "Approved", "isd": "2027-12-01", "iso": "MISO", "state": "MO", "from_sub": "Bland", "to_sub": "Franks", "from_lat": 38.30171, "from_lng": -91.63294, "to_lat": 37.952818, "to_lng": -92.036832}, {"pid": 20946, "name": "26118-Poplar Trans-Poplar Oil Field", "proj": "Poplar2 115/60 kV", "ftype": "Line New", "kv": 115, "cost": 1668853, "status": "Approved", "isd": "2028-12-31", "iso": "MISO", "state": "MT", "from_sub": "Poplar Trans", "to_sub": "Poplar Oil Field", "from_lat": 48.115522, "from_lng": -105.189701, "to_lat": 48.115522, "to_lng": -105.189701}, {"pid": 21105, "name": "26138-Hunters Creek-Lapeer", "proj": "Apollo Interconnection", "ftype": "Line New", "kv": 120, "cost": 12446400, "status": "Approved", "isd": "2027-12-31", "iso": "MISO", "state": "MI", "from_sub": "Hunters Creek", "to_sub": "Lapeer", "from_lat": 43.04919, "from_lng": -83.30244, "to_lat": 43.121459, "to_lng": -83.319558}, {"pid": 21145, "name": "26151-Beecher-Morocco", "proj": "J996 Generator Interconnection", "ftype": "Line Upgrade", "kv": 138, "cost": 843600, "status": "Approved", "isd": "2026-12-31", "iso": "MISO", "state": "MI", "from_sub": "Beecher", "to_sub": "Morocco", "from_lat": 44.844176, "from_lng": -85.660493, "to_lat": 44.844176, "to_lng": -85.660493}, {"pid": 21167, "name": "26163-E.Elkart (AEP)-Menges Ditch", "proj": "New Menges Ditch 138/69 kV Substation", "ftype": "Line New", "kv": 138, "cost": 17544253, "status": "Construction", "isd": "2026-06-30", "iso": "MISO", "state": "IN", "from_sub": "E.Elkart (AEP)", "to_sub": "Menges Ditch", "from_lat": 41.682486, "from_lng": -85.967361, "to_lat": 39.903026, "to_lng": -86.28395}, {"pid": 21170, "name": "26175-Bismarck-Golf", "proj": "Lenox-Stephens- Henry Ford MH - Shrine", "ftype": "Line Upgrade", "kv": 120, "cost": 3631436, "status": "Construction", "isd": "2027-03-31", "iso": "MISO", "state": "MI", "from_sub": "Bismarck", "to_sub": "Golf", "from_lat": 44.844176, "from_lng": -85.660493, "to_lat": 44.844176, "to_lng": -85.660493}, {"pid": 21207, "name": "26186-North Slidell-Cane Bayou", "proj": "Slidell Airport Line Move", "ftype": "Misc.", "kv": 230, "cost": 4500000, "status": "Approved", "isd": "2026-06-01", "iso": "MISO", "state": "LA", "from_sub": "North Slidell", "to_sub": "Cane Bayou", "from_lat": 30.262109, "from_lng": -89.792557, "to_lat": 31.120188, "to_lng": -93.387668}, {"pid": 21205, "name": "26187-Clinton Tap-Eaton Rapids", "proj": "Clinton Area Alternative", "ftype": "Line Upgrade", "kv": 138, "cost": 10450000, "status": "Approved", "isd": "2026-12-31", "iso": "MISO", "state": "MI", "from_sub": "Clinton Tap", "to_sub": "Eaton Rapids", "from_lat": 42.061881, "from_lng": -83.957586, "to_lat": 42.5092, "to_lng": -84.65581},